{
  "type": "FeatureCollection",
  "features": [
    {
      "type": "Feature",
      "id": "1",
      "geometry": {
        "type": "Point",
        "coordinates": [
          -24.415457,
          -17.2382
        ]
      },
      "properties": {
        "height": "0.23",
        "label": "Convulsion",
        "level": 1,
        "pos": "-12273.79,-8457.04",
        "weight": "500744.0",
        "width": "0.90"
      }
    },
    {
      "type": "Feature",
      "id": "1000",
      "geometry": {
        "type": "Point",
        "coordinates": [
          -27.691088,
          -15.038142
        ]
      },
      "properties": {
        "label": "Hawthorn",
        "level": 7,
        "pos": "-14829.68,-6469.98",
        "weight": "0.0"
      }
    },
    {
      "type": "Feature",
      "id": "1001",
      "geometry": {
        "type": "Point",
        "coordinates": [
          -28.966626,
          -17.66734
        ]
      },
      "properties": {
        "label": "Goldenseal",
        "level": 7,
        "pos": "-15824.95,-8847.30",
        "weight": "0.0"
      }
    },
    {
      "type": "Feature",
      "id": "1003",
      "geometry": {
        "type": "Point",
        "coordinates": [
          -24.986923,
          -20.916569
        ]
      },
      "properties": {
        "label": "Mistletoe",
        "level": 7,
        "pos": "-12719.69,-11834.31",
        "weight": "0.0"
      }
    },
    {
      "type": "Feature",
      "id": "1004",
      "geometry": {
        "type": "Point",
        "coordinates": [
          -28.950952,
          -16.873726
        ]
      },
      "properties": {
        "label": "Echinacea",
        "level": 7,
        "pos": "-15812.72,-8126.30",
        "weight": "0.0"
      }
    },
    {
      "type": "Feature",
      "id": "1011",
      "geometry": {
        "type": "Point",
        "coordinates": [
          -24.508604,
          -13.548139
        ]
      },
      "properties": {
        "label": "Waxy flexibility",
        "level": 7,
        "pos": "-12346.47,-5136.02",
        "weight": "0.0"
      }
    },
    {
      "type": "Feature",
      "id": "1013",
      "geometry": {
        "type": "Point",
        "coordinates": [
          -19.880128,
          -16.961168
        ]
      },
      "properties": {
        "label": "Voyeurism",
        "level": 7,
        "pos": "-8734.99,-8205.59",
        "weight": "0.0"
      }
    },
    {
      "type": "Feature",
      "id": "1015",
      "geometry": {
        "type": "Point",
        "coordinates": [
          -22.087929,
          -20.658103
        ]
      },
      "properties": {
        "label": "Vitiligo",
        "level": 7,
        "pos": "-10457.68,-11594.47",
        "weight": "0.0"
      }
    },
    {
      "type": "Feature",
      "id": "1016",
      "geometry": {
        "type": "Point",
        "coordinates": [
          -21.875734,
          -20.454947
        ]
      },
      "properties": {
        "label": "Vitamin supplementation",
        "level": 7,
        "pos": "-10292.11,-11406.24",
        "weight": "0.0"
      }
    },
    {
      "type": "Feature",
      "id": "1019",
      "geometry": {
        "type": "Point",
        "coordinates": [
          -29.141219,
          -17.125178
        ]
      },
      "properties": {
        "label": "Visual field defect",
        "level": 7,
        "pos": "-15961.18,-8354.41",
        "weight": "0.0"
      }
    },
    {
      "type": "Feature",
      "id": "102",
      "geometry": {
        "type": "Point",
        "coordinates": [
          -25.165347,
          -27.483301
        ]
      },
      "properties": {
        "height": "0.23",
        "label": "Confusional state",
        "level": 1,
        "pos": "-12858.91,-18084.84",
        "weight": "8054.0",
        "width": "1.36"
      }
    },
    {
      "type": "Feature",
      "id": "1022",
      "geometry": {
        "type": "Point",
        "coordinates": [
          -25.360471,
          -21.18408
        ]
      },
      "properties": {
        "label": "Victim of abuse",
        "level": 7,
        "pos": "-13011.16,-12082.98",
        "weight": "0.0"
      }
    },
    {
      "type": "Feature",
      "id": "1027",
      "geometry": {
        "type": "Point",
        "coordinates": [
          -28.707782,
          -16.075589
        ]
      },
      "properties": {
        "label": "Ventricular extrasystoles",
        "level": 7,
        "pos": "-15622.98,-7404.24",
        "weight": "0.0"
      }
    },
    {
      "type": "Feature",
      "id": "1030",
      "geometry": {
        "type": "Point",
        "coordinates": [
          -21.180466,
          -20.355564
        ]
      },
      "properties": {
        "label": "Vasculitis",
        "level": 7,
        "pos": "-9749.61,-11314.25",
        "weight": "0.0"
      }
    },
    {
      "type": "Feature",
      "id": "1032",
      "geometry": {
        "type": "Point",
        "coordinates": [
          -19.977965,
          -15.960275
        ]
      },
      "properties": {
        "label": "Varicose vein",
        "level": 7,
        "pos": "-8811.33,-7300.16",
        "weight": "0.0"
      }
    },
    {
      "type": "Feature",
      "id": "1046",
      "geometry": {
        "type": "Point",
        "coordinates": [
          -21.076207,
          -19.748008
        ]
      },
      "properties": {
        "label": "Truancy",
        "level": 7,
        "pos": "-9668.26,-10753.16",
        "weight": "0.0"
      }
    },
    {
      "type": "Feature",
      "id": "1055",
      "geometry": {
        "type": "Point",
        "coordinates": [
          -27.720603,
          -19.414608
        ]
      },
      "properties": {
        "label": "Tracheostomy",
        "level": 7,
        "pos": "-14852.71,-10446.17",
        "weight": "0.0"
      }
    },
    {
      "type": "Feature",
      "id": "1063",
      "geometry": {
        "type": "Point",
        "coordinates": [
          -27.845482,
          -18.784213
        ]
      },
      "properties": {
        "label": "Tonic clonic movements",
        "level": 7,
        "pos": "-14950.15,-9867.42",
        "weight": "0.0"
      }
    },
    {
      "type": "Feature",
      "id": "1064",
      "geometry": {
        "type": "Point",
        "coordinates": [
          -20.119851,
          -17.483661
        ]
      },
      "properties": {
        "label": "Thyroxine",
        "level": 7,
        "pos": "-8922.04,-8680.15",
        "weight": "0.0"
      }
    },
    {
      "type": "Feature",
      "id": "1067",
      "geometry": {
        "type": "Point",
        "coordinates": [
          -21.893125,
          -13.893809
        ]
      },
      "properties": {
        "label": "Thyroid function test",
        "level": 7,
        "pos": "-10305.68,-5444.71",
        "weight": "0.0"
      }
    },
    {
      "type": "Feature",
      "id": "1069",
      "geometry": {
        "type": "Point",
        "coordinates": [
          -21.038464,
          -14.476183
        ]
      },
      "properties": {
        "label": "Thyroid cancer",
        "level": 7,
        "pos": "-9638.81,-5965.83",
        "weight": "0.0"
      }
    },
    {
      "type": "Feature",
      "id": "1070",
      "geometry": {
        "type": "Point",
        "coordinates": [
          -20.737762,
          -19.171612
        ]
      },
      "properties": {
        "label": "Thrombosis",
        "level": 7,
        "pos": "-9404.18,-10222.82",
        "weight": "0.0"
      }
    },
    {
      "type": "Feature",
      "id": "1071",
      "geometry": {
        "type": "Point",
        "coordinates": [
          -20.414876,
          -19.046182
        ]
      },
      "properties": {
        "label": "Throat irritation",
        "level": 7,
        "pos": "-9152.24,-10107.66",
        "weight": "0.0"
      }
    },
    {
      "type": "Feature",
      "id": "1080",
      "geometry": {
        "type": "Point",
        "coordinates": [
          -27.509011,
          -19.57989
        ]
      },
      "properties": {
        "label": "Tearfulness",
        "level": 7,
        "pos": "-14687.61,-10598.28",
        "weight": "0.0"
      }
    },
    {
      "type": "Feature",
      "id": "1086",
      "geometry": {
        "type": "Point",
        "coordinates": [
          -21.184682,
          -19.478519
        ]
      },
      "properties": {
        "label": "Swollen tongue",
        "level": 7,
        "pos": "-9752.90,-10504.97",
        "weight": "0.0"
      }
    },
    {
      "type": "Feature",
      "id": "1093",
      "geometry": {
        "type": "Point",
        "coordinates": [
          -19.376074,
          -17.217876
        ]
      },
      "properties": {
        "label": "Subacute sclerosing panencephalitis",
        "level": 7,
        "pos": "-8341.69,-8438.58",
        "weight": "0.0"
      }
    },
    {
      "type": "Feature",
      "id": "1101",
      "geometry": {
        "type": "Point",
        "coordinates": [
          -28.909967,
          -18.414646
        ]
      },
      "properties": {
        "label": "Spousal abuse",
        "level": 7,
        "pos": "-15780.74,-9529.14",
        "weight": "0.0"
      }
    },
    {
      "type": "Feature",
      "id": "1102",
      "geometry": {
        "type": "Point",
        "coordinates": [
          -20.562721,
          -15.844661
        ]
      },
      "properties": {
        "label": "Spinocerebellar ataxia",
        "level": 7,
        "pos": "-9267.60,-7195.87",
        "weight": "0.0"
      }
    },
    {
      "type": "Feature",
      "id": "1103",
      "geometry": {
        "type": "Point",
        "coordinates": [
          -27.339916,
          -20.096421
        ]
      },
      "properties": {
        "label": "Spinal cord injury",
        "level": 7,
        "pos": "-14555.67,-11074.66",
        "weight": "0.0"
      }
    },
    {
      "type": "Feature",
      "id": "1105",
      "geometry": {
        "type": "Point",
        "coordinates": [
          -20.127349,
          -16.447642
        ]
      },
      "properties": {
        "label": "Social problem",
        "level": 7,
        "pos": "-8927.89,-7740.46",
        "weight": "0.0"
      }
    },
    {
      "type": "Feature",
      "id": "1109",
      "geometry": {
        "type": "Point",
        "coordinates": [
          -22.908935,
          -13.819206
        ]
      },
      "properties": {
        "label": "Sleep talking",
        "level": 7,
        "pos": "-11098.29,-5378.05",
        "weight": "0.0"
      }
    },
    {
      "type": "Feature",
      "id": "1113",
      "geometry": {
        "type": "Point",
        "coordinates": [
          -27.096412,
          -20.184339
        ]
      },
      "properties": {
        "label": "Skin striae",
        "level": 7,
        "pos": "-14365.67,-11155.90",
        "weight": "0.0"
      }
    },
    {
      "type": "Feature",
      "id": "1124",
      "geometry": {
        "type": "Point",
        "coordinates": [
          -28.650558,
          -17.362661
        ]
      },
      "properties": {
        "label": "Sigmoidoscopy",
        "level": 7,
        "pos": "-15578.33,-8570.13",
        "weight": "0.0"
      }
    },
    {
      "type": "Feature",
      "id": "1126",
      "geometry": {
        "type": "Point",
        "coordinates": [
          -28.234243,
          -18.576575
        ]
      },
      "properties": {
        "label": "Shunt malfunction",
        "level": 7,
        "pos": "-15253.49,-9677.27",
        "weight": "0.0"
      }
    },
    {
      "type": "Feature",
      "id": "1131",
      "geometry": {
        "type": "Point",
        "coordinates": [
          -24.103477,
          -13.46679
        ]
      },
      "properties": {
        "label": "Severe mental retardation",
        "level": 7,
        "pos": "-12030.36,-5063.44",
        "weight": "0.0"
      }
    },
    {
      "type": "Feature",
      "id": "1138",
      "geometry": {
        "type": "Point",
        "coordinates": [
          -21.593654,
          -20.325139
        ]
      },
      "properties": {
        "label": "Selective mutism",
        "level": 7,
        "pos": "-10072.01,-11286.10",
        "weight": "0.0"
      }
    },
    {
      "type": "Feature",
      "id": "1140",
      "geometry": {
        "type": "Point",
        "coordinates": [
          -24.845229,
          -13.557921
        ]
      },
      "properties": {
        "label": "Seborrhoea",
        "level": 7,
        "pos": "-12609.13,-5144.75",
        "weight": "0.0"
      }
    },
    {
      "type": "Feature",
      "id": "1143",
      "geometry": {
        "type": "Point",
        "coordinates": [
          -20.652254,
          -18.670592
        ]
      },
      "properties": {
        "label": "Scotoma",
        "level": 6,
        "pos": "-9337.46,-9763.34",
        "weight": "0.0"
      }
    },
    {
      "type": "Feature",
      "id": "1145",
      "geometry": {
        "type": "Point",
        "coordinates": [
          -22.53299,
          -16.626489
        ]
      },
      "properties": {
        "label": "Scleroderma",
        "level": 6,
        "pos": "-10804.95,-7902.31",
        "weight": "0.0"
      }
    },
    {
      "type": "Feature",
      "id": "1149",
      "geometry": {
        "type": "Point",
        "coordinates": [
          -27.927043,
          -19.013546
        ]
      },
      "properties": {
        "label": "Rotavirus test",
        "level": 6,
        "pos": "-15013.79,-10077.71",
        "weight": "0.0"
      }
    },
    {
      "type": "Feature",
      "id": "1152",
      "geometry": {
        "type": "Point",
        "coordinates": [
          -26.996357,
          -19.913174
        ]
      },
      "properties": {
        "label": "Rib fracture",
        "level": 6,
        "pos": "-14287.60,-10905.48",
        "weight": "0.0"
      }
    },
    {
      "type": "Feature",
      "id": "1153",
      "geometry": {
        "type": "Point",
        "coordinates": [
          -20.776518,
          -18.77247
        ]
      },
      "properties": {
        "label": "Rheumatoid factor",
        "level": 6,
        "pos": "-9434.42,-9856.66",
        "weight": "0.0"
      }
    },
    {
      "type": "Feature",
      "id": "1155",
      "geometry": {
        "type": "Point",
        "coordinates": [
          -22.900271,
          -20.717015
        ]
      },
      "properties": {
        "label": "Rhabdomyolysis",
        "level": 6,
        "pos": "-11091.53,-11649.10",
        "weight": "0.0"
      }
    },
    {
      "type": "Feature",
      "id": "1156",
      "geometry": {
        "type": "Point",
        "coordinates": [
          -21.246096,
          -18.788873
        ]
      },
      "properties": {
        "label": "Reye's syndrome",
        "level": 6,
        "pos": "-9800.82,-9871.69",
        "weight": "0.0"
      }
    },
    {
      "type": "Feature",
      "id": "1157",
      "geometry": {
        "type": "Point",
        "coordinates": [
          -23.523681,
          -14.313385
        ]
      },
      "properties": {
        "label": "Retrograde amnesia",
        "level": 6,
        "pos": "-11577.96,-5820.02",
        "weight": "0.0"
      }
    },
    {
      "type": "Feature",
      "id": "1159",
      "geometry": {
        "type": "Point",
        "coordinates": [
          -26.070516,
          -20.463176
        ]
      },
      "properties": {
        "label": "Respite care",
        "level": 6,
        "pos": "-13565.19,-11413.86",
        "weight": "0.0"
      }
    },
    {
      "type": "Feature",
      "id": "1160",
      "geometry": {
        "type": "Point",
        "coordinates": [
          -24.646017,
          -13.807308
        ]
      },
      "properties": {
        "label": "Respiratory therapy",
        "level": 6,
        "pos": "-12453.69,-5367.42",
        "weight": "0.0"
      }
    },
    {
      "type": "Feature",
      "id": "1161",
      "geometry": {
        "type": "Point",
        "coordinates": [
          -26.855804,
          -21.501416
        ]
      },
      "properties": {
        "label": "Respiratory rate decreased",
        "level": 6,
        "pos": "-14177.93,-12378.55",
        "weight": "0.0"
      }
    },
    {
      "type": "Feature",
      "id": "1163",
      "geometry": {
        "type": "Point",
        "coordinates": [
          -25.810159,
          -20.464181
        ]
      },
      "properties": {
        "label": "Respiratory distress",
        "level": 6,
        "pos": "-13362.04,-11414.79",
        "weight": "0.0"
      }
    },
    {
      "type": "Feature",
      "id": "1166",
      "geometry": {
        "type": "Point",
        "coordinates": [
          -22.147767,
          -14.481696
        ]
      },
      "properties": {
        "label": "Renal pain",
        "level": 6,
        "pos": "-10504.37,-5970.77",
        "weight": "0.0"
      }
    },
    {
      "type": "Feature",
      "id": "1169",
      "geometry": {
        "type": "Point",
        "coordinates": [
          -28.345511,
          -17.369922
        ]
      },
      "properties": {
        "label": "Renal cancer",
        "level": 6,
        "pos": "-15340.31,-8576.73",
        "weight": "0.0"
      }
    },
    {
      "type": "Feature",
      "id": "1170",
      "geometry": {
        "type": "Point",
        "coordinates": [
          -30.89955,
          -15.216806
        ]
      },
      "properties": {
        "label": "Relaxation therapy",
        "level": 6,
        "pos": "-17333.16,-6630.54",
        "weight": "0.0"
      }
    },
    {
      "type": "Feature",
      "id": "1171",
      "geometry": {
        "type": "Point",
        "coordinates": [
          -28.373745,
          -18.606849
        ]
      },
      "properties": {
        "label": "Regurgitation",
        "level": 6,
        "pos": "-15362.34,-9704.98",
        "weight": "0.0"
      }
    },
    {
      "type": "Feature",
      "id": "1180",
      "geometry": {
        "type": "Point",
        "coordinates": [
          -24.35872,
          -20.733229
        ]
      },
      "properties": {
        "label": "Radiation exposure",
        "level": 6,
        "pos": "-12229.52,-11664.14",
        "weight": "0.0"
      }
    },
    {
      "type": "Feature",
      "id": "1183",
      "geometry": {
        "type": "Point",
        "coordinates": [
          -32.163798,
          -17.727914
        ]
      },
      "properties": {
        "label": "Pulmonary valve stenosis",
        "level": 6,
        "pos": "-18319.62,-8902.46",
        "weight": "0.0"
      }
    },
    {
      "type": "Feature",
      "id": "1184",
      "geometry": {
        "type": "Point",
        "coordinates": [
          -22.194097,
          -16.528241
        ]
      },
      "properties": {
        "label": "Pulmonary oedema",
        "level": 6,
        "pos": "-10540.52,-7813.38",
        "weight": "0.0"
      }
    },
    {
      "type": "Feature",
      "id": "1185",
      "geometry": {
        "type": "Point",
        "coordinates": [
          -26.854625,
          -20.373741
        ]
      },
      "properties": {
        "label": "Psychopathic personality",
        "level": 6,
        "pos": "-14177.01,-11331.07",
        "weight": "0.0"
      }
    },
    {
      "type": "Feature",
      "id": "1203",
      "geometry": {
        "type": "Point",
        "coordinates": [
          -26.08346,
          -14.017165
        ]
      },
      "properties": {
        "label": "Postictal headache",
        "level": 6,
        "pos": "-13575.29,-5554.98",
        "weight": "0.0"
      }
    },
    {
      "type": "Feature",
      "id": "1205",
      "geometry": {
        "type": "Point",
        "coordinates": [
          -22.344134,
          -13.959483
        ]
      },
      "properties": {
        "label": "Post procedural complication",
        "level": 6,
        "pos": "-10657.59,-5503.41",
        "weight": "0.0"
      }
    },
    {
      "type": "Feature",
      "id": "1206",
      "geometry": {
        "type": "Point",
        "coordinates": [
          -20.544843,
          -17.102154
        ]
      },
      "properties": {
        "label": "Post gastric surgery syndrome",
        "level": 6,
        "pos": "-9253.65,-8333.51",
        "weight": "0.0"
      }
    },
    {
      "type": "Feature",
      "id": "1208",
      "geometry": {
        "type": "Point",
        "coordinates": [
          -23.996271,
          -12.580516
        ]
      },
      "properties": {
        "label": "Polyneuropathy",
        "level": 6,
        "pos": "-11946.71,-4274.26",
        "weight": "0.0"
      }
    },
    {
      "type": "Feature",
      "id": "1218",
      "geometry": {
        "type": "Point",
        "coordinates": [
          -20.251292,
          -17.938564
        ]
      },
      "properties": {
        "label": "Pituitary tumour benign",
        "level": 6,
        "pos": "-9024.60,-9094.43",
        "weight": "0.0"
      }
    },
    {
      "type": "Feature",
      "id": "1224",
      "geometry": {
        "type": "Point",
        "coordinates": [
          -28.292081,
          -19.009655
        ]
      },
      "properties": {
        "label": "Phlebotomy",
        "level": 6,
        "pos": "-15298.62,-10074.14",
        "weight": "0.0"
      }
    },
    {
      "type": "Feature",
      "id": "1225",
      "geometry": {
        "type": "Point",
        "coordinates": [
          -29.160289,
          -16.495638
        ]
      },
      "properties": {
        "label": "Phenylketonuria",
        "level": 6,
        "pos": "-15976.06,-7783.88",
        "weight": "0.0"
      }
    },
    {
      "type": "Feature",
      "id": "1226",
      "geometry": {
        "type": "Point",
        "coordinates": [
          -29.16712,
          -12.318096
        ]
      },
      "properties": {
        "label": "Pharyngitis",
        "level": 6,
        "pos": "-15981.39,-4041.12",
        "weight": "0.0"
      }
    },
    {
      "type": "Feature",
      "id": "1227",
      "geometry": {
        "type": "Point",
        "coordinates": [
          -25.667107,
          -13.760524
        ]
      },
      "properties": {
        "label": "Phantom pain",
        "level": 6,
        "pos": "-13250.42,-5325.63",
        "weight": "0.0"
      }
    },
    {
      "type": "Feature",
      "id": "1228",
      "geometry": {
        "type": "Point",
        "coordinates": [
          -24.80136,
          -20.63173
        ]
      },
      "properties": {
        "label": "Phaeochromocytoma",
        "level": 6,
        "pos": "-12574.90,-11570.02",
        "weight": "0.0"
      }
    },
    {
      "type": "Feature",
      "id": "1230",
      "geometry": {
        "type": "Point",
        "coordinates": [
          -20.745888,
          -15.203302
        ]
      },
      "properties": {
        "label": "Perseveration",
        "level": 6,
        "pos": "-9410.52,-6618.40",
        "weight": "0.0"
      }
    },
    {
      "type": "Feature",
      "id": "1233",
      "geometry": {
        "type": "Point",
        "coordinates": [
          -29.354234,
          -19.681185
        ]
      },
      "properties": {
        "label": "Peritoneal dialysis",
        "level": 6,
        "pos": "-16127.39,-10691.58",
        "weight": "0.0"
      }
    },
    {
      "type": "Feature",
      "id": "1237",
      "geometry": {
        "type": "Point",
        "coordinates": [
          -26.300423,
          -11.245808
        ]
      },
      "properties": {
        "label": "Pericarditis",
        "level": 6,
        "pos": "-13744.58,-3090.84",
        "weight": "0.0"
      }
    },
    {
      "type": "Feature",
      "id": "1244",
      "geometry": {
        "type": "Point",
        "coordinates": [
          -20.468703,
          -14.767638
        ]
      },
      "properties": {
        "label": "Pancytopenia",
        "level": 6,
        "pos": "-9194.24,-6227.14",
        "weight": "0.0"
      }
    },
    {
      "type": "Feature",
      "id": "1247",
      "geometry": {
        "type": "Point",
        "coordinates": [
          -26.75862,
          -14.198135
        ]
      },
      "properties": {
        "label": "Oxygen saturation",
        "level": 6,
        "pos": "-14102.10,-5716.86",
        "weight": "0.0"
      }
    },
    {
      "type": "Feature",
      "id": "1250",
      "geometry": {
        "type": "Point",
        "coordinates": [
          -27.333957,
          -19.430479
        ]
      },
      "properties": {
        "label": "Osteopathic treatment",
        "level": 6,
        "pos": "-14551.02,-10460.77",
        "weight": "0.0"
      }
    },
    {
      "type": "Feature",
      "id": "1251",
      "geometry": {
        "type": "Point",
        "coordinates": [
          -21.680111,
          -14.640757
        ]
      },
      "properties": {
        "label": "Osteomyelitis",
        "level": 6,
        "pos": "-10139.47,-6113.34",
        "weight": "0.0"
      }
    },
    {
      "type": "Feature",
      "id": "1257",
      "geometry": {
        "type": "Point",
        "coordinates": [
          -23.301413,
          -20.57094
        ]
      },
      "properties": {
        "label": "Oral surgery",
        "level": 6,
        "pos": "-11404.53,-11513.68",
        "weight": "0.0"
      }
    },
    {
      "type": "Feature",
      "id": "1259",
      "geometry": {
        "type": "Point",
        "coordinates": [
          -23.264438,
          -13.95521
        ]
      },
      "properties": {
        "label": "Oppositional defiant disorder",
        "level": 6,
        "pos": "-11375.68,-5499.59",
        "weight": "0.0"
      }
    },
    {
      "type": "Feature",
      "id": "1260",
      "geometry": {
        "type": "Point",
        "coordinates": [
          -21.864008,
          -21.392669
        ]
      },
      "properties": {
        "label": "Opisthotonus",
        "level": 6,
        "pos": "-10282.96,-12277.19",
        "weight": "0.0"
      }
    },
    {
      "type": "Feature",
      "id": "1264",
      "geometry": {
        "type": "Point",
        "coordinates": [
          -21.505492,
          -19.120476
        ]
      },
      "properties": {
        "label": "Oligodendroglioma",
        "level": 6,
        "pos": "-10003.22,-10175.86",
        "weight": "0.0"
      }
    },
    {
      "type": "Feature",
      "id": "1267",
      "geometry": {
        "type": "Point",
        "coordinates": [
          -22.473665,
          -16.518947
        ]
      },
      "properties": {
        "label": "Oestrogen deficiency",
        "level": 6,
        "pos": "-10758.66,-7804.97",
        "weight": "0.0"
      }
    },
    {
      "type": "Feature",
      "id": "1268",
      "geometry": {
        "type": "Point",
        "coordinates": [
          -28.705372,
          -14.600024
        ]
      },
      "properties": {
        "label": "Oedema mouth",
        "level": 6,
        "pos": "-15621.10,-6076.82",
        "weight": "0.0"
      }
    },
    {
      "type": "Feature",
      "id": "1271",
      "geometry": {
        "type": "Point",
        "coordinates": [
          -25.05372,
          -20.480509
        ]
      },
      "properties": {
        "label": "Occipital neuralgia",
        "level": 6,
        "pos": "-12771.81,-11429.91",
        "weight": "0.0"
      }
    },
    {
      "type": "Feature",
      "id": "1273",
      "geometry": {
        "type": "Point",
        "coordinates": [
          -22.517483,
          -16.365241
        ]
      },
      "properties": {
        "label": "Obsessive-compulsive personality disorder",
        "level": 6,
        "pos": "-10792.85,-7665.94",
        "weight": "0.0"
      }
    },
    {
      "type": "Feature",
      "id": "1276",
      "geometry": {
        "type": "Point",
        "coordinates": [
          -29.761514,
          -17.713684
        ]
      },
      "properties": {
        "label": "Nuclear magnetic resonance imaging",
        "level": 6,
        "pos": "-16445.18,-8889.50",
        "weight": "0.0"
      }
    },
    {
      "type": "Feature",
      "id": "1279",
      "geometry": {
        "type": "Point",
        "coordinates": [
          -23.818679,
          -13.767398
        ]
      },
      "properties": {
        "label": "Nonketotic hyperglycinaemia",
        "level": 6,
        "pos": "-11808.14,-5331.77",
        "weight": "0.0"
      }
    },
    {
      "type": "Feature",
      "id": "128",
      "geometry": {
        "type": "Point",
        "coordinates": [
          -15.251665,
          -4.414636
        ]
      },
      "properties": {
        "height": "0.23",
        "label": "Anxiety",
        "level": 1,
        "pos": "-5123.52,2894.88",
        "weight": "18099.0",
        "width": "0.63"
      }
    },
    {
      "type": "Feature",
      "id": "1281",
      "geometry": {
        "type": "Point",
        "coordinates": [
          -22.294625,
          -19.893242
        ]
      },
      "properties": {
        "label": "No adverse event",
        "level": 6,
        "pos": "-10618.96,-10887.09",
        "weight": "0.0"
      }
    },
    {
      "type": "Feature",
      "id": "1283",
      "geometry": {
        "type": "Point",
        "coordinates": [
          -20.471266,
          -19.437251
        ]
      },
      "properties": {
        "label": "Neurotoxicity",
        "level": 6,
        "pos": "-9196.24,-10467.00",
        "weight": "0.0"
      }
    },
    {
      "type": "Feature",
      "id": "1289",
      "geometry": {
        "type": "Point",
        "coordinates": [
          -20.18306,
          -16.666125
        ]
      },
      "properties": {
        "label": "Nerve compression",
        "level": 6,
        "pos": "-8971.36,-7938.20",
        "weight": "0.0"
      }
    },
    {
      "type": "Feature",
      "id": "1291",
      "geometry": {
        "type": "Point",
        "coordinates": [
          -21.281302,
          -14.951917
        ]
      },
      "properties": {
        "label": "Neonatal aspiration",
        "level": 6,
        "pos": "-9828.29,-6392.54",
        "weight": "0.0"
      }
    },
    {
      "type": "Feature",
      "id": "1295",
      "geometry": {
        "type": "Point",
        "coordinates": [
          -25.236835,
          -14.109043
        ]
      },
      "properties": {
        "label": "Neck injury",
        "level": 6,
        "pos": "-12914.69,-5637.15",
        "weight": "0.0"
      }
    },
    {
      "type": "Feature",
      "id": "1296",
      "geometry": {
        "type": "Point",
        "coordinates": [
          -29.236762,
          -18.720709
        ]
      },
      "properties": {
        "label": "Near drowning",
        "level": 6,
        "pos": "-16035.73,-9809.24",
        "weight": "0.0"
      }
    },
    {
      "type": "Feature",
      "id": "1300",
      "geometry": {
        "type": "Point",
        "coordinates": [
          -18.667541,
          -18.025902
        ]
      },
      "properties": {
        "label": "Myofascial pain syndrome",
        "level": 6,
        "pos": "-7788.84,-9174.09",
        "weight": "0.0"
      }
    },
    {
      "type": "Feature",
      "id": "1314",
      "geometry": {
        "type": "Point",
        "coordinates": [
          -20.873394,
          -15.003941
        ]
      },
      "properties": {
        "label": "Monoplegia",
        "level": 6,
        "pos": "-9510.01,-6439.26",
        "weight": "0.0"
      }
    },
    {
      "type": "Feature",
      "id": "1316",
      "geometry": {
        "type": "Point",
        "coordinates": [
          -20.686588,
          -18.253528
        ]
      },
      "properties": {
        "label": "Mitral valve stenosis",
        "level": 6,
        "pos": "-9364.25,-9381.89",
        "weight": "0.0"
      }
    },
    {
      "type": "Feature",
      "id": "1318",
      "geometry": {
        "type": "Point",
        "coordinates": [
          -20.228211,
          -17.335
        ]
      },
      "properties": {
        "label": "Mitochondrial encephalomyopathy",
        "level": 6,
        "pos": "-9006.59,-8544.99",
        "weight": "0.0"
      }
    },
    {
      "type": "Feature",
      "id": "1323",
      "geometry": {
        "type": "Point",
        "coordinates": [
          -19.912578,
          -17.478021
        ]
      },
      "properties": {
        "label": "Metamorphopsia",
        "level": 6,
        "pos": "-8760.31,-8675.02",
        "weight": "0.0"
      }
    },
    {
      "type": "Feature",
      "id": "1335",
      "geometry": {
        "type": "Point",
        "coordinates": [
          -23.83197,
          -20.634427
        ]
      },
      "properties": {
        "label": "Menarche",
        "level": 6,
        "pos": "-11818.51,-11572.52",
        "weight": "0.0"
      }
    },
    {
      "type": "Feature",
      "id": "1342",
      "geometry": {
        "type": "Point",
        "coordinates": [
          -27.22825,
          -21.124137
        ]
      },
      "properties": {
        "label": "Mammogram",
        "level": 6,
        "pos": "-14468.54,-12027.22",
        "weight": "0.0"
      }
    },
    {
      "type": "Feature",
      "id": "1346",
      "geometry": {
        "type": "Point",
        "coordinates": [
          -23.368363,
          -13.70672
        ]
      },
      "properties": {
        "label": "Magnetic therapy",
        "level": 6,
        "pos": "-11456.77,-5277.58",
        "weight": "0.0"
      }
    },
    {
      "type": "Feature",
      "id": "1347",
      "geometry": {
        "type": "Point",
        "coordinates": [
          -19.627729,
          -14.947329
        ]
      },
      "properties": {
        "label": "Macrobiotic diet",
        "level": 6,
        "pos": "-8538.05,-6388.42",
        "weight": "0.0"
      }
    },
    {
      "type": "Feature",
      "id": "1349",
      "geometry": {
        "type": "Point",
        "coordinates": [
          -21.298373,
          -15.123542
        ]
      },
      "properties": {
        "label": "Lung infection",
        "level": 6,
        "pos": "-9841.61,-6546.71",
        "weight": "0.0"
      }
    },
    {
      "type": "Feature",
      "id": "1357",
      "geometry": {
        "type": "Point",
        "coordinates": [
          -20.484556,
          -17.638353
        ]
      },
      "properties": {
        "label": "Lissencephaly",
        "level": 6,
        "pos": "-9206.61,-8820.91",
        "weight": "0.0"
      }
    },
    {
      "type": "Feature",
      "id": "1358",
      "geometry": {
        "type": "Point",
        "coordinates": [
          -23.57738,
          -13.454739
        ]
      },
      "properties": {
        "label": "Lipids",
        "level": 6,
        "pos": "-11619.86,-5052.69",
        "weight": "0.0"
      }
    },
    {
      "type": "Feature",
      "id": "1359",
      "geometry": {
        "type": "Point",
        "coordinates": [
          -23.808017,
          -22.242022
        ]
      },
      "properties": {
        "label": "Lipase",
        "level": 6,
        "pos": "-11799.82,-13070.89",
        "weight": "0.0"
      }
    },
    {
      "type": "Feature",
      "id": "136",
      "geometry": {
        "type": "Point",
        "coordinates": [
          -16.382908,
          -19.738189
        ]
      },
      "properties": {
        "label": "Electroencephalogram",
        "level": 2,
        "pos": "-6006.20,-10744.11",
        "weight": "28119.0"
      }
    },
    {
      "type": "Feature",
      "id": "1360",
      "geometry": {
        "type": "Point",
        "coordinates": [
          -26.277264,
          -20.03647
        ]
      },
      "properties": {
        "label": "Lip dry",
        "level": 6,
        "pos": "-13726.51,-11019.29",
        "weight": "0.0"
      }
    },
    {
      "type": "Feature",
      "id": "1364",
      "geometry": {
        "type": "Point",
        "coordinates": [
          -26.340844,
          -20.383325
        ]
      },
      "properties": {
        "label": "Lice infestation",
        "level": 6,
        "pos": "-13776.12,-11339.94",
        "weight": "0.0"
      }
    },
    {
      "type": "Feature",
      "id": "1370",
      "geometry": {
        "type": "Point",
        "coordinates": [
          -27.947728,
          -15.461787
        ]
      },
      "properties": {
        "label": "Laser therapy",
        "level": 6,
        "pos": "-15029.93,-6850.92",
        "weight": "0.0"
      }
    },
    {
      "type": "Feature",
      "id": "1386",
      "geometry": {
        "type": "Point",
        "coordinates": [
          -23.992144,
          -21.03011
        ]
      },
      "properties": {
        "label": "Iron deficiency anaemia",
        "level": 6,
        "pos": "-11943.49,-11939.80",
        "weight": "0.0"
      }
    },
    {
      "type": "Feature",
      "id": "1391",
      "geometry": {
        "type": "Point",
        "coordinates": [
          -29.024196,
          -19.925995
        ]
      },
      "properties": {
        "label": "Intentional self-injury",
        "level": 6,
        "pos": "-15869.87,-10917.31",
        "weight": "0.0"
      }
    },
    {
      "type": "Feature",
      "id": "1396",
      "geometry": {
        "type": "Point",
        "coordinates": [
          -23.698055,
          -13.905826
        ]
      },
      "properties": {
        "label": "Inferiority complex",
        "level": 6,
        "pos": "-11714.02,-5455.45",
        "weight": "0.0"
      }
    },
    {
      "type": "Feature",
      "id": "140",
      "geometry": {
        "type": "Point",
        "coordinates": [
          -20.819272,
          -26.482763
        ]
      },
      "properties": {
        "label": "Amnesia",
        "level": 2,
        "pos": "-9467.78,-17110.79",
        "weight": "14155.75"
      }
    },
    {
      "type": "Feature",
      "id": "1400",
      "geometry": {
        "type": "Point",
        "coordinates": [
          -21.274458,
          -13.703988
        ]
      },
      "properties": {
        "label": "Incest",
        "level": 6,
        "pos": "-9822.95,-5275.14",
        "weight": "0.0"
      }
    },
    {
      "type": "Feature",
      "id": "1401",
      "geometry": {
        "type": "Point",
        "coordinates": [
          -27.423925,
          -14.19894
        ]
      },
      "properties": {
        "label": "Impulsive behaviour",
        "level": 6,
        "pos": "-14621.22,-5717.58",
        "weight": "0.0"
      }
    },
    {
      "type": "Feature",
      "id": "1407",
      "geometry": {
        "type": "Point",
        "coordinates": [
          -21.270844,
          -19.902769
        ]
      },
      "properties": {
        "label": "Illiteracy",
        "level": 6,
        "pos": "-9820.13,-10895.88",
        "weight": "0.0"
      }
    },
    {
      "type": "Feature",
      "id": "1411",
      "geometry": {
        "type": "Point",
        "coordinates": [
          -20.670594,
          -16.366259
        ]
      },
      "properties": {
        "label": "Hypoparathyroidism",
        "level": 6,
        "pos": "-9351.77,-7666.86",
        "weight": "0.0"
      }
    },
    {
      "type": "Feature",
      "id": "1421",
      "geometry": {
        "type": "Point",
        "coordinates": [
          -25.402956,
          -13.588029
        ]
      },
      "properties": {
        "label": "Hyperplasia",
        "level": 6,
        "pos": "-13044.31,-5171.62",
        "weight": "0.0"
      }
    },
    {
      "type": "Feature",
      "id": "1426",
      "geometry": {
        "type": "Point",
        "coordinates": [
          -21.389764,
          -20.74969
        ]
      },
      "properties": {
        "label": "Hyperinsulinaemia",
        "level": 6,
        "pos": "-9912.92,-11679.41",
        "weight": "0.0"
      }
    },
    {
      "type": "Feature",
      "id": "1428",
      "geometry": {
        "type": "Point",
        "coordinates": [
          -29.843434,
          -18.363914
        ]
      },
      "properties": {
        "label": "Hyperbaric oxygen therapy",
        "level": 6,
        "pos": "-16509.10,-9482.76",
        "weight": "0.0"
      }
    },
    {
      "type": "Feature",
      "id": "1429",
      "geometry": {
        "type": "Point",
        "coordinates": [
          -28.067148,
          -10.533473
        ]
      },
      "properties": {
        "label": "Hyperammonaemia",
        "level": 6,
        "pos": "-15123.11,-2461.53",
        "weight": "0.0"
      }
    },
    {
      "type": "Feature",
      "id": "1430",
      "geometry": {
        "type": "Point",
        "coordinates": [
          -30.317062,
          -14.81068
        ]
      },
      "properties": {
        "label": "Humerus fracture",
        "level": 6,
        "pos": "-16878.66,-6265.76",
        "weight": "0.0"
      }
    },
    {
      "type": "Feature",
      "id": "1433",
      "geometry": {
        "type": "Point",
        "coordinates": [
          -23.141443,
          -21.678417
        ]
      },
      "properties": {
        "label": "Hippus",
        "level": 6,
        "pos": "-11279.71,-12543.69",
        "weight": "0.0"
      }
    },
    {
      "type": "Feature",
      "id": "1434",
      "geometry": {
        "type": "Point",
        "coordinates": [
          -20.453375,
          -19.200429
        ]
      },
      "properties": {
        "label": "Hip dysplasia",
        "level": 6,
        "pos": "-9182.28,-10249.29",
        "weight": "0.0"
      }
    },
    {
      "type": "Feature",
      "id": "1438",
      "geometry": {
        "type": "Point",
        "coordinates": [
          -22.367754,
          -20.815957
        ]
      },
      "properties": {
        "label": "Hepato-lenticular degeneration",
        "level": 6,
        "pos": "-10676.02,-11740.90",
        "weight": "0.0"
      }
    },
    {
      "type": "Feature",
      "id": "1439",
      "geometry": {
        "type": "Point",
        "coordinates": [
          -28.601562,
          -17.971395
        ]
      },
      "properties": {
        "label": "Hepatitis A",
        "level": 6,
        "pos": "-15540.10,-9124.37",
        "weight": "0.0"
      }
    },
    {
      "type": "Feature",
      "id": "1450",
      "geometry": {
        "type": "Point",
        "coordinates": [
          -27.532413,
          -20.431088
        ]
      },
      "properties": {
        "label": "Head titubation",
        "level": 6,
        "pos": "-14705.87,-11384.15",
        "weight": "0.0"
      }
    },
    {
      "type": "Feature",
      "id": "1451",
      "geometry": {
        "type": "Point",
        "coordinates": [
          -25.757959,
          -21.175148
        ]
      },
      "properties": {
        "label": "Head circumference",
        "level": 6,
        "pos": "-13321.31,-12074.67",
        "weight": "0.0"
      }
    },
    {
      "type": "Feature",
      "id": "1468",
      "geometry": {
        "type": "Point",
        "coordinates": [
          -26.405155,
          -20.77212
        ]
      },
      "properties": {
        "label": "Glomerulonephritis",
        "level": 6,
        "pos": "-13826.30,-11700.22",
        "weight": "0.0"
      }
    },
    {
      "type": "Feature",
      "id": "1469",
      "geometry": {
        "type": "Point",
        "coordinates": [
          -23.952133,
          -13.606303
        ]
      },
      "properties": {
        "label": "Globulin",
        "level": 6,
        "pos": "-11912.27,-5187.93",
        "weight": "0.0"
      }
    },
    {
      "type": "Feature",
      "id": "1470",
      "geometry": {
        "type": "Point",
        "coordinates": [
          -27.710235,
          -15.252462
        ]
      },
      "properties": {
        "label": "Gliosis",
        "level": 6,
        "pos": "-14844.62,-6662.60",
        "weight": "0.0"
      }
    },
    {
      "type": "Feature",
      "id": "1478",
      "geometry": {
        "type": "Point",
        "coordinates": [
          -22.528274,
          -21.054628
        ]
      },
      "properties": {
        "label": "Genital pain",
        "level": 6,
        "pos": "-10801.27,-11962.59",
        "weight": "0.0"
      }
    },
    {
      "type": "Feature",
      "id": "1484",
      "geometry": {
        "type": "Point",
        "coordinates": [
          -18.662351,
          -16.023923
        ]
      },
      "properties": {
        "label": "Gastroenteritis",
        "level": 6,
        "pos": "-7784.79,-7357.60",
        "weight": "0.0"
      }
    },
    {
      "type": "Feature",
      "id": "1485",
      "geometry": {
        "type": "Point",
        "coordinates": [
          -28.48404,
          -17.027519
        ]
      },
      "properties": {
        "label": "Gastric ulcer",
        "level": 6,
        "pos": "-15448.40,-8265.78",
        "weight": "0.0"
      }
    },
    {
      "type": "Feature",
      "id": "1491",
      "geometry": {
        "type": "Point",
        "coordinates": [
          -28.117271,
          -14.062074
        ]
      },
      "properties": {
        "label": "Frontotemporal dementia",
        "level": 6,
        "pos": "-15162.22,-5595.14",
        "weight": "0.0"
      }
    },
    {
      "type": "Feature",
      "id": "1499",
      "geometry": {
        "type": "Point",
        "coordinates": [
          -21.172827,
          -15.055452
        ]
      },
      "properties": {
        "label": "Foetal distress syndrome",
        "level": 6,
        "pos": "-9743.65,-6485.53",
        "weight": "0.0"
      }
    },
    {
      "type": "Feature",
      "id": "1504",
      "geometry": {
        "type": "Point",
        "coordinates": [
          -20.430473,
          -18.623049
        ]
      },
      "properties": {
        "label": "Fetishism",
        "level": 6,
        "pos": "-9164.41,-9719.81",
        "weight": "0.0"
      }
    },
    {
      "type": "Feature",
      "id": "1508",
      "geometry": {
        "type": "Point",
        "coordinates": [
          -22.339994,
          -14.197241
        ]
      },
      "properties": {
        "label": "Feeding disorder",
        "level": 6,
        "pos": "-10654.36,-5716.06",
        "weight": "0.0"
      }
    },
    {
      "type": "Feature",
      "id": "1516",
      "geometry": {
        "type": "Point",
        "coordinates": [
          -21.995243,
          -12.56013
        ]
      },
      "properties": {
        "label": "Face presentation",
        "level": 6,
        "pos": "-10385.36,-4256.14",
        "weight": "0.0"
      }
    },
    {
      "type": "Feature",
      "id": "1518",
      "geometry": {
        "type": "Point",
        "coordinates": [
          -19.375292,
          -18.56496
        ]
      },
      "properties": {
        "label": "Eye irritation",
        "level": 6,
        "pos": "-8341.08,-9666.64",
        "weight": "0.0"
      }
    },
    {
      "type": "Feature",
      "id": "1519",
      "geometry": {
        "type": "Point",
        "coordinates": [
          -25.246396,
          -13.320018
        ]
      },
      "properties": {
        "label": "Eye injury",
        "level": 6,
        "pos": "-12922.15,-4932.55",
        "weight": "0.0"
      }
    },
    {
      "type": "Feature",
      "id": "1520",
      "geometry": {
        "type": "Point",
        "coordinates": [
          -26.627231,
          -20.052269
        ]
      },
      "properties": {
        "label": "Eye infection",
        "level": 6,
        "pos": "-13999.58,-11033.88",
        "weight": "0.0"
      }
    },
    {
      "type": "Feature",
      "id": "1523",
      "geometry": {
        "type": "Point",
        "coordinates": [
          -24.734447,
          -12.993748
        ]
      },
      "properties": {
        "label": "Extradural haematoma",
        "level": 6,
        "pos": "-12522.69,-4641.87",
        "weight": "0.0"
      }
    },
    {
      "type": "Feature",
      "id": "1525",
      "geometry": {
        "type": "Point",
        "coordinates": [
          -28.30664,
          -18.079078
        ]
      },
      "properties": {
        "label": "Exercise test",
        "level": 6,
        "pos": "-15309.98,-9222.61",
        "weight": "0.0"
      }
    },
    {
      "type": "Feature",
      "id": "1527",
      "geometry": {
        "type": "Point",
        "coordinates": [
          -21.059944,
          -12.2014
        ]
      },
      "properties": {
        "label": "Exercise electrocardiogram",
        "level": 6,
        "pos": "-9655.57,-3937.52",
        "weight": "0.0"
      }
    },
    {
      "type": "Feature",
      "id": "1530",
      "geometry": {
        "type": "Point",
        "coordinates": [
          -26.518384,
          -14.23997
        ]
      },
      "properties": {
        "label": "Ergot poisoning",
        "level": 6,
        "pos": "-13914.65,-5754.30",
        "weight": "0.0"
      }
    },
    {
      "type": "Feature",
      "id": "1536",
      "geometry": {
        "type": "Point",
        "coordinates": [
          -22.406125,
          -20.23584
        ]
      },
      "properties": {
        "label": "Encephalomalacia",
        "level": 6,
        "pos": "-10705.96,-11203.51",
        "weight": "0.0"
      }
    },
    {
      "type": "Feature",
      "id": "1537",
      "geometry": {
        "type": "Point",
        "coordinates": [
          -21.158576,
          -19.078006
        ]
      },
      "properties": {
        "label": "Encephalitis california",
        "level": 6,
        "pos": "-9732.53,-10136.87",
        "weight": "0.0"
      }
    },
    {
      "type": "Feature",
      "id": "1540",
      "geometry": {
        "type": "Point",
        "coordinates": [
          -25.513263,
          -20.549667
        ]
      },
      "properties": {
        "label": "Electromyogram",
        "level": 6,
        "pos": "-13130.38,-11493.97",
        "weight": "0.0"
      }
    },
    {
      "type": "Feature",
      "id": "1545",
      "geometry": {
        "type": "Point",
        "coordinates": [
          -24.332025,
          -14.527819
        ]
      },
      "properties": {
        "label": "Electrocardiogram QT interval",
        "level": 6,
        "pos": "-12208.69,-6012.10",
        "weight": "0.0"
      }
    },
    {
      "type": "Feature",
      "id": "1546",
      "geometry": {
        "type": "Point",
        "coordinates": [
          -22.718041,
          -14.03905
        ]
      },
      "properties": {
        "label": "Electrocardiogram normal",
        "level": 6,
        "pos": "-10949.34,-5574.55",
        "weight": "0.0"
      }
    },
    {
      "type": "Feature",
      "id": "1559",
      "geometry": {
        "type": "Point",
        "coordinates": [
          -20.604604,
          -18.548044
        ]
      },
      "properties": {
        "label": "Dyscalculia",
        "level": 6,
        "pos": "-9300.28,-9651.16",
        "weight": "0.0"
      }
    },
    {
      "type": "Feature",
      "id": "1562",
      "geometry": {
        "type": "Point",
        "coordinates": [
          -25.752295,
          -13.459201
        ]
      },
      "properties": {
        "label": "Dry throat",
        "level": 6,
        "pos": "-13316.89,-5056.67",
        "weight": "0.0"
      }
    },
    {
      "type": "Feature",
      "id": "1566",
      "geometry": {
        "type": "Point",
        "coordinates": [
          -28.015807,
          -14.348632
        ]
      },
      "properties": {
        "label": "Drug rash with eosinophilia and systemic symptoms",
        "level": 6,
        "pos": "-15083.05,-5851.58",
        "weight": "0.0"
      }
    },
    {
      "type": "Feature",
      "id": "1569",
      "geometry": {
        "type": "Point",
        "coordinates": [
          -27.023438,
          -19.653116
        ]
      },
      "properties": {
        "label": "Dreamy state",
        "level": 6,
        "pos": "-14308.73,-10665.72",
        "weight": "0.0"
      }
    },
    {
      "type": "Feature",
      "id": "1580",
      "geometry": {
        "type": "Point",
        "coordinates": [
          -28.260875,
          -16.503441
        ]
      },
      "properties": {
        "label": "Diabetic coma",
        "level": 6,
        "pos": "-15274.27,-7790.94",
        "weight": "0.0"
      }
    },
    {
      "type": "Feature",
      "id": "1588",
      "geometry": {
        "type": "Point",
        "coordinates": [
          -26.328566,
          -13.910861
        ]
      },
      "properties": {
        "label": "Dengue fever",
        "level": 6,
        "pos": "-13766.54,-5459.95",
        "weight": "0.0"
      }
    },
    {
      "type": "Feature",
      "id": "1595",
      "geometry": {
        "type": "Point",
        "coordinates": [
          -24.543963,
          -21.319196
        ]
      },
      "properties": {
        "label": "Dark circles under eyes",
        "level": 6,
        "pos": "-12374.06,-12208.75",
        "weight": "0.0"
      }
    },
    {
      "type": "Feature",
      "id": "1599",
      "geometry": {
        "type": "Point",
        "coordinates": [
          -28.423369,
          -19.903712
        ]
      },
      "properties": {
        "label": "Cyclic vomiting syndrome",
        "level": 6,
        "pos": "-15401.06,-10896.75",
        "weight": "0.0"
      }
    },
    {
      "type": "Feature",
      "id": "1601",
      "geometry": {
        "type": "Point",
        "coordinates": [
          -21.619465,
          -19.773566
        ]
      },
      "properties": {
        "label": "Crepitations",
        "level": 6,
        "pos": "-10092.15,-10776.72",
        "weight": "0.0"
      }
    },
    {
      "type": "Feature",
      "id": "1604",
      "geometry": {
        "type": "Point",
        "coordinates": [
          -27.036677,
          -14.362736
        ]
      },
      "properties": {
        "label": "Cow's milk intolerance",
        "level": 6,
        "pos": "-14319.06,-5864.21",
        "weight": "0.0"
      }
    },
    {
      "type": "Feature",
      "id": "1613",
      "geometry": {
        "type": "Point",
        "coordinates": [
          -25.329571,
          -22.091505
        ]
      },
      "properties": {
        "label": "Coma scale",
        "level": 6,
        "pos": "-12987.05,-12929.89",
        "weight": "0.0"
      }
    },
    {
      "type": "Feature",
      "id": "1626",
      "geometry": {
        "type": "Point",
        "coordinates": [
          -22.578538,
          -22.919865
        ]
      },
      "properties": {
        "label": "Circumcision",
        "level": 6,
        "pos": "-10840.49,-13707.77",
        "weight": "0.0"
      }
    },
    {
      "type": "Feature",
      "id": "1636",
      "geometry": {
        "type": "Point",
        "coordinates": [
          -25.578061,
          -19.58091
        ]
      },
      "properties": {
        "label": "Cerebral haemorrhage",
        "level": 6,
        "pos": "-13180.94,-10599.22",
        "weight": "0.0"
      }
    },
    {
      "type": "Feature",
      "id": "1638",
      "geometry": {
        "type": "Point",
        "coordinates": [
          -20.84634,
          -14.100602
        ]
      },
      "properties": {
        "label": "Central pain syndrome",
        "level": 6,
        "pos": "-9488.90,-5629.60",
        "weight": "0.0"
      }
    },
    {
      "type": "Feature",
      "id": "164",
      "geometry": {
        "type": "Point",
        "coordinates": [
          -23.590721,
          -11.674533
        ]
      },
      "properties": {
        "height": "0.23",
        "label": "Stress",
        "level": 1,
        "pos": "-11630.27,-3470.34",
        "weight": "6391.5",
        "width": "0.46"
      }
    },
    {
      "type": "Feature",
      "id": "1640",
      "geometry": {
        "type": "Point",
        "coordinates": [
          -28.195231,
          -15.792303
        ]
      },
      "properties": {
        "label": "Cell death",
        "level": 6,
        "pos": "-15223.05,-7148.66",
        "weight": "0.0"
      }
    },
    {
      "type": "Feature",
      "id": "1643",
      "geometry": {
        "type": "Point",
        "coordinates": [
          -19.597868,
          -16.840311
        ]
      },
      "properties": {
        "label": "Cardiovascular disorder",
        "level": 6,
        "pos": "-8514.75,-8096.01",
        "weight": "0.0"
      }
    },
    {
      "type": "Feature",
      "id": "1647",
      "geometry": {
        "type": "Point",
        "coordinates": [
          -28.514824,
          -15.930615
        ]
      },
      "properties": {
        "label": "Cardiac enzymes",
        "level": 6,
        "pos": "-15472.42,-7273.40",
        "weight": "0.0"
      }
    },
    {
      "type": "Feature",
      "id": "1648",
      "geometry": {
        "type": "Point",
        "coordinates": [
          -29.532556,
          -16.294589
        ]
      },
      "properties": {
        "label": "Cardiac ablation",
        "level": 6,
        "pos": "-16266.53,-7602.07",
        "weight": "0.0"
      }
    },
    {
      "type": "Feature",
      "id": "1652",
      "geometry": {
        "type": "Point",
        "coordinates": [
          -20.641809,
          -20.042394
        ]
      },
      "properties": {
        "label": "Caffeine consumption",
        "level": 6,
        "pos": "-9329.31,-11024.76",
        "weight": "0.0"
      }
    },
    {
      "type": "Feature",
      "id": "1661",
      "geometry": {
        "type": "Point",
        "coordinates": [
          -25.871919,
          -21.05224
        ]
      },
      "properties": {
        "label": "Breast mass",
        "level": 6,
        "pos": "-13410.23,-11960.37",
        "weight": "0.0"
      }
    },
    {
      "type": "Feature",
      "id": "1666",
      "geometry": {
        "type": "Point",
        "coordinates": [
          -19.419533,
          -17.375851
        ]
      },
      "properties": {
        "label": "Brain death",
        "level": 6,
        "pos": "-8375.60,-8582.12",
        "weight": "0.0"
      }
    },
    {
      "type": "Feature",
      "id": "1667",
      "geometry": {
        "type": "Point",
        "coordinates": [
          -24.832221,
          -13.853366
        ]
      },
      "properties": {
        "label": "Brain contusion",
        "level": 6,
        "pos": "-12598.98,-5408.57",
        "weight": "0.0"
      }
    },
    {
      "type": "Feature",
      "id": "1675",
      "geometry": {
        "type": "Point",
        "coordinates": [
          -22.637172,
          -21.234673
        ]
      },
      "properties": {
        "label": "Bone marrow transplant",
        "level": 6,
        "pos": "-10886.24,-12130.06",
        "weight": "0.0"
      }
    },
    {
      "type": "Feature",
      "id": "1676",
      "geometry": {
        "type": "Point",
        "coordinates": [
          -27.23139,
          -19.528294
        ]
      },
      "properties": {
        "label": "Bone graft",
        "level": 6,
        "pos": "-14470.99,-10550.78",
        "weight": "0.0"
      }
    },
    {
      "type": "Feature",
      "id": "1678",
      "geometry": {
        "type": "Point",
        "coordinates": [
          -29.416289,
          -16.708867
        ]
      },
      "properties": {
        "label": "Bone densitometry",
        "level": 6,
        "pos": "-16175.81,-7976.91",
        "weight": "0.0"
      }
    },
    {
      "type": "Feature",
      "id": "1683",
      "geometry": {
        "type": "Point",
        "coordinates": [
          -20.946125,
          -13.086651
        ]
      },
      "properties": {
        "label": "Blood pH",
        "level": 6,
        "pos": "-9566.76,-4724.60",
        "weight": "0.0"
      }
    },
    {
      "type": "Feature",
      "id": "1687",
      "geometry": {
        "type": "Point",
        "coordinates": [
          -21.084833,
          -19.367342
        ]
      },
      "properties": {
        "label": "Blood lactic acid",
        "level": 6,
        "pos": "-9674.99,-10402.70",
        "weight": "0.0"
      }
    },
    {
      "type": "Feature",
      "id": "1703",
      "geometry": {
        "type": "Point",
        "coordinates": [
          -28.356802,
          -11.733995
        ]
      },
      "properties": {
        "label": "Biopsy skin",
        "level": 6,
        "pos": "-15349.12,-3523.02",
        "weight": "0.0"
      }
    },
    {
      "type": "Feature",
      "id": "1704",
      "geometry": {
        "type": "Point",
        "coordinates": [
          -26.032709,
          -13.260426
        ]
      },
      "properties": {
        "label": "Biopsy liver",
        "level": 6,
        "pos": "-13535.69,-4879.43",
        "weight": "0.0"
      }
    },
    {
      "type": "Feature",
      "id": "1710",
      "geometry": {
        "type": "Point",
        "coordinates": [
          -23.237922,
          -12.653115
        ]
      },
      "properties": {
        "label": "Benign intracranial hypertension",
        "level": 6,
        "pos": "-11354.99,-4338.80",
        "weight": "0.0"
      }
    },
    {
      "type": "Feature",
      "id": "1711",
      "geometry": {
        "type": "Point",
        "coordinates": [
          -30.371735,
          -16.885639
        ]
      },
      "properties": {
        "label": "Benign familial neonatal convulsions",
        "level": 6,
        "pos": "-16921.32,-8137.10",
        "weight": "0.0"
      }
    },
    {
      "type": "Feature",
      "id": "1714",
      "geometry": {
        "type": "Point",
        "coordinates": [
          -27.96776,
          -14.877645
        ]
      },
      "properties": {
        "label": "Ballismus",
        "level": 6,
        "pos": "-15045.56,-6325.86",
        "weight": "0.0"
      }
    },
    {
      "type": "Feature",
      "id": "1721",
      "geometry": {
        "type": "Point",
        "coordinates": [
          -24.545168,
          -24.279907
        ]
      },
      "properties": {
        "label": "Autonomic neuropathy",
        "level": 6,
        "pos": "-12375.00,-14995.38",
        "weight": "0.0"
      }
    },
    {
      "type": "Feature",
      "id": "1729",
      "geometry": {
        "type": "Point",
        "coordinates": [
          -20.375185,
          -16.888804
        ]
      },
      "properties": {
        "label": "Atrial fibrillation",
        "level": 6,
        "pos": "-9121.27,-8139.97",
        "weight": "0.0"
      }
    },
    {
      "type": "Feature",
      "id": "1734",
      "geometry": {
        "type": "Point",
        "coordinates": [
          -28.241907,
          -18.387969
        ]
      },
      "properties": {
        "label": "Aspartate aminotransferase normal",
        "level": 6,
        "pos": "-15259.47,-9504.75",
        "weight": "0.0"
      }
    },
    {
      "type": "Feature",
      "id": "1736",
      "geometry": {
        "type": "Point",
        "coordinates": [
          -21.806874,
          -20.069799
        ]
      },
      "properties": {
        "label": "Aspartate aminotransferase",
        "level": 6,
        "pos": "-10238.38,-11050.07",
        "weight": "0.0"
      }
    },
    {
      "type": "Feature",
      "id": "1740",
      "geometry": {
        "type": "Point",
        "coordinates": [
          -20.798036,
          -13.849494
        ]
      },
      "properties": {
        "label": "Arteriovenous malformation",
        "level": 6,
        "pos": "-9451.21,-5405.11",
        "weight": "0.0"
      }
    },
    {
      "type": "Feature",
      "id": "1746",
      "geometry": {
        "type": "Point",
        "coordinates": [
          -27.492632,
          -19.715989
        ]
      },
      "properties": {
        "label": "Apgar score",
        "level": 6,
        "pos": "-14674.83,-10723.65",
        "weight": "0.0"
      }
    },
    {
      "type": "Feature",
      "id": "1747",
      "geometry": {
        "type": "Point",
        "coordinates": [
          -20.324984,
          -16.467795
        ]
      },
      "properties": {
        "label": "Aortic stenosis",
        "level": 6,
        "pos": "-9082.10,-7758.69",
        "weight": "0.0"
      }
    },
    {
      "type": "Feature",
      "id": "1749",
      "geometry": {
        "type": "Point",
        "coordinates": [
          -22.804087,
          -16.569709
        ]
      },
      "properties": {
        "label": "Antiphospholipid syndrome",
        "level": 6,
        "pos": "-11016.48,-7850.91",
        "weight": "0.0"
      }
    },
    {
      "type": "Feature",
      "id": "1752",
      "geometry": {
        "type": "Point",
        "coordinates": [
          -21.181978,
          -15.342756
        ]
      },
      "properties": {
        "label": "Anoxia",
        "level": 6,
        "pos": "-9750.79,-6743.81",
        "weight": "0.0"
      }
    },
    {
      "type": "Feature",
      "id": "1762",
      "geometry": {
        "type": "Point",
        "coordinates": [
          -19.62432,
          -18.355074
        ]
      },
      "properties": {
        "label": "Amputation",
        "level": 6,
        "pos": "-8535.39,-9474.68",
        "weight": "0.0"
      }
    },
    {
      "type": "Feature",
      "id": "1765",
      "geometry": {
        "type": "Point",
        "coordinates": [
          -27.760614,
          -15.828781
        ]
      },
      "properties": {
        "label": "Amaurosis",
        "level": 6,
        "pos": "-14883.93,-7181.55",
        "weight": "0.0"
      }
    },
    {
      "type": "Feature",
      "id": "1768",
      "geometry": {
        "type": "Point",
        "coordinates": [
          -28.12878,
          -16.213053
        ]
      },
      "properties": {
        "label": "Alopecia areata",
        "level": 6,
        "pos": "-15171.20,-7528.39",
        "weight": "0.0"
      }
    },
    {
      "type": "Feature",
      "id": "1769",
      "geometry": {
        "type": "Point",
        "coordinates": [
          -27.30935,
          -14.722123
        ]
      },
      "properties": {
        "label": "Allergy to animal",
        "level": 6,
        "pos": "-14531.82,-6186.31",
        "weight": "0.0"
      }
    },
    {
      "type": "Feature",
      "id": "1771",
      "geometry": {
        "type": "Point",
        "coordinates": [
          -22.507371,
          -13.279297
        ]
      },
      "properties": {
        "label": "Alcohol problem",
        "level": 6,
        "pos": "-10784.96,-4896.25",
        "weight": "0.0"
      }
    },
    {
      "type": "Feature",
      "id": "1774",
      "geometry": {
        "type": "Point",
        "coordinates": [
          -22.00333,
          -16.259059
        ]
      },
      "properties": {
        "label": "Airway complication of anaesthesia",
        "level": 6,
        "pos": "-10391.67,-7569.96",
        "weight": "0.0"
      }
    },
    {
      "type": "Feature",
      "id": "1779",
      "geometry": {
        "type": "Point",
        "coordinates": [
          -29.870296,
          -17.99534
        ]
      },
      "properties": {
        "label": "Adverse drug reaction",
        "level": 5,
        "pos": "-16530.06,-9146.21",
        "weight": "0.0"
      }
    },
    {
      "type": "Feature",
      "id": "1781",
      "geometry": {
        "type": "Point",
        "coordinates": [
          -22.291729,
          -13.607087
        ]
      },
      "properties": {
        "label": "Acute respiratory distress syndrome",
        "level": 5,
        "pos": "-10616.70,-5188.63",
        "weight": "0.0"
      }
    },
    {
      "type": "Feature",
      "id": "1785",
      "geometry": {
        "type": "Point",
        "coordinates": [
          -30.050322,
          -16.381797
        ]
      },
      "properties": {
        "label": "Accidental overdose",
        "level": 5,
        "pos": "-16670.53,-7680.91",
        "weight": "0.0"
      }
    },
    {
      "type": "Feature",
      "id": "1786",
      "geometry": {
        "type": "Point",
        "coordinates": [
          -25.680692,
          -21.80249
        ]
      },
      "properties": {
        "label": "Accidental death",
        "level": 5,
        "pos": "-13261.02,-12659.57",
        "weight": "0.0"
      }
    },
    {
      "type": "Feature",
      "id": "1787",
      "geometry": {
        "type": "Point",
        "coordinates": [
          -22.008277,
          -15.45281
        ]
      },
      "properties": {
        "label": "Accident at work",
        "level": 5,
        "pos": "-10395.53,-6842.84",
        "weight": "0.0"
      }
    },
    {
      "type": "Feature",
      "id": "1789",
      "geometry": {
        "type": "Point",
        "coordinates": [
          -21.107479,
          -17.553617
        ]
      },
      "properties": {
        "label": "Passiflora incarnata flower",
        "level": 5,
        "pos": "-9692.66,-8743.79",
        "weight": "0.0"
      }
    },
    {
      "type": "Feature",
      "id": "1790",
      "geometry": {
        "type": "Point",
        "coordinates": [
          -29.056723,
          -19.050399
        ]
      },
      "properties": {
        "label": "Aloe Polysaccharide",
        "level": 5,
        "pos": "-15895.25,-10111.53",
        "weight": "0.0"
      }
    },
    {
      "type": "Feature",
      "id": "1792",
      "geometry": {
        "type": "Point",
        "coordinates": [
          -30.522157,
          -16.450848
        ]
      },
      "properties": {
        "label": "Ozone",
        "level": 5,
        "pos": "-17038.69,-7743.36",
        "weight": "0.0"
      }
    },
    {
      "type": "Feature",
      "id": "1793",
      "geometry": {
        "type": "Point",
        "coordinates": [
          -27.450928,
          -12.470792
        ]
      },
      "properties": {
        "label": "Tempol",
        "level": 5,
        "pos": "-14642.29,-4176.75",
        "weight": "0.0"
      }
    },
    {
      "type": "Feature",
      "id": "1796",
      "geometry": {
        "type": "Point",
        "coordinates": [
          -28.140853,
          -21.612868
        ]
      },
      "properties": {
        "label": "Creatinine",
        "level": 5,
        "pos": "-15180.62,-12482.51",
        "weight": "0.0"
      }
    },
    {
      "type": "Feature",
      "id": "1801",
      "geometry": {
        "type": "Point",
        "coordinates": [
          -29.226394,
          -20.612332
        ]
      },
      "properties": {
        "label": "Methyl cellulose",
        "level": 5,
        "pos": "-16027.64,-11552.04",
        "weight": "0.0"
      }
    },
    {
      "type": "Feature",
      "id": "1805",
      "geometry": {
        "type": "Point",
        "coordinates": [
          -20.852068,
          -20.831515
        ]
      },
      "properties": {
        "label": "Chlorine",
        "level": 5,
        "pos": "-9493.37,-11755.34",
        "weight": "0.0"
      }
    },
    {
      "type": "Feature",
      "id": "1808",
      "geometry": {
        "type": "Point",
        "coordinates": [
          -27.108177,
          -20.372077
        ]
      },
      "properties": {
        "label": "Venison",
        "level": 5,
        "pos": "-14374.85,-11329.53",
        "weight": "0.0"
      }
    },
    {
      "type": "Feature",
      "id": "1809",
      "geometry": {
        "type": "Point",
        "coordinates": [
          -29.899145,
          -20.606096
        ]
      },
      "properties": {
        "label": "Chili pepper",
        "level": 5,
        "pos": "-16552.57,-11546.26",
        "weight": "0.0"
      }
    },
    {
      "type": "Feature",
      "id": "1810",
      "geometry": {
        "type": "Point",
        "coordinates": [
          -22.171758,
          -16.026294
        ]
      },
      "properties": {
        "label": "Acheta domesticus",
        "level": 5,
        "pos": "-10523.09,-7359.74",
        "weight": "0.0"
      }
    },
    {
      "type": "Feature",
      "id": "1813",
      "geometry": {
        "type": "Point",
        "coordinates": [
          -29.561161,
          -17.131237
        ]
      },
      "properties": {
        "label": "Urtica dioica pollen",
        "level": 5,
        "pos": "-16288.85,-8359.91",
        "weight": "0.0"
      }
    },
    {
      "type": "Feature",
      "id": "1816",
      "geometry": {
        "type": "Point",
        "coordinates": [
          -26.761145,
          -13.505619
        ]
      },
      "properties": {
        "label": "Paprika",
        "level": 5,
        "pos": "-14104.07,-5098.08",
        "weight": "0.0"
      }
    },
    {
      "type": "Feature",
      "id": "1818",
      "geometry": {
        "type": "Point",
        "coordinates": [
          -22.534772,
          -13.051866
        ]
      },
      "properties": {
        "label": "Licorice",
        "level": 5,
        "pos": "-10806.34,-4693.62",
        "weight": "0.0"
      }
    },
    {
      "type": "Feature",
      "id": "1819",
      "geometry": {
        "type": "Point",
        "coordinates": [
          -24.344341,
          -13.109263
        ]
      },
      "properties": {
        "label": "Dill",
        "level": 5,
        "pos": "-12218.30,-4744.74",
        "weight": "0.0"
      }
    },
    {
      "type": "Feature",
      "id": "1820",
      "geometry": {
        "type": "Point",
        "coordinates": [
          -22.284808,
          -21.476693
        ]
      },
      "properties": {
        "label": "Eggplant",
        "level": 5,
        "pos": "-10611.30,-12355.50",
        "weight": "0.0"
      }
    },
    {
      "type": "Feature",
      "id": "1824",
      "geometry": {
        "type": "Point",
        "coordinates": [
          -29.723014,
          -17.246688
        ]
      },
      "properties": {
        "label": "Cranberry",
        "level": 5,
        "pos": "-16415.14,-8464.75",
        "weight": "0.0"
      }
    },
    {
      "type": "Feature",
      "id": "1825",
      "geometry": {
        "type": "Point",
        "coordinates": [
          -24.031092,
          -22.855373
        ]
      },
      "properties": {
        "label": "Blackberry",
        "level": 5,
        "pos": "-11973.88,-13647.04",
        "weight": "0.0"
      }
    },
    {
      "type": "Feature",
      "id": "1829",
      "geometry": {
        "type": "Point",
        "coordinates": [
          -20.963901,
          -16.350277
        ]
      },
      "properties": {
        "label": "Shrimp",
        "level": 5,
        "pos": "-9580.63,-7652.41",
        "weight": "0.0"
      }
    },
    {
      "type": "Feature",
      "id": "1831",
      "geometry": {
        "type": "Point",
        "coordinates": [
          -19.987398,
          -20.342855
        ]
      },
      "properties": {
        "label": "Pineapple",
        "level": 5,
        "pos": "-8818.69,-11302.49",
        "weight": "0.0"
      }
    },
    {
      "type": "Feature",
      "id": "1833",
      "geometry": {
        "type": "Point",
        "coordinates": [
          -23.440735,
          -21.475031
        ]
      },
      "properties": {
        "label": "Oyster",
        "level": 5,
        "pos": "-11513.24,-12353.95",
        "weight": "0.0"
      }
    },
    {
      "type": "Feature",
      "id": "1841",
      "geometry": {
        "type": "Point",
        "coordinates": [
          -18.917992,
          -19.368734
        ]
      },
      "properties": {
        "label": "Almond",
        "level": 5,
        "pos": "-7984.26,-10403.98",
        "weight": "0.0"
      }
    },
    {
      "type": "Feature",
      "id": "1844",
      "geometry": {
        "type": "Point",
        "coordinates": [
          -29.807036,
          -20.223413
        ]
      },
      "properties": {
        "label": "Rotavirus Vaccine",
        "level": 5,
        "pos": "-16480.70,-11192.02",
        "weight": "0.0"
      }
    },
    {
      "type": "Feature",
      "id": "1846",
      "geometry": {
        "type": "Point",
        "coordinates": [
          -25.212215,
          -12.562616
        ]
      },
      "properties": {
        "label": "Sulfur",
        "level": 5,
        "pos": "-12895.48,-4258.35",
        "weight": "0.0"
      }
    },
    {
      "type": "Feature",
      "id": "1849",
      "geometry": {
        "type": "Point",
        "coordinates": [
          -29.738342,
          -14.603861
        ]
      },
      "properties": {
        "label": "Ubidecarenone",
        "level": 5,
        "pos": "-16427.10,-6080.26",
        "weight": "0.0"
      }
    },
    {
      "type": "Feature",
      "id": "1856",
      "geometry": {
        "type": "Point",
        "coordinates": [
          -17.756144,
          -18.517223
        ]
      },
      "properties": {
        "label": "Tyramine",
        "level": 5,
        "pos": "-7077.70,-9622.96",
        "weight": "0.0"
      }
    },
    {
      "type": "Feature",
      "id": "1860",
      "geometry": {
        "type": "Point",
        "coordinates": [
          -20.443468,
          -20.62858
        ]
      },
      "properties": {
        "label": "Nitrous oxide",
        "level": 5,
        "pos": "-9174.55,-11567.10",
        "weight": "0.0"
      }
    },
    {
      "type": "Feature",
      "id": "1871",
      "geometry": {
        "type": "Point",
        "coordinates": [
          -24.135837,
          -21.819485
        ]
      },
      "properties": {
        "label": "Urea",
        "level": 5,
        "pos": "-12055.61,-12675.45",
        "weight": "0.0"
      }
    },
    {
      "type": "Feature",
      "id": "1873",
      "geometry": {
        "type": "Point",
        "coordinates": [
          -19.097339,
          -18.3103
        ]
      },
      "properties": {
        "label": "Butyric Acid",
        "level": 5,
        "pos": "-8124.20,-9433.76",
        "weight": "0.0"
      }
    },
    {
      "type": "Feature",
      "id": "1900",
      "geometry": {
        "type": "Point",
        "coordinates": [
          -21.793353,
          -16.858415
        ]
      },
      "properties": {
        "label": "Doxepin",
        "level": 5,
        "pos": "-10227.83,-8112.42",
        "weight": "0.0"
      }
    },
    {
      "type": "Feature",
      "id": "1904",
      "geometry": {
        "type": "Point",
        "coordinates": [
          -20.798087,
          -20.692215
        ]
      },
      "properties": {
        "label": "Sibutramine",
        "level": 5,
        "pos": "-9451.25,-11626.10",
        "weight": "0.0"
      }
    },
    {
      "type": "Feature",
      "id": "1908",
      "geometry": {
        "type": "Point",
        "coordinates": [
          -27.775968,
          -13.203974
        ]
      },
      "properties": {
        "label": "Thalidomide",
        "level": 5,
        "pos": "-14895.91,-4829.12",
        "weight": "0.0"
      }
    },
    {
      "type": "Feature",
      "id": "1909",
      "geometry": {
        "type": "Point",
        "coordinates": [
          -28.084488,
          -17.717197
        ]
      },
      "properties": {
        "label": "Fenofibrate",
        "level": 5,
        "pos": "-15136.64,-8892.70",
        "weight": "0.0"
      }
    },
    {
      "type": "Feature",
      "id": "1916",
      "geometry": {
        "type": "Point",
        "coordinates": [
          -25.910047,
          -22.490863
        ]
      },
      "properties": {
        "label": "Cyclopentolate",
        "level": 5,
        "pos": "-13439.98,-13304.33",
        "weight": "0.0"
      }
    },
    {
      "type": "Feature",
      "id": "1922",
      "geometry": {
        "type": "Point",
        "coordinates": [
          -29.77656,
          -12.149637
        ]
      },
      "properties": {
        "label": "Oxymetazoline",
        "level": 5,
        "pos": "-16456.92,-3891.58",
        "weight": "0.0"
      }
    },
    {
      "type": "Feature",
      "id": "1940",
      "geometry": {
        "type": "Point",
        "coordinates": [
          -20.52558,
          -14.009079
        ]
      },
      "properties": {
        "label": "Esomeprazole",
        "level": 5,
        "pos": "-9238.62,-5547.75",
        "weight": "0.0"
      }
    },
    {
      "type": "Feature",
      "id": "1941",
      "geometry": {
        "type": "Point",
        "coordinates": [
          -28.329671,
          -15.072349
        ]
      },
      "properties": {
        "label": "Nitroglycerin",
        "level": 5,
        "pos": "-15327.95,-6500.71",
        "weight": "0.0"
      }
    },
    {
      "type": "Feature",
      "id": "1943",
      "geometry": {
        "type": "Point",
        "coordinates": [
          -28.447693,
          -16.331417
        ]
      },
      "properties": {
        "label": "Lisinopril",
        "level": 5,
        "pos": "-15420.04,-7635.36",
        "weight": "0.0"
      }
    },
    {
      "type": "Feature",
      "id": "1944",
      "geometry": {
        "type": "Point",
        "coordinates": [
          -26.095815,
          -13.644067
        ]
      },
      "properties": {
        "label": "Procaine",
        "level": 5,
        "pos": "-13584.93,-5221.64",
        "weight": "0.0"
      }
    },
    {
      "type": "Feature",
      "id": "1954",
      "geometry": {
        "type": "Point",
        "coordinates": [
          -24.93439,
          -22.230584
        ]
      },
      "properties": {
        "label": "Efavirenz",
        "level": 5,
        "pos": "-12678.70,-13060.17",
        "weight": "0.0"
      }
    },
    {
      "type": "Feature",
      "id": "1956",
      "geometry": {
        "type": "Point",
        "coordinates": [
          -21.706627,
          -22.188228
        ]
      },
      "properties": {
        "label": "Sulindac",
        "level": 5,
        "pos": "-10160.16,-13020.48",
        "weight": "0.0"
      }
    },
    {
      "type": "Feature",
      "id": "1957",
      "geometry": {
        "type": "Point",
        "coordinates": [
          -21.434556,
          -21.301391
        ]
      },
      "properties": {
        "label": "Thiopental",
        "level": 5,
        "pos": "-9947.87,-12192.17",
        "weight": "0.0"
      }
    },
    {
      "type": "Feature",
      "id": "1958",
      "geometry": {
        "type": "Point",
        "coordinates": [
          -21.523807,
          -14.219076
        ]
      },
      "properties": {
        "label": "Fluticasone propionate",
        "level": 5,
        "pos": "-10017.51,-5735.60",
        "weight": "0.0"
      }
    },
    {
      "type": "Feature",
      "id": "1961",
      "geometry": {
        "type": "Point",
        "coordinates": [
          -29.912422,
          -14.238383
        ]
      },
      "properties": {
        "label": "Atropine",
        "level": 5,
        "pos": "-16562.93,-5752.88",
        "weight": "0.0"
      }
    },
    {
      "type": "Feature",
      "id": "1963",
      "geometry": {
        "type": "Point",
        "coordinates": [
          -24.498825,
          -12.708253
        ]
      },
      "properties": {
        "label": "Methotrexate",
        "level": 5,
        "pos": "-12338.84,-4387.83",
        "weight": "0.0"
      }
    },
    {
      "type": "Feature",
      "id": "1964",
      "geometry": {
        "type": "Point",
        "coordinates": [
          -27.49704,
          -21.73734
        ]
      },
      "properties": {
        "label": "Mephenytoin",
        "level": 5,
        "pos": "-14678.27,-12598.71",
        "weight": "0.0"
      }
    },
    {
      "type": "Feature",
      "id": "1965",
      "geometry": {
        "type": "Point",
        "coordinates": [
          -21.952553,
          -12.967835
        ]
      },
      "properties": {
        "label": "Vancomycin",
        "level": 5,
        "pos": "-10352.05,-4618.80",
        "weight": "0.0"
      }
    },
    {
      "type": "Feature",
      "id": "1976",
      "geometry": {
        "type": "Point",
        "coordinates": [
          -27.513842,
          -13.55447
        ]
      },
      "properties": {
        "label": "Methocarbamol",
        "level": 5,
        "pos": "-14691.38,-5141.67",
        "weight": "0.0"
      }
    },
    {
      "type": "Feature",
      "id": "1979",
      "geometry": {
        "type": "Point",
        "coordinates": [
          -28.415666,
          -14.228428
        ]
      },
      "properties": {
        "label": "Phenylpropanolamine",
        "level": 5,
        "pos": "-15395.05,-5743.97",
        "weight": "0.0"
      }
    },
    {
      "type": "Feature",
      "id": "1980",
      "geometry": {
        "type": "Point",
        "coordinates": [
          -21.573084,
          -16.494224
        ]
      },
      "properties": {
        "label": "Amlodipine",
        "level": 5,
        "pos": "-10055.96,-7782.60",
        "weight": "0.0"
      }
    },
    {
      "type": "Feature",
      "id": "1983",
      "geometry": {
        "type": "Point",
        "coordinates": [
          -27.307415,
          -15.111825
        ]
      },
      "properties": {
        "label": "Diltiazem",
        "level": 4,
        "pos": "-14530.31,-6536.18",
        "weight": "0.0"
      }
    },
    {
      "type": "Feature",
      "id": "1989",
      "geometry": {
        "type": "Point",
        "coordinates": [
          -20.032574,
          -19.058864
        ]
      },
      "properties": {
        "label": "Hydromorphone",
        "level": 4,
        "pos": "-8853.94,-10119.30",
        "weight": "0.0"
      }
    },
    {
      "type": "Feature",
      "id": "1996",
      "geometry": {
        "type": "Point",
        "coordinates": [
          -25.494116,
          -11.920738
        ]
      },
      "properties": {
        "label": "Cabergoline",
        "level": 4,
        "pos": "-13115.44,-3688.54",
        "weight": "0.0"
      }
    },
    {
      "type": "Feature",
      "id": "1997",
      "geometry": {
        "type": "Point",
        "coordinates": [
          -21.3233,
          -15.693595
        ]
      },
      "properties": {
        "label": "Temazepam",
        "level": 4,
        "pos": "-9861.06,-7059.69",
        "weight": "0.0"
      }
    },
    {
      "type": "Feature",
      "id": "1999",
      "geometry": {
        "type": "Point",
        "coordinates": [
          -23.313267,
          -21.887988
        ]
      },
      "properties": {
        "label": "Pantoprazole",
        "level": 4,
        "pos": "-11413.78,-12739.48",
        "weight": "0.0"
      }
    },
    {
      "type": "Feature",
      "id": "2",
      "geometry": {
        "type": "Point",
        "coordinates": [
          -31.500415,
          -23.506006
        ]
      },
      "properties": {
        "height": "0.23",
        "label": "Epilepsy",
        "level": 1,
        "pos": "-17802.00,-14261.06",
        "weight": "128895.0",
        "width": "0.68"
      }
    },
    {
      "type": "Feature",
      "id": "2001",
      "geometry": {
        "type": "Point",
        "coordinates": [
          -27.712439,
          -16.474947
        ]
      },
      "properties": {
        "label": "Azithromycin",
        "level": 4,
        "pos": "-14846.34,-7765.16",
        "weight": "0.0"
      }
    },
    {
      "type": "Feature",
      "id": "2002",
      "geometry": {
        "type": "Point",
        "coordinates": [
          -20.829038,
          -17.125784
        ]
      },
      "properties": {
        "label": "Erythromycin",
        "level": 4,
        "pos": "-9475.40,-8354.96",
        "weight": "0.0"
      }
    },
    {
      "type": "Feature",
      "id": "2005",
      "geometry": {
        "type": "Point",
        "coordinates": [
          -25.755934,
          -14.315362
        ]
      },
      "properties": {
        "label": "Ethchlorvynol",
        "level": 4,
        "pos": "-13319.73,-5821.79",
        "weight": "0.0"
      }
    },
    {
      "type": "Feature",
      "id": "2006",
      "geometry": {
        "type": "Point",
        "coordinates": [
          -27.626021,
          -18.531946
        ]
      },
      "properties": {
        "label": "Creatine",
        "level": 4,
        "pos": "-14778.91,-9636.43",
        "weight": "0.0"
      }
    },
    {
      "type": "Feature",
      "id": "2008",
      "geometry": {
        "type": "Point",
        "coordinates": [
          -31.60352,
          -19.049789
        ]
      },
      "properties": {
        "label": "Glycine",
        "level": 4,
        "pos": "-17882.45,-10110.97",
        "weight": "0.0"
      }
    },
    {
      "type": "Feature",
      "id": "2009",
      "geometry": {
        "type": "Point",
        "coordinates": [
          -23.686316,
          -15.275281
        ]
      },
      "properties": {
        "label": "Glutamic Acid",
        "level": 4,
        "pos": "-11704.86,-6683.12",
        "weight": "0.0"
      }
    },
    {
      "type": "Feature",
      "id": "2014",
      "geometry": {
        "type": "Point",
        "coordinates": [
          -20.973718,
          -21.878136
        ]
      },
      "properties": {
        "label": "Pancrelipase",
        "level": 4,
        "pos": "-9588.29,-12730.27",
        "weight": "0.0"
      }
    },
    {
      "type": "Feature",
      "id": "208",
      "geometry": {
        "type": "Point",
        "coordinates": [
          -17.492928,
          -16.464667
        ]
      },
      "properties": {
        "label": "Grand mal convulsion",
        "level": 2,
        "pos": "-6872.32,-7755.86",
        "weight": "30120.0"
      }
    },
    {
      "type": "Feature",
      "id": "231",
      "geometry": {
        "type": "Point",
        "coordinates": [
          -20.494771,
          -13.199788
        ]
      },
      "properties": {
        "label": "Aura",
        "level": 2,
        "pos": "-9214.58,-4825.39",
        "weight": "4095.0"
      }
    },
    {
      "type": "Feature",
      "id": "63",
      "geometry": {
        "type": "Point",
        "coordinates": [
          -11.220915,
          -27.597498
        ]
      },
      "properties": {
        "height": "0.23",
        "label": "Levetiracetam",
        "level": 1,
        "pos": "-1978.43,-18196.57",
        "weight": "34118.0",
        "width": "1.11"
      }
    },
    {
      "type": "Feature",
      "id": "83",
      "geometry": {
        "type": "Point",
        "coordinates": [
          -34.444611,
          -13.713988
        ]
      },
      "properties": {
        "height": "0.23",
        "label": "Surgery",
        "level": 1,
        "pos": "-20099.28,-5284.07",
        "weight": "30523.75",
        "width": "0.62"
      }
    },
    {
      "type": "Feature",
      "id": "958",
      "geometry": {
        "type": "Point",
        "coordinates": [
          -26.539339,
          -22.266047
        ]
      },
      "properties": {
        "label": "Naloxone",
        "level": 4,
        "pos": "-13931.00,-13093.41",
        "weight": "2015.0"
      }
    },
    {
      "type": "Feature",
      "id": "982",
      "geometry": {
        "type": "Point",
        "coordinates": [
          -28.504161,
          -15.344523
        ]
      },
      "properties": {
        "label": "Vespa",
        "level": 7,
        "pos": "-15464.10,-6745.40",
        "weight": "0.0"
      }
    },
    {
      "type": "Feature",
      "id": "984",
      "geometry": {
        "type": "Point",
        "coordinates": [
          -28.461214,
          -17.931754
        ]
      },
      "properties": {
        "label": "Rosa",
        "level": 7,
        "pos": "-15430.59,-9088.22",
        "weight": "0.0"
      }
    },
    {
      "type": "Feature",
      "id": "993",
      "geometry": {
        "type": "Point",
        "coordinates": [
          -20.601592,
          -19.536203
        ]
      },
      "properties": {
        "label": "Daphne",
        "level": 7,
        "pos": "-9297.93,-10558.06",
        "weight": "0.0"
      }
    },
    {
      "type": "Feature",
      "id": "994",
      "geometry": {
        "type": "Point",
        "coordinates": [
          -28.32366,
          -19.37602
        ]
      },
      "properties": {
        "label": "Chrysanthemum",
        "level": 7,
        "pos": "-15323.26,-10410.68",
        "weight": "0.0"
      }
    },
    {
      "type": "Feature",
      "id": "998",
      "geometry": {
        "type": "Point",
        "coordinates": [
          -23.736157,
          -21.018135
        ]
      },
      "properties": {
        "label": "Soybean",
        "level": 7,
        "pos": "-11743.75,-11928.67",
        "weight": "0.0"
      }
    },
    {
      "type": "Feature",
      "id": "999",
      "geometry": {
        "type": "Point",
        "coordinates": [
          -27.829065,
          -20.206322
        ]
      },
      "properties": {
        "label": "Kava",
        "level": 7,
        "pos": "-14937.34,-11176.22",
        "weight": "0.0"
      }
    },
    {
      "type": "Feature",
      "id": "1336",
      "geometry": {
        "type": "Point",
        "coordinates": [
          -24.135799,
          -29.787335
        ]
      },
      "properties": {
        "label": "Melanodermia",
        "level": 6,
        "pos": "-12055.58,-20362.46",
        "weight": "0.0"
      }
    },
    {
      "type": "Feature",
      "id": "1412",
      "geometry": {
        "type": "Point",
        "coordinates": [
          -22.890378,
          -28.269917
        ]
      },
      "properties": {
        "label": "Hypomania",
        "level": 6,
        "pos": "-11083.81,-18856.85",
        "weight": "0.0"
      }
    },
    {
      "type": "Feature",
      "id": "1447",
      "geometry": {
        "type": "Point",
        "coordinates": [
          -27.24914,
          -29.1536
        ]
      },
      "properties": {
        "label": "Heart rate increased",
        "level": 6,
        "pos": "-14484.84,-19730.96",
        "weight": "0.0"
      }
    },
    {
      "type": "Feature",
      "id": "59",
      "geometry": {
        "type": "Point",
        "coordinates": [
          -30.790088,
          -35.565749
        ]
      },
      "properties": {
        "height": "0.23",
        "label": "Loss of consciousness",
        "level": 1,
        "pos": "-17247.75,-26322.60",
        "weight": "25387.25",
        "width": "1.73"
      }
    },
    {
      "type": "Feature",
      "id": "986",
      "geometry": {
        "type": "Point",
        "coordinates": [
          -25.175728,
          -30.004964
        ]
      },
      "properties": {
        "label": "Piper",
        "level": 6,
        "pos": "-12867.01,-20580.24",
        "weight": "0.0"
      }
    },
    {
      "type": "Feature",
      "id": "46",
      "geometry": {
        "type": "Point",
        "coordinates": [
          -12.897531,
          4.40735
        ]
      },
      "properties": {
        "height": "0.23",
        "label": "Depression",
        "level": 1,
        "pos": "-3286.65,10555.81",
        "weight": "10818.25",
        "width": "0.87"
      }
    },
    {
      "type": "Feature",
      "id": "99",
      "geometry": {
        "type": "Point",
        "coordinates": [
          -12.790953,
          -2.800664
        ]
      },
      "properties": {
        "label": "Nervousness",
        "level": 2,
        "pos": "-3203.49,4297.88",
        "weight": "11848.0"
      }
    },
    {
      "type": "Feature",
      "id": "1308",
      "geometry": {
        "type": "Point",
        "coordinates": [
          -13.853823,
          -4.47235
        ]
      },
      "properties": {
        "label": "Muscle contractions involuntary",
        "level": 6,
        "pos": "-4032.82,2844.66",
        "weight": "0.0"
      }
    },
    {
      "type": "Feature",
      "id": "1369",
      "geometry": {
        "type": "Point",
        "coordinates": [
          -17.57868,
          -4.684608
        ]
      },
      "properties": {
        "label": "Learning disorder",
        "level": 6,
        "pos": "-6939.23,2659.93",
        "weight": "0.0"
      }
    },
    {
      "type": "Feature",
      "id": "1410",
      "geometry": {
        "type": "Point",
        "coordinates": [
          -15.031653,
          -1.350067
        ]
      },
      "properties": {
        "label": "Hyporeflexia",
        "level": 6,
        "pos": "-4951.85,5557.18",
        "weight": "0.0"
      }
    },
    {
      "type": "Feature",
      "id": "1459",
      "geometry": {
        "type": "Point",
        "coordinates": [
          -16.48031,
          -2.288556
        ]
      },
      "properties": {
        "label": "Haemoglobin",
        "level": 6,
        "pos": "-6082.20,4742.59",
        "weight": "0.0"
      }
    },
    {
      "type": "Feature",
      "id": "1464",
      "geometry": {
        "type": "Point",
        "coordinates": [
          -13.57601,
          -4.282986
        ]
      },
      "properties": {
        "label": "Gout",
        "level": 6,
        "pos": "-3816.05,3009.42",
        "weight": "0.0"
      }
    },
    {
      "type": "Feature",
      "id": "1623",
      "geometry": {
        "type": "Point",
        "coordinates": [
          -13.801713,
          -1.498534
        ]
      },
      "properties": {
        "label": "Claustrophobia",
        "level": 6,
        "pos": "-3992.16,5428.34",
        "weight": "0.0"
      }
    },
    {
      "type": "Feature",
      "id": "2010",
      "geometry": {
        "type": "Point",
        "coordinates": [
          -17.583204,
          -3.582699
        ]
      },
      "properties": {
        "label": "L-Tyrosine",
        "level": 4,
        "pos": "-6942.76,3618.38",
        "weight": "0.0"
      }
    },
    {
      "type": "Feature",
      "id": "205",
      "geometry": {
        "type": "Point",
        "coordinates": [
          -13.786962,
          -5.755309
        ]
      },
      "properties": {
        "label": "Panic attack",
        "level": 3,
        "pos": "-3980.65,1727.18",
        "weight": "6042.0"
      }
    },
    {
      "type": "Feature",
      "id": "92",
      "geometry": {
        "type": "Point",
        "coordinates": [
          -18.311307,
          -3.639851
        ]
      },
      "properties": {
        "label": "Fear",
        "level": 3,
        "pos": "-7510.88,3568.70",
        "weight": "4081.0"
      }
    },
    {
      "type": "Feature",
      "id": "58",
      "geometry": {
        "type": "Point",
        "coordinates": [
          -14.601727,
          -22.67417
        ]
      },
      "properties": {
        "label": "Muscle twitching",
        "level": 2,
        "pos": "-4616.39,-13476.56",
        "weight": "17597.0"
      }
    },
    {
      "type": "Feature",
      "id": "1388",
      "geometry": {
        "type": "Point",
        "coordinates": [
          -14.198394,
          -19.477954
        ]
      },
      "properties": {
        "label": "Intracranial pressure increased",
        "level": 7,
        "pos": "-4301.68,-10504.45",
        "weight": "0.0"
      }
    },
    {
      "type": "Feature",
      "id": "1454",
      "geometry": {
        "type": "Point",
        "coordinates": [
          -15.81234,
          -18.793271
        ]
      },
      "properties": {
        "label": "Hallucinations, mixed",
        "level": 7,
        "pos": "-5561.00,-9875.72",
        "weight": "0.0"
      }
    },