{
  "type": "FeatureCollection",
  "features": [
    {
      "type": "Feature",
      "id": "16",
      "geometry": {
        "type": "Point",
        "coordinates": [
          28.538592,
          -34.998515
        ]
      },
      "properties": {
        "label": "Cetuximab",
        "level": 1,
        "pos": "13979499.218441365,-28495962.14839208",
        "src_id": "2",
        "weight": "0.0009004002208662477"
      }
    },
    {
      "type": "Feature",
      "id": "188",
      "geometry": {
        "type": "Point",
        "coordinates": [
          29.75463,
          -33.231867
        ]
      },
      "properties": {
        "label": "Pegfilgrastim",
        "level": 1,
        "pos": "14704603.046740254,-26605106.339295723",
        "src_id": "19",
        "weight": "0.0007127660512942222"
      }
    },
    {
      "type": "Feature",
      "id": "3838",
      "geometry": {
        "type": "Point",
        "coordinates": [
          26.934337,
          -36.001254
        ]
      },
      "properties": {
        "label": "Pegvisomant",
        "level": 5,
        "pos": "13022908.055359636,-29587331.67417823",
        "src_id": "78",
        "weight": "6.364949288798413e-05"
      }
    },
    {
      "type": "Feature",
      "id": "4186",
      "geometry": {
        "type": "Point",
        "coordinates": [
          27.794123,
          -36.266323
        ]
      },
      "properties": {
        "label": "Epothilone D",
        "level": 5,
        "pos": "13535584.442192571,-29878135.48480591",
        "src_id": "1785",
        "weight": "7.019091916451604e-05"
      }
    },
    {
      "type": "Feature",
      "id": "4889",
      "geometry": {
        "type": "Point",
        "coordinates": [
          28.111217,
          -36.309205
        ]
      },
      "properties": {
        "label": "Fidarestat",
        "level": 5,
        "pos": "13724662.709372176,-29925273.087587718",
        "src_id": "1922",
        "weight": "3.8284508456870454e-05"
      }
    },
    {
      "type": "Feature",
      "id": "1942",
      "geometry": {
        "type": "Point",
        "coordinates": [
          28.636685,
          -36.47313
        ]
      },
      "properties": {
        "label": "Calcipotriol",
        "level": 4,
        "pos": "14037990.6631207,-30105706.769303564",
        "src_id": "2182",
        "weight": "0.00019728947184712313"
      }
    },
    {
      "type": "Feature",
      "id": "88",
      "geometry": {
        "type": "Point",
        "coordinates": [
          28.719065,
          -36.817773
        ]
      },
      "properties": {
        "label": "Ixabepilone",
        "level": 1,
        "pos": "14087112.205424957,-30486307.052833144",
        "src_id": "4567",
        "weight": "0.0006938235833154117"
      }
    },
    {
      "type": "Feature",
      "id": "4880",
      "geometry": {
        "type": "Point",
        "coordinates": [
          26.499822,
          -35.725886
        ]
      },
      "properties": {
        "label": "Voglibose",
        "level": 5,
        "pos": "12763813.51970766,-29286262.055628065",
        "src_id": "4600",
        "weight": "3.8284508456870454e-05"
      }
    },
    {
      "type": "Feature",
      "id": "3804",
      "geometry": {
        "type": "Point",
        "coordinates": [
          28.80215,
          -36.315599
        ]
      },
      "properties": {
        "label": "anecortave acetate",
        "level": 5,
        "pos": "14136654.493753992,-29932303.766283266",
        "src_id": "4945",
        "weight": "6.364949288798413e-05"
      }
    },
    {
      "type": "Feature",
      "id": "3133",
      "geometry": {
        "type": "Point",
        "coordinates": [
          26.701778,
          -35.872055
        ]
      },
      "properties": {
        "label": "Lasofoxifene",
        "level": 5,
        "pos": "12884236.733041445,-29445943.769166924",
        "src_id": "5477",
        "weight": "0.00010711331719654301"
      }
    },
    {
      "type": "Feature",
      "id": "4162",
      "geometry": {
        "type": "Point",
        "coordinates": [
          27.490594,
          -36.198994
        ]
      },
      "properties": {
        "label": "Asoprisnil",
        "level": 5,
        "pos": "13354595.171820978,-29804176.496994704",
        "src_id": "5742",
        "weight": "5.725855029410761e-05"
      }
    },
    {
      "type": "Feature",
      "id": "4160",
      "geometry": {
        "type": "Point",
        "coordinates": [
          27.198561,
          -36.10935
        ]
      },
      "properties": {
        "label": "Dexmethylphenidate",
        "level": 5,
        "pos": "13180460.703996861,-29705803.802495454",
        "src_id": "5761",
        "weight": "4.2193686681635016e-05"
      }
    },
    {
      "type": "Feature",
      "id": "4869",
      "geometry": {
        "type": "Point",
        "coordinates": [
          29.131386,
          -36.30709
        ]
      },
      "properties": {
        "label": "Metreleptin",
        "level": 5,
        "pos": "14332972.999681145,-29922947.57947613",
        "src_id": "7992",
        "weight": "3.8284508456870454e-05"
      }
    },
    {
      "type": "Feature",
      "id": "681",
      "geometry": {
        "type": "Point",
        "coordinates": [
          28.410638,
          -36.599324
        ]
      },
      "properties": {
        "label": "Landiolol",
        "level": 3,
        "pos": "13903202.543106057,-30244869.420168824",
        "src_id": "9872",
        "weight": "0.0002751991110612841"
      }
    },
    {
      "type": "Feature",
      "id": "5468",
      "geometry": {
        "type": "Point",
        "coordinates": [
          28.440021,
          -36.323675
        ]
      },
      "properties": {
        "label": "Colorectal cancer metastatic",
        "level": 5,
        "pos": "13920722.97571746,-29941185.05325053",
        "src_id": "173948",
        "weight": "3.878926399069265e-05"
      }
    },
    {
      "type": "Feature",
      "id": "766",
      "geometry": {
        "type": "Point",
        "coordinates": [
          28.914629,
          -34.791794
        ]
      },
      "properties": {
        "label": "Anakinra",
        "level": 3,
        "pos": "14203723.802424744,-28272643.363158848",
        "src_id": "26",
        "weight": "0.000323766872260533"
      }
    },
    {
      "type": "Feature",
      "id": "337",
      "geometry": {
        "type": "Point",
        "coordinates": [
          29.306138,
          -35.234252
        ]
      },
      "properties": {
        "label": "Ibritumomab tiuxetan",
        "level": 2,
        "pos": "14437174.638779152,-28751316.183604807",
        "src_id": "75",
        "weight": "0.0005175373024513582"
      }
    },
    {
      "type": "Feature",
      "id": "14",
      "geometry": {
        "type": "Point",
        "coordinates": [
          29.635485,
          -35.218211
        ]
      },
      "properties": {
        "label": "Tenofovir disoproxil",
        "level": 1,
        "pos": "14633558.658507513,-28733916.596298616",
        "src_id": "291",
        "weight": "0.000898181998956823"
      }
    },
    {
      "type": "Feature",
      "id": "198",
      "geometry": {
        "type": "Point",
        "coordinates": [
          30.500288,
          -31.230342
        ]
      },
      "properties": {
        "label": "Gefitinib",
        "level": 1,
        "pos": "15149227.048044285,-24508394.03417127",
        "src_id": "308",
        "weight": "0.0007349820562090321"
      }
    },
    {
      "type": "Feature",
      "id": "185",
      "geometry": {
        "type": "Point",
        "coordinates": [
          29.89596,
          -35.099233
        ]
      },
      "properties": {
        "label": "Emtricitabine",
        "level": 1,
        "pos": "14788876.122277716,-28604970.98163578",
        "src_id": "865",
        "weight": "0.000621994158950581"
      }
    },
    {
      "type": "Feature",
      "id": "522",
      "geometry": {
        "type": "Point",
        "coordinates": [
          30.882896,
          -34.744679
        ]
      },
      "properties": {
        "label": "Deferasirox",
        "level": 3,
        "pos": "15377369.520987136,-28221824.85487091",
        "src_id": "1541",
        "weight": "0.00036334969077887356"
      }
    },
    {
      "type": "Feature",
      "id": "555",
      "geometry": {
        "type": "Point",
        "coordinates": [
          30.464139,
          -34.916305
        ]
      },
      "properties": {
        "label": "Tipranavir",
        "level": 2,
        "pos": "15127671.905415652,-28407084.675362207",
        "src_id": "918",
        "weight": "0.0003821876297655202"
      }
    },
    {
      "type": "Feature",
      "id": "69",
      "geometry": {
        "type": "Point",
        "coordinates": [
          30.737082,
          -35.060898
        ]
      },
      "properties": {
        "label": "Desloratadine",
        "level": 1,
        "pos": "15290423.268239995,-28563464.636617985",
        "src_id": "953",
        "weight": "0.00056635470892636"
      }
    },
    {
      "type": "Feature",
      "id": "481",
      "geometry": {
        "type": "Point",
        "coordinates": [
          31.191953,
          -34.930254
        ]
      },
      "properties": {
        "label": "Lumiracoxib",
        "level": 2,
        "pos": "15561655.677067123,-28422158.38467787",
        "src_id": "1266",
        "weight": "0.0004152972708915666"
      }
    },
    {
      "type": "Feature",
      "id": "996",
      "geometry": {
        "type": "Point",
        "coordinates": [
          31.187427,
          -34.667324
        ]
      },
      "properties": {
        "label": "Lopinavir",
        "level": 3,
        "pos": "15558956.664227877,-28138450.5249491",
        "src_id": "1533",
        "weight": "0.0003125638203620431"
      }
    },
    {
      "type": "Feature",
      "id": "5512",
      "geometry": {
        "type": "Point",
        "coordinates": [
          31.058845,
          -34.281902
        ]
      },
      "properties": {
        "label": "Acute febrile neutrophilic dermatosis",
        "level": 5,
        "pos": "15482285.5261742,-27724191.74666255",
        "src_id": "169736",
        "weight": "3.469675143756508e-05"
      }
    },
    {
      "type": "Feature",
      "id": "1040",
      "geometry": {
        "type": "Point",
        "coordinates": [
          28.790467,
          -38.246931
        ]
      },
      "properties": {
        "label": "Alvocidib",
        "level": 4,
        "pos": "14129688.088520393,-32083235.75945918",
        "src_id": "3300",
        "weight": "0.00021696950997526917"
      }
    },
    {
      "type": "Feature",
      "id": "2216",
      "geometry": {
        "type": "Point",
        "coordinates": [
          27.870128,
          -38.040143
        ]
      },
      "properties": {
        "label": "Efaproxiral",
        "level": 5,
        "pos": "13580904.947073175,-31850263.230790082",
        "src_id": "7479",
        "weight": "0.00012620280597064445"
      }
    },
    {
      "type": "Feature",
      "id": "2218",
      "geometry": {
        "type": "Point",
        "coordinates": [
          28.342145,
          -38.244009
        ]
      },
      "properties": {
        "label": "Icatibant",
        "level": 4,
        "pos": "13862360.97311281,-32079939.304553322",
        "src_id": "5471",
        "weight": "0.00014358990454673784"
      }
    },
    {
      "type": "Feature",
      "id": "2217",
      "geometry": {
        "type": "Point",
        "coordinates": [
          28.576153,
          -38.115809
        ]
      },
      "properties": {
        "label": "Priralfinamide",
        "level": 5,
        "pos": "14001896.012624491,-31935434.59502695",
        "src_id": "5722",
        "weight": "8.563486200515874e-05"
      }
    },
    {
      "type": "Feature",
      "id": "3802",
      "geometry": {
        "type": "Point",
        "coordinates": [
          27.564661,
          -37.968881
        ]
      },
      "properties": {
        "label": "Temsirolimus",
        "level": 5,
        "pos": "13398759.705769219,-31770130.88240949",
        "src_id": "5536",
        "weight": "8.922721498930719e-05"
      }
    },
    {
      "type": "Feature",
      "id": "6697",
      "geometry": {
        "type": "Point",
        "coordinates": [
          28.961896,
          -38.042373
        ]
      },
      "properties": {
        "label": "Perifosine",
        "level": 5,
        "pos": "14231908.474393671,-31852772.864416774",
        "src_id": "5717",
        "weight": "2.7895467146827463e-05"
      }
    },
    {
      "type": "Feature",
      "id": "6686",
      "geometry": {
        "type": "Point",
        "coordinates": [
          28.191334,
          -38.084765
        ]
      },
      "properties": {
        "label": "Glucarpidase",
        "level": 5,
        "pos": "13772434.848505568,-31900479.99785961",
        "src_id": "7857",
        "weight": "2.7191434998454386e-05"
      }
    },
    {
      "type": "Feature",
      "id": "3134",
      "geometry": {
        "type": "Point",
        "coordinates": [
          29.046918,
          -36.119835
        ]
      },
      "properties": {
        "label": "Canakinumab",
        "level": 5,
        "pos": "14282605.729918154,-29717303.728012282",
        "src_id": "5452",
        "weight": "6.537748187895064e-05"
      }
    },
    {
      "type": "Feature",
      "id": "168",
      "geometry": {
        "type": "Point",
        "coordinates": [
          28.996696,
          -37.124083
        ]
      },
      "properties": {
        "label": "Adefovir Dipivoxil",
        "level": 1,
        "pos": "14252659.371633677,-30826015.81036726",
        "src_id": "704",
        "weight": "0.0006014760241258839"
      }
    },
    {
      "type": "Feature",
      "id": "2829",
      "geometry": {
        "type": "Point",
        "coordinates": [
          30.375662,
          -36.349259
        ]
      },
      "properties": {
        "label": "Blinatumomab",
        "level": 5,
        "pos": "15074914.411024451,-29969325.919480123",
        "src_id": "7998",
        "weight": "0.00010617024211823297"
      }
    },
    {
      "type": "Feature",
      "id": "562",
      "geometry": {
        "type": "Point",
        "coordinates": [
          29.673269,
          -37.139031
        ]
      },
      "properties": {
        "label": "Bortezomib",
        "level": 2,
        "pos": "14656088.733110579,-30842629.314341247",
        "src_id": "179",
        "weight": "0.0004365513263795808"
      }
    },
    {
      "type": "Feature",
      "id": "23",
      "geometry": {
        "type": "Point",
        "coordinates": [
          29.945397,
          -37.037087
        ]
      },
      "properties": {
        "label": "Vorinostat",
        "level": 1,
        "pos": "14818354.439031657,-30729394.5859136",
        "src_id": "2413",
        "weight": "0.0008252764979183992"
      }
    },
    {
      "type": "Feature",
      "id": "3451",
      "geometry": {
        "type": "Point",
        "coordinates": [
          29.093224,
          -36.543067
        ]
      },
      "properties": {
        "label": "Dexlansoprazole",
        "level": 5,
        "pos": "14310217.066784136,-30182802.441344257",
        "src_id": "4994",
        "weight": "8.405904215628126e-05"
      }
    },
    {
      "type": "Feature",
      "id": "3476",
      "geometry": {
        "type": "Point",
        "coordinates": [
          30.038247,
          -36.486326
        ]
      },
      "properties": {
        "label": "Alosetron",
        "level": 5,
        "pos": "14873719.368825445,-30120247.66419153",
        "src_id": "955",
        "weight": "6.118883492431862e-05"
      }
    },
    {
      "type": "Feature",
      "id": "3619",
      "geometry": {
        "type": "Point",
        "coordinates": [
          29.398303,
          -36.555477
        ]
      },
      "properties": {
        "label": "Axitinib",
        "level": 5,
        "pos": "14492131.248349534,-30196490.40851203",
        "src_id": "5708",
        "weight": "5.348201391574681e-05"
      }
    },
    {
      "type": "Feature",
      "id": "3280",
      "geometry": {
        "type": "Point",
        "coordinates": [
          29.724008,
          -36.530674
        ]
      },
      "properties": {
        "label": "Lestaurtinib",
        "level": 5,
        "pos": "14686343.809866104,-30169135.756686017",
        "src_id": "5622",
        "weight": "6.410151393650532e-05"
      }
    },
    {
      "type": "Feature",
      "id": "991",
      "geometry": {
        "type": "Point",
        "coordinates": [
          30.403748,
          -36.781829
        ]
      },
      "properties": {
        "label": "Nilotinib",
        "level": 3,
        "pos": "15091661.643791517,-30446532.87216674",
        "src_id": "4590",
        "weight": "0.00027587892540195604"
      }
    },
    {
      "type": "Feature",
      "id": "1571",
      "geometry": {
        "type": "Point",
        "coordinates": [
          30.681279,
          -36.948656
        ]
      },
      "properties": {
        "label": "Denosumab",
        "level": 4,
        "pos": "15257148.616919726,-30631293.432521366",
        "src_id": "5719",
        "weight": "0.00020828947374788905"
      }
    },
    {
      "type": "Feature",
      "id": "2215",
      "geometry": {
        "type": "Point",
        "coordinates": [
          29.949595,
          -36.664781
        ]
      },
      "properties": {
        "label": "Carfilzomib",
        "level": 4,
        "pos": "14820857.675773762,-30317142.57949847",
        "src_id": "7848",
        "weight": "0.00014028832481740295"
      }
    },
    {
      "type": "Feature",
      "id": "4341",
      "geometry": {
        "type": "Point",
        "coordinates": [
          30.694625,
          -36.393318
        ]
      },
      "properties": {
        "label": "Combretastatin",
        "level": 5,
        "pos": "15265106.99845787,-30017809.11216779",
        "src_id": "10241",
        "weight": "5.076049859942062e-05"
      }
    },
    {
      "type": "Feature",
      "id": "885",
      "geometry": {
        "type": "Point",
        "coordinates": [
          30.742957,
          -36.499347
        ]
      },
      "properties": {
        "label": "Agomelatine",
        "level": 4,
        "pos": "15293926.696487214,-30134598.87216735",
        "src_id": "5685",
        "weight": "0.00017440847541075438"
      }
    },
    {
      "type": "Feature",
      "id": "3970",
      "geometry": {
        "type": "Point",
        "coordinates": [
          30.457567,
          -36.473326
        ]
      },
      "properties": {
        "label": "Irofulven",
        "level": 5,
        "pos": "15123753.072308114,-30105922.040143304",
        "src_id": "5246",
        "weight": "6.364583055279912e-05"
      }
    },
    {
      "type": "Feature",
      "id": "2729",
      "geometry": {
        "type": "Point",
        "coordinates": [
          30.567084,
          -36.639063
        ]
      },
      "properties": {
        "label": "Ritonavir",
        "level": 4,
        "pos": "15189056.044804756,-30288738.6457722",
        "src_id": "492",
        "weight": "0.00014897563545818933"
      }
    },
    {
      "type": "Feature",
      "id": "9",
      "geometry": {
        "type": "Point",
        "coordinates": [
          30.851857,
          -33.116669
        ]
      },
      "properties": {
        "label": "Enfuvirtide",
        "level": 1,
        "pos": "15358861.497576742,-26483158.88760847",
        "src_id": "102",
        "weight": "0.0009869729139148522"
      }
    },
    {
      "type": "Feature",
      "id": "443",
      "geometry": {
        "type": "Point",
        "coordinates": [
          31.165808,
          -32.999018
        ]
      },
      "properties": {
        "label": "Bosentan",
        "level": 2,
        "pos": "15546065.904374925,-26358779.372262917",
        "src_id": "546",
        "weight": "0.000509591564631485"
      }
    },
    {
      "type": "Feature",
      "id": "237",
      "geometry": {
        "type": "Point",
        "coordinates": [
          29.427475,
          -29.217154
        ]
      },
      "properties": {
        "label": "Alemtuzumab",
        "level": 1,
        "pos": "14509525.857774174,-22443801.800783925",
        "src_id": "82",
        "weight": "0.0006613346082369724"
      }
    },
    {
      "type": "Feature",
      "id": "24",
      "geometry": {
        "type": "Point",
        "coordinates": [
          32.216604,
          -32.967088
        ]
      },
      "properties": {
        "label": "Caspofungin",
        "level": 1,
        "pos": "16172638.133642497,-26325052.28176052",
        "src_id": "507",
        "weight": "0.0009094710211748729"
      }
    },
    {
      "type": "Feature",
      "id": "686",
      "geometry": {
        "type": "Point",
        "coordinates": [
          32.501652,
          -32.642905
        ]
      },
      "properties": {
        "label": "Rosuvastatin",
        "level": 2,
        "pos": "16342607.583259147,-25983306.60305447",
        "src_id": "1082",
        "weight": "0.00037850105857161853"
      }
    },
    {
      "type": "Feature",
      "id": "2968",
      "geometry": {
        "type": "Point",
        "coordinates": [
          32.355196,
          -32.126607
        ]
      },
      "properties": {
        "label": "Ipilimumab",
        "level": 5,
        "pos": "16255278.673114993,-25441582.988919772",
        "src_id": "5462",
        "weight": "7.955838659570174e-05"
      }
    },
    {
      "type": "Feature",
      "id": "482",
      "geometry": {
        "type": "Point",
        "coordinates": [
          32.578236,
          -32.457667
        ]
      },
      "properties": {
        "label": "Mycophenolic acid",
        "level": 3,
        "pos": "16388273.678056095,-25788589.87360539",
        "src_id": "1010",
        "weight": "0.00028947506864701004"
      }
    },
    {
      "type": "Feature",
      "id": "41",
      "geometry": {
        "type": "Point",
        "coordinates": [
          30.987708,
          -36.861937
        ]
      },
      "properties": {
        "label": "Nesiritide",
        "level": 1,
        "pos": "15439867.267427936,-30535202.43878098",
        "src_id": "4621",
        "weight": "0.0009181058235148686"
      }
    },
    {
      "type": "Feature",
      "id": "3798",
      "geometry": {
        "type": "Point",
        "coordinates": [
          30.529632,
          -36.127123
        ]
      },
      "properties": {
        "label": "Gadofosveset trisodium",
        "level": 5,
        "pos": "15166724.056909548,-29725297.705658603",
        "src_id": "5765",
        "weight": "0.00010929062005322611"
      }
    },
    {
      "type": "Feature",
      "id": "2206",
      "geometry": {
        "type": "Point",
        "coordinates": [
          31.003958,
          -36.371534
        ]
      },
      "properties": {
        "label": "Oblimersen",
        "level": 4,
        "pos": "15449557.336276818,-29993833.895786412",
        "src_id": "10889",
        "weight": "0.00016023512250860257"
      }
    },
    {
      "type": "Feature",
      "id": "2475",
      "geometry": {
        "type": "Point",
        "coordinates": [
          31.301997,
          -36.354179
        ]
      },
      "properties": {
        "label": "Vatalanib",
        "level": 4,
        "pos": "15627273.079740908,-29974738.266968504",
        "src_id": "4601",
        "weight": "0.00015613559046662794"
      }
    },
    {
      "type": "Feature",
      "id": "3971",
      "geometry": {
        "type": "Point",
        "coordinates": [
          30.974621,
          -36.180644
        ]
      },
      "properties": {
        "label": "Carbopol 974P",
        "level": 5,
        "pos": "15432063.869729087,-29784030.65150509",
        "src_id": "5014",
        "weight": "7.52084589975042e-05"
      }
    },
    {
      "type": "Feature",
      "id": "3281",
      "geometry": {
        "type": "Point",
        "coordinates": [
          31.576597,
          -36.343897
        ]
      },
      "properties": {
        "label": "Indisulam",
        "level": 5,
        "pos": "15791012.47214582,-29963427.48080275",
        "src_id": "5571",
        "weight": "7.59588291330841e-05"
      }
    },
    {
      "type": "Feature",
      "id": "2834",
      "geometry": {
        "type": "Point",
        "coordinates": [
          30.718832,
          -36.241517
        ]
      },
      "properties": {
        "label": "Laquinimod",
        "level": 5,
        "pos": "15279541.247572565,-29850878.8723372",
        "src_id": "5747",
        "weight": "7.767452811413415e-05"
      }
    },
    {
      "type": "Feature",
      "id": "4195",
      "geometry": {
        "type": "Point",
        "coordinates": [
          31.211115,
          -36.218679
        ]
      },
      "properties": {
        "label": "Ethiodized oil",
        "level": 5,
        "pos": "15573081.496585986,-29825793.354699895",
        "src_id": "951",
        "weight": "4.6842538614208406e-05"
      }
    },
    {
      "type": "Feature",
      "id": "3969",
      "geometry": {
        "type": "Point",
        "coordinates": [
          31.331568,
          -36.031626
        ]
      },
      "properties": {
        "label": "Zosuquidar",
        "level": 5,
        "pos": "15644905.89673337,-29620602.005983844",
        "src_id": "5466",
        "weight": "5.3109954840801535e-05"
      }
    },
    {
      "type": "Feature",
      "id": "3965",
      "geometry": {
        "type": "Point",
        "coordinates": [
          31.632224,
          -36.020094
        ]
      },
      "properties": {
        "label": "Etilevodopa",
        "level": 5,
        "pos": "15824181.98572949,-29607967.97881978",
        "src_id": "5654",
        "weight": "5.167690236825986e-05"
      }
    },
    {
      "type": "Feature",
      "id": "3776",
      "geometry": {
        "type": "Point",
        "coordinates": [
          31.564878,
          -36.166588
        ]
      },
      "properties": {
        "label": "Dibotermin alfa",
        "level": 5,
        "pos": "15784024.616912805,-29768601.668252997",
        "src_id": "9311",
        "weight": "5.4710685114398e-05"
      }
    },
    {
      "type": "Feature",
      "id": "4143",
      "geometry": {
        "type": "Point",
        "coordinates": [
          31.866312,
          -36.232966
        ]
      },
      "properties": {
        "label": "Vinflunine",
        "level": 5,
        "pos": "15963764.952865176,-29841485.88169387",
        "src_id": "9313",
        "weight": "7.089870908312425e-05"
      }
    },
    {
      "type": "Feature",
      "id": "1657",
      "geometry": {
        "type": "Point",
        "coordinates": [
          32.438417,
          -36.49702
        ]
      },
      "properties": {
        "label": "Cilomilast",
        "level": 4,
        "pos": "16304901.484313667,-30132034.53383775",
        "src_id": "3624",
        "weight": "0.00018310520108736397"
      }
    },
    {
      "type": "Feature",
      "id": "417",
      "geometry": {
        "type": "Point",
        "coordinates": [
          32.176116,
          -36.576722
        ]
      },
      "properties": {
        "label": "Tocilizumab",
        "level": 2,
        "pos": "16148495.884806963,-30219928.088506628",
        "src_id": "5528",
        "weight": "0.00037754604082365786"
      }
    },
    {
      "type": "Feature",
      "id": "554",
      "geometry": {
        "type": "Point",
        "coordinates": [
          32.167375,
          -36.240435
        ]
      },
      "properties": {
        "label": "Selegiline",
        "level": 4,
        "pos": "16143283.752023645,-29849690.29857101",
        "src_id": "1022",
        "weight": "0.00020469063752400504"
      }
    },
    {
      "type": "Feature",
      "id": "455",
      "geometry": {
        "type": "Point",
        "coordinates": [
          32.294433,
          -36.383405
        ]
      },
      "properties": {
        "label": "Lapatinib",
        "level": 3,
        "pos": "16219046.227167217,-30006897.783779692",
        "src_id": "1242",
        "weight": "0.0002963076067015373"
      }
    },
    {
      "type": "Feature",
      "id": "3147",
      "geometry": {
        "type": "Point",
        "coordinates": [
          28.350473,
          -39.178008
        ]
      },
      "properties": {
        "label": "Uracil",
        "level": 5,
        "pos": "13867326.887351321,-33140533.877810944",
        "src_id": "3228",
        "weight": "0.00010616636334228975"
      }
    },
    {
      "type": "Feature",
      "id": "4775",
      "geometry": {
        "type": "Point",
        "coordinates": [
          28.661124,
          -39.111998
        ]
      },
      "properties": {
        "label": "Hepatectomy",
        "level": 5,
        "pos": "14052562.840679893,-33065118.611562997",
        "src_id": "177862",
        "weight": "5.087592416218743e-05"
      }
    },
    {
      "type": "Feature",
      "id": "3165",
      "geometry": {
        "type": "Point",
        "coordinates": [
          29.801176,
          -38.552109
        ]
      },
      "properties": {
        "label": "Trifluridine",
        "level": 5,
        "pos": "14732357.585607013,-32428272.17111676",
        "src_id": "421",
        "weight": "0.00010539862669240356"
      }
    },
    {
      "type": "Feature",
      "id": "1037",
      "geometry": {
        "type": "Point",
        "coordinates": [
          29.003052,
          -39.000043
        ]
      },
      "properties": {
        "label": "Clevudine",
        "level": 3,
        "pos": "14256449.105853178,-32937373.94845604",
        "src_id": "5745",
        "weight": "0.00034396389402050745"
      }
    },
    {
      "type": "Feature",
      "id": "2343",
      "geometry": {
        "type": "Point",
        "coordinates": [
          29.168313,
          -38.440662
        ]
      },
      "properties": {
        "label": "Eribulin",
        "level": 5,
        "pos": "14354991.45893783,-32302100.58876095",
        "src_id": "7830",
        "weight": "8.719877008533177e-05"
      }
    },
    {
      "type": "Feature",
      "id": "1737",
      "geometry": {
        "type": "Point",
        "coordinates": [
          29.003975,
          -38.705736
        ]
      },
      "properties": {
        "label": "Benzoyl peroxide",
        "level": 4,
        "pos": "14256999.551389506,-32602518.336967245",
        "src_id": "8041",
        "weight": "0.00016531053464089097"
      }
    },
    {
      "type": "Feature",
      "id": "2328",
      "geometry": {
        "type": "Point",
        "coordinates": [
          28.949513,
          -38.367589
        ]
      },
      "properties": {
        "label": "Saracatinib",
        "level": 5,
        "pos": "14224524.522598535,-32219478.8240142",
        "src_id": "9474",
        "weight": "8.719877008533177e-05"
      }
    },
    {
      "type": "Feature",
      "id": "1937",
      "geometry": {
        "type": "Point",
        "coordinates": [
          29.503817,
          -38.568839
        ]
      },
      "properties": {
        "label": "Pexelizumab",
        "level": 4,
        "pos": "14555047.025461752,-32447229.233535122",
        "src_id": "4660",
        "weight": "0.0001766988960679665"
      }
    },
    {
      "type": "Feature",
      "id": "1503",
      "geometry": {
        "type": "Point",
        "coordinates": [
          30.104345,
          -38.284706
        ]
      },
      "properties": {
        "label": "Teriflunomide",
        "level": 5,
        "pos": "14913132.637769489,-32125865.564846",
        "src_id": "7839",
        "weight": "0.0001149584867272605"
      }
    },
    {
      "type": "Feature",
      "id": "1825",
      "geometry": {
        "type": "Point",
        "coordinates": [
          29.710085,
          -38.398825
        ]
      },
      "properties": {
        "label": "Vofopitant",
        "level": 5,
        "pos": "14678041.523197819,-32254785.964279365",
        "src_id": "10091",
        "weight": "9.578399852566864e-05"
      }
    },
    {
      "type": "Feature",
      "id": "1923",
      "geometry": {
        "type": "Point",
        "coordinates": [
          30.194319,
          -38.095366
        ]
      },
      "properties": {
        "label": "Gossypol",
        "level": 5,
        "pos": "14966782.614004493,-31912414.86353101",
        "src_id": "10670",
        "weight": "9.433131192987038e-05"
      }
    },
    {
      "type": "Feature",
      "id": "3495",
      "geometry": {
        "type": "Point",
        "coordinates": [
          29.178799,
          -38.576841
        ]
      },
      "properties": {
        "label": "Insulin Lispro",
        "level": 5,
        "pos": "14361244.485542957,-32456298.420314617",
        "src_id": "45",
        "weight": "7.617715259429533e-05"
      }
    },
    {
      "type": "Feature",
      "id": "3308",
      "geometry": {
        "type": "Point",
        "coordinates": [
          29.763487,
          -38.340419
        ]
      },
      "properties": {
        "label": "Daunorubicin",
        "level": 5,
        "pos": "14709884.620388128,-32188779.82452126",
        "src_id": "680",
        "weight": "6.18781162242107e-05"
      }
    },
    {
      "type": "Feature",
      "id": "2974",
      "geometry": {
        "type": "Point",
        "coordinates": [
          28.946625,
          -38.459062
        ]
      },
      "properties": {
        "label": "Acadesine",
        "level": 5,
        "pos": "14222802.940058995,-32322918.5131707",
        "src_id": "4656",
        "weight": "8.031883749810454e-05"
      }
    },
    {
      "type": "Feature",
      "id": "3287",
      "geometry": {
        "type": "Point",
        "coordinates": [
          29.459434,
          -38.361367
        ]
      },
      "properties": {
        "label": "Apremilast",
        "level": 5,
        "pos": "14528582.262112707,-32212447.794095118",
        "src_id": "5188",
        "weight": "6.18781162242107e-05"
      }
    },
    {
      "type": "Feature",
      "id": "3277",
      "geometry": {
        "type": "Point",
        "coordinates": [
          29.301904,
          -38.411125
        ]
      },
      "properties": {
        "label": "Tafluprost",
        "level": 5,
        "pos": "14434649.984382562,-32268693.79575193",
        "src_id": "7795",
        "weight": "6.18781162242107e-05"
      }
    },
    {
      "type": "Feature",
      "id": "3124",
      "geometry": {
        "type": "Point",
        "coordinates": [
          30.228028,
          -38.148914
        ]
      },
      "properties": {
        "label": "Linaclotide",
        "level": 5,
        "pos": "14986882.542947339,-31972725.462641962",
        "src_id": "7849",
        "weight": "6.58921408573717e-05"
      }
    },
    {
      "type": "Feature",
      "id": "3265",
      "geometry": {
        "type": "Point",
        "coordinates": [
          29.044656,
          -38.350501
        ]
      },
      "properties": {
        "label": "Biapenem",
        "level": 5,
        "pos": "14281257.271027653,-32200170.318685833",
        "src_id": "10655",
        "weight": "6.18781162242107e-05"
      }
    },
    {
      "type": "Feature",
      "id": "3807",
      "geometry": {
        "type": "Point",
        "coordinates": [
          30.169096,
          -38.215973
        ]
      },
      "properties": {
        "label": "Brasofensine",
        "level": 5,
        "pos": "14951742.700734006,-32048316.028059892",
        "src_id": "4579",
        "weight": "5.658585133969848e-05"
      }
    },
    {
      "type": "Feature",
      "id": "1153",
      "geometry": {
        "type": "Point",
        "coordinates": [
          30.080028,
          -38.473449
        ]
      },
      "properties": {
        "label": "Ruboxistaurin",
        "level": 4,
        "pos": "14898632.87618238,-32339199.16723961",
        "src_id": "9498",
        "weight": "0.00022316811992091517"
      }
    },
    {
      "type": "Feature",
      "id": "2708",
      "geometry": {
        "type": "Point",
        "coordinates": [
          29.950846,
          -38.308434
        ]
      },
      "properties": {
        "label": "Prucalopride",
        "level": 5,
        "pos": "14821603.541955207,-32152655.03773887",
        "src_id": "5630",
        "weight": "0.0001270341944709755"
      }
    },
    {
      "type": "Feature",
      "id": "4658",
      "geometry": {
        "type": "Point",
        "coordinates": [
          29.620078,
          -38.384689
        ]
      },
      "properties": {
        "label": "Raltitrexed",
        "level": 5,
        "pos": "14624372.065132974,-32238806.232444733",
        "src_id": "284",
        "weight": "4.8342518246934725e-05"
      }
    },
    {
      "type": "Feature",
      "id": "12",
      "geometry": {
        "type": "Point",
        "coordinates": [
          30.880289,
          -38.820449
        ]
      },
      "properties": {
        "label": "Lenalidomide",
        "level": 1,
        "pos": "15375815.167403428,-32732871.14914069",
        "src_id": "469",
        "weight": "0.0008625175209324962"
      }
    },
    {
      "type": "Feature",
      "id": "7616",
      "geometry": {
        "type": "Point",
        "coordinates": [
          30.385948,
          -38.433531
        ]
      },
      "properties": {
        "label": "Xaliproden",
        "level": 5,
        "pos": "15081047.758886315,-32294034.53758867",
        "src_id": "5576",
        "weight": "2.089563325965062e-05"
      }
    },
    {
      "type": "Feature",
      "id": "2219",
      "geometry": {
        "type": "Point",
        "coordinates": [
          30.559611,
          -38.37738
        ]
      },
      "properties": {
        "label": "Dronedarone",
        "level": 5,
        "pos": "15184600.209757688,-32230544.400429834",
        "src_id": "4577",
        "weight": "0.00012310676096015182"
      }
    },
    {
      "type": "Feature",
      "id": "3142",
      "geometry": {
        "type": "Point",
        "coordinates": [
          30.69527,
          -38.293881
        ]
      },
      "properties": {
        "label": "Olcegepant",
        "level": 5,
        "pos": "15265491.315974033,-32136223.981101416",
        "src_id": "4591",
        "weight": "6.80505666855994e-05"
      }
    },
    {
      "type": "Feature",
      "id": "3136",
      "geometry": {
        "type": "Point",
        "coordinates": [
          31.020248,
          -38.131948
        ]
      },
      "properties": {
        "label": "Prinomastat",
        "level": 5,
        "pos": "15459270.619088931,-31953611.847719356",
        "src_id": "4790",
        "weight": "6.80505666855994e-05"
      }
    },
    {
      "type": "Feature",
      "id": "3127",
      "geometry": {
        "type": "Point",
        "coordinates": [
          30.894903,
          -38.199247
        ]
      },
      "properties": {
        "label": "Resiquimod",
        "level": 5,
        "pos": "15384529.117542492,-32029455.640444964",
        "src_id": "5650",
        "weight": "6.80505666855994e-05"
      }
    },
    {
      "type": "Feature",
      "id": "307",
      "geometry": {
        "type": "Point",
        "coordinates": [
          31.390287,
          -38.296623
        ]
      },
      "properties": {
        "label": "Mecasermin",
        "level": 3,
        "pos": "15679919.104794545,-32139319.41121949",
        "src_id": "1260",
        "weight": "0.00034040666865160866"
      }
    },
    {
      "type": "Feature",
      "id": "2614",
      "geometry": {
        "type": "Point",
        "coordinates": [
          31.112193,
          -38.331077
        ]
      },
      "properties": {
        "label": "Amodiaquine",
        "level": 5,
        "pos": "15514095.678371027,-32178227.171184268",
        "src_id": "600",
        "weight": "9.904039465606246e-05"
      }
    },
    {
      "type": "Feature",
      "id": "229",
      "geometry": {
        "type": "Point",
        "coordinates": [
          31.633737,
          -38.711828
        ]
      },
      "properties": {
        "label": "Sunitinib",
        "level": 2,
        "pos": "15825084.219921226,-32609434.980554923",
        "src_id": "1251",
        "weight": "0.000491307569962023"
      }
    },
    {
      "type": "Feature",
      "id": "2996",
      "geometry": {
        "type": "Point",
        "coordinates": [
          31.441779,
          -37.888105
        ]
      },
      "properties": {
        "label": "Efavirenz",
        "level": 5,
        "pos": "15710622.931484062,-31679393.358449165",
        "src_id": "612",
        "weight": "0.00012746930218234502"
      }
    },
    {
      "type": "Feature",
      "id": "553",
      "geometry": {
        "type": "Point",
        "coordinates": [
          31.666046,
          -34.840834
        ]
      },
      "properties": {
        "label": "Fosamprenavir",
        "level": 3,
        "pos": "15844349.649946399,-28325570.382051114",
        "src_id": "1283",
        "weight": "0.0003596013974985638"
      }
    },
    {
      "type": "Feature",
      "id": "1654",
      "geometry": {
        "type": "Point",
        "coordinates": [
          31.856813,
          -34.699843
        ]
      },
      "properties": {
        "label": "Trabectedin",
        "level": 4,
        "pos": "15958100.447431989,-28173490.62622298",
        "src_id": "4799",
        "weight": "0.00019468731020188618"
      }
    },
    {
      "type": "Feature",
      "id": "2126",
      "geometry": {
        "type": "Point",
        "coordinates": [
          31.757847,
          -34.546737
        ]
      },
      "properties": {
        "label": "Febuxostat",
        "level": 4,
        "pos": "15899088.824885156,-28008635.67862302",
        "src_id": "4576",
        "weight": "0.000144882495718191"
      }
    },
    {
      "type": "Feature",
      "id": "5571",
      "geometry": {
        "type": "Point",
        "coordinates": [
          31.086313,
          -34.379606
        ]
      },
      "properties": {
        "label": "Ganirelix",
        "level": 5,
        "pos": "15498664.254649298,-27829025.398895048",
        "src_id": "5841",
        "weight": "4.1012999775355595e-05"
      }
    },
    {
      "type": "Feature",
      "id": "4175",
      "geometry": {
        "type": "Point",
        "coordinates": [
          31.24977,
          -34.468321
        ]
      },
      "properties": {
        "label": "Galiximab",
        "level": 5,
        "pos": "15596130.99931356,-27924319.71113376",
        "src_id": "4623",
        "weight": "7.595765442945293e-05"
      }
    },
    {
      "type": "Feature",
      "id": "4173",
      "geometry": {
        "type": "Point",
        "coordinates": [
          31.49487,
          -34.393945
        ]
      },
      "properties": {
        "label": "Oregovomab",
        "level": 5,
        "pos": "15742279.867643092,-27844421.028280556",
        "src_id": "4675",
        "weight": "7.595765442945293e-05"
      }
    },
    {
      "type": "Feature",
      "id": "4169",
      "geometry": {
        "type": "Point",
        "coordinates": [
          31.752176,
          -34.362821
        ]
      },
      "properties": {
        "label": "Dalbavancin",
        "level": 5,
        "pos": "15895707.165006096,-27811006.795688882",
        "src_id": "5492",
        "weight": "7.302642668652741e-05"
      }
    },
    {
      "type": "Feature",
      "id": "5180",
      "geometry": {
        "type": "Point",
        "coordinates": [
          32.098409,
          -34.807394
        ]
      },
      "properties": {
        "label": "Idraparinux",
        "level": 5,
        "pos": "16102160.694980495,-28289476.190339558",
        "src_id": "5585",
        "weight": "4.8522871903998905e-05"
      }
    },
    {
      "type": "Feature",
      "id": "3439",
      "geometry": {
        "type": "Point",
        "coordinates": [
          31.882402,
          -34.262072
        ]
      },
      "properties": {
        "label": "Lixivaptan",
        "level": 5,
        "pos": "15973359.305913202,-27702929.265124265",
        "src_id": "5733",
        "weight": "9.565816770688629e-05"
      }
    },
    {
      "type": "Feature",
      "id": "357",
      "geometry": {
        "type": "Point",
        "coordinates": [
          32.08653,
          -34.554479
        ]
      },
      "properties": {
        "label": "Eszopiclone",
        "level": 3,
        "pos": "16095077.203665363,-28016963.659181338",
        "src_id": "391",
        "weight": "0.00031610762915881764"
      }
    },
    {
      "type": "Feature",
      "id": "189",
      "geometry": {
        "type": "Point",
        "coordinates": [
          32.312257,
          -30.496453
        ]
      },
      "properties": {
        "label": "Darbepoetin alfa",
        "level": 1,
        "pos": "16229674.703447448,-23750848.598176967",
        "src_id": "12",
        "weight": "0.000706342335926546"
      }
    },
    {
      "type": "Feature",
      "id": "1118",
      "geometry": {
        "type": "Point",
        "coordinates": [
          30.280543,
          -30.819619
        ]
      },
      "properties": {
        "label": "Natalizumab",
        "level": 4,
        "pos": "15018196.522897553,-24083716.93915683",
        "src_id": "101",
        "weight": "0.00021395365899305413"
      }
    },
    {
      "type": "Feature",
      "id": "1512",
      "geometry": {
        "type": "Point",
        "coordinates": [
          30.703025,
          -30.886802
        ]
      },
      "properties": {
        "label": "Imatinib",
        "level": 3,
        "pos": "15270115.713902587,-24153057.508887917",
        "src_id": "606",
        "weight": "0.0002858493461683868"
      }
    },
    {
      "type": "Feature",
      "id": "2607",
      "geometry": {
        "type": "Point",
        "coordinates": [
          31.08876,
          -30.451295
        ]
      },
      "properties": {
        "label": "Doxorubicin",
        "level": 5,
        "pos": "15500123.120468918,-23704422.43534233",
        "src_id": "983",
        "weight": "0.00011677194975186412"
      }
    },
    {
      "type": "Feature",
      "id": "2719",
      "geometry": {
        "type": "Point",
        "coordinates": [
          31.427774,
          -30.310109
        ]
      },
      "properties": {
        "label": "Everolimus",
        "level": 4,
        "pos": "15702271.864092475,-23559411.83354045",
        "src_id": "1523",
        "weight": "0.00015887007414210755"
      }
    },
    {
      "type": "Feature",
      "id": "499",
      "geometry": {
        "type": "Point",
        "coordinates": [
          34.534805,
          -33.888853
        ]
      },
      "properties": {
        "label": "Tigecycline",
        "level": 3,
        "pos": "17554943.776674315,-27303687.611789234",
        "src_id": "547",
        "weight": "0.00033601580608490927"
      }
    },
    {
      "type": "Feature",
      "id": "3148",
      "geometry": {
        "type": "Point",
        "coordinates": [
          33.751539,
          -34.028211
        ]
      },
      "properties": {
        "label": "Brivudine",
        "level": 5,
        "pos": "17087895.27403208,-27452556.7278463",
        "src_id": "3128",
        "weight": "9.56607648647439e-05"
      }
    },
    {
      "type": "Feature",
      "id": "1288",
      "geometry": {
        "type": "Point",
        "coordinates": [
          34.304136,
          -33.890272
        ]
      },
      "properties": {
        "label": "Plerixafor",
        "level": 4,
        "pos": "17417400.004085995,-27305201.3852303",
        "src_id": "5862",
        "weight": "0.0002131409118357561"
      }
    },
    {
      "type": "Feature",
      "id": "479",
      "geometry": {
        "type": "Point",
        "coordinates": [
          34.443535,
          -34.060525
        ]
      },
      "properties": {
        "label": "Perospirone",
        "level": 3,
        "pos": "17500520.9764635,-27487110.439002518",
        "src_id": "7878",
        "weight": "0.00028915399506787104"
      }
    },
    {
      "type": "Feature",
      "id": "1680",
      "geometry": {
        "type": "Point",
        "coordinates": [
          32.407811,
          -34.740902
        ]
      },
      "properties": {
        "label": "Treprostinil",
        "level": 4,
        "pos": "16286652.043924248,-28217752.032761663",
        "src_id": "364",
        "weight": "0.00021838432841980027"
      }
    },
    {
      "type": "Feature",
      "id": "619",
      "geometry": {
        "type": "Point",
        "coordinates": [
          33.694087,
          -34.32248
        ]
      },
      "properties": {
        "label": "Levocetirizine",
        "level": 3,
        "pos": "17053637.599680442,-27767716.255260546",
        "src_id": "5533",
        "weight": "0.00035979333961725035"
      }
    },
    {
      "type": "Feature",
      "id": "2375",
      "geometry": {
        "type": "Point",
        "coordinates": [
          32.375755,
          -34.442559
        ]
      },
      "properties": {
        "label": "Voriconazole",
        "level": 4,
        "pos": "16267537.276263224,-27896636.429855816",
        "src_id": "569",
        "weight": "0.00014266235919633757"
      }
    },
    {
      "type": "Feature",
      "id": "794",
      "geometry": {
        "type": "Point",
        "coordinates": [
          34.220061,
          -34.1627
        ]
      },
      "properties": {
        "label": "Ivabradine",
        "level": 3,
        "pos": "17367267.33984553,-27596456.326363377",
        "src_id": "8028",
        "weight": "0.00028479937416438835"
      }
    },
    {
      "type": "Feature",
      "id": "2709",
      "geometry": {
        "type": "Point",
        "coordinates": [
          33.471919,
          -34.129018
        ]
      },
      "properties": {
        "label": "Azimilide",
        "level": 5,
        "pos": "16921162.316499375,-27560395.758725952",
        "src_id": "4668",
        "weight": "0.00013197275916149273"
      }
    },
    {
      "type": "Feature",
      "id": "486",
      "geometry": {
        "type": "Point",
        "coordinates": [
          34.792169,
          -34.480575
        ]
      },
      "properties": {
        "label": "Tositumomab",
        "level": 2,
        "pos": "17708406.223627403,-27937490.16739296",
        "src_id": "77",
        "weight": "0.00046677135864928924"
      }
    },
    {
      "type": "Feature",
      "id": "4363",
      "geometry": {
        "type": "Point",
        "coordinates": [
          33.995552,
          -33.901624
        ]
      },
      "properties": {
        "label": "Onercept",
        "level": 5,
        "pos": "17233396.33210866,-27317319.50214543",
        "src_id": "5638",
        "weight": "5.6275080703136976e-05"
      }
    },
    {
      "type": "Feature",
      "id": "289",
      "geometry": {
        "type": "Point",
        "coordinates": [
          34.002297,
          -34.286208
        ]
      },
      "properties": {
        "label": "Linezolid",
        "level": 3,
        "pos": "17237417.928996403,-27728809.30851654",
        "src_id": "588",
        "weight": "0.0002991199412973316"
      }
    },
    {
      "type": "Feature",
      "id": "4584",
      "geometry": {
        "type": "Point",
        "coordinates": [
          33.181494,
          -34.221022
        ]
      },
      "properties": {
        "label": "Tucaresol",
        "level": 5,
        "pos": "16747986.701395981,-27658930.797731515",
        "src_id": "10654",
        "weight": "5.69769378511384e-05"
      }
    },
    {
      "type": "Feature",
      "id": "841",
      "geometry": {
        "type": "Point",
        "coordinates": [
          34.289258,
          -33.674792
        ]
      },
      "properties": {
        "label": "Ranitidine",
        "level": 4,
        "pos": "17408528.5843649,-27075489.163580734",
        "src_id": "849",
        "weight": "0.00020456681456367665"
      }
    },
    {
      "type": "Feature",
      "id": "7653",
      "geometry": {
        "type": "Point",
        "coordinates": [
          34.044193,
          -33.536149
        ]
      },
      "properties": {
        "label": "Uridine diphosphate glucose",
        "level": 5,
        "pos": "17262399.796366062,-26927993.081893146",
        "src_id": "1775",
        "weight": "2.139805404615509e-05"
      }
    },
    {
      "type": "Feature",
      "id": "1300",
      "geometry": {
        "type": "Point",
        "coordinates": [
          31.736578,
          -38.284467
        ]
      },
      "properties": {
        "label": "Methyl aminolevulinate",
        "level": 4,
        "pos": "15886406.439122526,-32125596.094604734",
        "src_id": "978",
        "weight": "0.00023516549743369898"
      }
    },
    {
      "type": "Feature",
      "id": "459",
      "geometry": {
        "type": "Point",
        "coordinates": [
          31.808829,
          -38.490331
        ]
      },
      "properties": {
        "label": "Valdecoxib",
        "level": 2,
        "pos": "15929488.755086996,-32358308.28259961",
        "src_id": "567",
        "weight": "0.000408027540975046"
      }
    },
    {
      "type": "Feature",
      "id": "837",
      "geometry": {
        "type": "Point",
        "coordinates": [
          32.083999,
          -38.348266
        ]
      },
      "properties": {
        "label": "Etoricoxib",
        "level": 3,
        "pos": "16093567.993223201,-32197645.29098274",
        "src_id": "1559",
        "weight": "0.0002880022408183708"
      }
    },
    {
      "type": "Feature",
      "id": "2965",
      "geometry": {
        "type": "Point",
        "coordinates": [
          31.885671,
          -38.07208
        ]
      },
      "properties": {
        "label": "Midostaurin",
        "level": 5,
        "pos": "15975308.117919667,-31886201.796891596",
        "src_id": "5686",
        "weight": "0.00013101316583535296"
      }
    },
    {
      "type": "Feature",
      "id": "3602",
      "geometry": {
        "type": "Point",
        "coordinates": [
          32.115197,
          -38.467405
        ]
      },
      "properties": {
        "label": "Bryostatin 1",
        "level": 5,
        "pos": "16112170.995010415,-32332359.199375346",
        "src_id": "9422",
        "weight": "0.00010616913451998706"
      }
    },
    {
      "type": "Feature",
      "id": "3288",
      "geometry": {
        "type": "Point",
        "coordinates": [
          31.570618,
          -38.140963
        ]
      },
      "properties": {
        "label": "Fenretinide",
        "level": 5,
        "pos": "15787447.24572529,-31963767.840986427",
        "src_id": "4769",
        "weight": "0.00010110725191504291"
      }
    },
    {
      "type": "Feature",
      "id": "4159",
      "geometry": {
        "type": "Point",
        "coordinates": [
          31.813337,
          -38.111786
        ]
      },
      "properties": {
        "label": "Fesoterodine",
        "level": 5,
        "pos": "15932176.93023068,-31930903.8779862",
        "src_id": "5762",
        "weight": "6.899790181572296e-05"
      }
    },
    {
      "type": "Feature",
      "id": "2330",
      "geometry": {
        "type": "Point",
        "coordinates": [
          31.526828,
          -37.59013
        ]
      },
      "properties": {
        "label": "Indium",
        "level": 5,
        "pos": "15761335.978222037,-31345527.82186888",
        "src_id": "9331",
        "weight": "8.30289035092197e-05"
      }
    },
    {
      "type": "Feature",
      "id": "1747",
      "geometry": {
        "type": "Point",
        "coordinates": [
          32.085203,
          -37.782736
        ]
      },
      "properties": {
        "label": "Sitagliptin",
        "level": 5,
        "pos": "16094285.959940275,-31561179.010880068",
        "src_id": "1244",
        "weight": "0.00010744960007792432"
      }
    },
    {
      "type": "Feature",
      "id": "1569",
      "geometry": {
        "type": "Point",
        "coordinates": [
          32.329495,
          -37.535795
        ]
      },
      "properties": {
        "label": "Povidone-iodine",
        "level": 5,
        "pos": "16239953.113767296,-31284793.890849162",
        "src_id": "5865",
        "weight": "0.00010935596907397844"
      }
    },
    {
      "type": "Feature",
      "id": "4649",
      "geometry": {
        "type": "Point",
        "coordinates": [
          32.677769,
          -37.758514
        ]
      },
      "properties": {
        "label": "Methazolamide",
        "level": 5,
        "pos": "16447623.668739919,-31534028.30361732",
        "src_id": "689",
        "weight": "0.00010225636109064204"
      }
    },
    {
      "type": "Feature",
      "id": "2711",
      "geometry": {
        "type": "Point",
        "coordinates": [
          32.461679,
          -37.25973
        ]
      },
      "properties": {
        "label": "Propyl alcohol",
        "level": 5,
        "pos": "16318772.62548147,-30976892.621337652",
        "src_id": "2996",
        "weight": "9.663274733467889e-05"
      }
    },
    {
      "type": "Feature",
      "id": "3589",
      "geometry": {
        "type": "Point",
        "coordinates": [
          34.121846,
          -37.926935
        ]
      },
      "properties": {
        "label": "Acute lung injury",
        "level": 5,
        "pos": "17308703.060464956,-31722999.448537868",
        "src_id": "169753",
        "weight": "0.00013151919473178736"
      }
    },
    {
      "type": "Feature",
      "id": "2026",
      "geometry": {
        "type": "Point",
        "coordinates": [
          33.214341,
          -37.905941
        ]
      },
      "properties": {
        "label": "Pegsunercept",
        "level": 4,
        "pos": "16767572.409393385,-31699420.323972244",
        "src_id": "5699",
        "weight": "0.00016790293270638412"
      }
    },
    {
      "type": "Feature",
      "id": "5159",
      "geometry": {
        "type": "Point",
        "coordinates": [
          33.221434,
          -37.435067
        ]
      },
      "properties": {
        "label": "Toloxatone",
        "level": 5,
        "pos": "16771802.179678846,-31172318.24869605",
        "src_id": "8185",
        "weight": "4.911064002937014e-05"
      }
    },
    {
      "type": "Feature",
      "id": "3489",
      "geometry": {
        "type": "Point",
        "coordinates": [
          33.365665,
          -37.59736
        ]
      },
      "properties": {
        "label": "Flucloxacillin",
        "level": 5,
        "pos": "16857804.970963906,-31353613.599985145",
        "src_id": "292",
        "weight": "0.00011785633578144581"
      }
    },
    {
      "type": "Feature",
      "id": "8826",
      "geometry": {
        "type": "Point",
        "coordinates": [
          33.572662,
          -37.463446
        ]
      },
      "properties": {
        "label": "Entinostat",
        "level": 5,
        "pos": "16981233.725153413,-31203991.545514558",
        "src_id": "9510",
        "weight": "2.040285430751143e-05"
      }
    },
    {
      "type": "Feature",
      "id": "407",
      "geometry": {
        "type": "Point",
        "coordinates": [
          42.565587,
          -35.120046
        ]
      },
      "properties": {
        "label": "Insulin Human",
        "level": 2,
        "pos": "22343569.397306472,-28627513.505818676",
        "src_id": "30",
        "weight": "0.0003755983713084617"
      }
    },
    {
      "type": "Feature",
      "id": "20",
      "geometry": {
        "type": "Point",
        "coordinates": [
          39.648688,
          -34.238597
        ]
      },
      "properties": {
        "label": "Fondaparinux sodium",
        "level": 1,
        "pos": "20604269.445200372,-27677765.33565116",
        "src_id": "556",
        "weight": "0.0009445776130235717"
      }
    },
    {
      "type": "Feature",
      "id": "27",
      "geometry": {
        "type": "Point",
        "coordinates": [
          37.330684,
          -32.852943
        ]
      },
      "properties": {
        "label": "Botulinum Toxin Type B",
        "level": 1,
        "pos": "19222081.283597466,-26204581.161865447",
        "src_id": "41",
        "weight": "0.0008753208006636704"
      }
    },
    {
      "type": "Feature",
      "id": "1651",
      "geometry": {
        "type": "Point",
        "coordinates": [
          42.072324,
          -35.018544
        ]
      },
      "properties": {
        "label": "Sitaxentan",
        "level": 4,
        "pos": "22049444.402181078,-28517628.688676283",
        "src_id": "5524",
        "weight": "0.0002218637773311306"
      }
    },
    {
      "type": "Feature",
      "id": "683",
      "geometry": {
        "type": "Point",
        "coordinates": [
          42.090735,
          -35.326557
        ]
      },
      "properties": {
        "label": "Lanthanum carbonate",
        "level": 3,
        "pos": "22060422.95868221,-28851504.174188368",
        "src_id": "5847",
        "weight": "0.00035325964038599003"
      }
    },
    {
      "type": "Feature",
      "id": "623",
      "geometry": {
        "type": "Point",
        "coordinates": [
          42.253455,
          -35.182936
        ]
      },
      "properties": {
        "label": "Zoledronic acid",
        "level": 3,
        "pos": "22157449.839367468,-28695667.090831604",
        "src_id": "388",
        "weight": "0.0003388866376235478"
      }
    },
    {
      "type": "Feature",
      "id": "2972",
      "geometry": {
        "type": "Point",
        "coordinates": [
          41.693149,
          -35.006442
        ]
      },
      "properties": {
        "label": "Pleconaril",
        "level": 5,
        "pos": "21823348.60953002,-28504537.18333703",
        "src_id": "4795",
        "weight": "0.0001208015442418031"
      }
    },
    {
      "type": "Feature",
      "id": "2479",
      "geometry": {
        "type": "Point",
        "coordinates": [
          39.635723,
          -33.746084
        ]
      },
      "properties": {
        "label": "Seocalcitol",
        "level": 5,
        "pos": "20596538.66750811,-27151426.454819113",
        "src_id": "4013",
        "weight": "8.16624955389833e-05"
      }
    },
    {
      "type": "Feature",
      "id": "2474",
      "geometry": {
        "type": "Point",
        "coordinates": [
          39.539805,
          -33.382905
        ]
      },
      "properties": {
        "label": "Pradefovir Mesylate",
        "level": 5,
        "pos": "20539344.20218875,-26765237.981897183",
        "src_id": "5100",
        "weight": "8.16624955389833e-05"
      }
    },
    {
      "type": "Feature",
      "id": "2471",
      "geometry": {
        "type": "Point",
        "coordinates": [
          39.651751,
          -33.438679
        ]
      },
      "properties": {
        "label": "Oglufanide",
        "level": 5,
        "pos": "20606096.008598294,-26824440.077469584",
        "src_id": "5243",
        "weight": "8.16624955389833e-05"
      }
    },
    {
      "type": "Feature",
      "id": "3282",
      "geometry": {
        "type": "Point",
        "coordinates": [
          39.931325,
          -33.412311
        ]
      },
      "properties": {
        "label": "Ferumoxytol",
        "level": 5,
        "pos": "20772801.7375327,-26796447.087954044",
        "src_id": "5488",
        "weight": "7.037473083143289e-05"
      }
    },
    {
      "type": "Feature",
      "id": "2467",
      "geometry": {
        "type": "Point",
        "coordinates": [
          39.522645,
          -33.12817
        ]
      },
      "properties": {
        "label": "Maribavir",
        "level": 5,
        "pos": "20529112.357698336,-26495326.478269614",
        "src_id": "5499",
        "weight": "8.16624955389833e-05"
      }
    },
    {
      "type": "Feature",
      "id": "2466",
      "geometry": {
        "type": "Point",
        "coordinates": [
          39.830484,
          -33.374727
        ]
      },
      "properties": {
        "label": "Alvimopan",
        "level": 5,
        "pos": "20712671.424503278,-26756560.073438413",
        "src_id": "5529",
        "weight": "8.16624955389833e-05"
      }
    },
    {
      "type": "Feature",
      "id": "3613",
      "geometry": {
        "type": "Point",
        "coordinates": [
          39.579808,
          -33.106738
        ]
      },
      "properties": {
        "label": "Radium Ra 223 Dichloride",
        "level": 5,
        "pos": "20563197.49525945,-26472653.131598238",
        "src_id": "7872",
        "weight": "5.831583634822659e-05"
      }
    },
    {
      "type": "Feature",
      "id": "3603",
      "geometry": {
        "type": "Point",
        "coordinates": [
          39.688554,
          -33.132657
        ]
      },
      "properties": {
        "label": "Ortataxel",
        "level": 5,
        "pos": "20628040.912642207,-26500073.99719882",
        "src_id": "9341",
        "weight": "5.831583634822659e-05"
      }
    },
    {
      "type": "Feature",
      "id": "2447",
      "geometry": {
        "type": "Point",
        "coordinates": [
          39.64181,
          -33.179391
        ]
      },
      "properties": {
        "label": "Amithiozone",
        "level": 5,
        "pos": "20600168.33168532,-26549536.464428823",
        "src_id": "10462",
        "weight": "8.16624955389833e-05"
      }
    },
    {
      "type": "Feature",
      "id": "2444",
      "geometry": {
        "type": "Point",
        "coordinates": [
          39.391949,
          -33.743807
        ]
      },
      "properties": {
        "label": "Valopicitabine",
        "level": 5,
        "pos": "20451180.419180993,-27149000.10810499",
        "src_id": "10955",
        "weight": "8.16624955389833e-05"
      }
    },
    {
      "type": "Feature",
      "id": "2515",
      "geometry": {
        "type": "Point",
        "coordinates": [
          40.101019,
          -33.500923
        ]
      },
      "properties": {
        "label": "Denileukin diftitox",
        "level": 5,
        "pos": "20873987.07088528,-26890555.34933515",
        "src_id": "4",
        "weight": "0.00010887272487402219"
      }
    },
    {
      "type": "Feature",
      "id": "35",
      "geometry": {
        "type": "Point",
        "coordinates": [
          34.718176,
          -31.672848
        ]
      },
      "properties": {
        "label": "Efalizumab",
        "level": 1,
        "pos": "17664285.154799066,-24968003.833006755",
        "src_id": "90",
        "weight": "0.0008208062750429622"
      }
    },
    {
      "type": "Feature",
      "id": "30",
      "geometry": {
        "type": "Point",
        "coordinates": [
          39.871273,
          -34.179096
        ]
      },
      "properties": {
        "label": "Drotrecogin alfa",
        "level": 1,
        "pos": "20736993.170741223,-27614015.29103075",
        "src_id": "54",
        "weight": "0.0008046867119308513"
      }
    },
    {
      "type": "Feature",
      "id": "1859",
      "geometry": {
        "type": "Point",
        "coordinates": [
          39.437058,
          -33.813494
        ]
      },
      "properties": {
        "label": "Reteplase",
        "level": 5,
        "pos": "20478078.06287525,-27223286.654528383",
        "src_id": "15",
        "weight": "0.00013286477871890474"
      }
    },
    {
      "type": "Feature",
      "id": "3461",
      "geometry": {
        "type": "Point",
        "coordinates": [
          39.352683,
          -33.070209
        ]
      },
      "properties": {
        "label": "Licofelone",
        "level": 5,
        "pos": "20427766.417994536,-26434021.551945947",
        "src_id": "4449",
        "weight": "0.00010585766416984541"
      }
    },
    {
      "type": "Feature",
      "id": "4177",
      "geometry": {
        "type": "Point",
        "coordinates": [
          39.82404,
          -33.671713
        ]
      },
      "properties": {
        "label": "Binodenoson",
        "level": 5,
        "pos": "20708828.890648004,-27072210.571542967",
        "src_id": "4575",
        "weight": "6.872145845082848e-05"
      }
    },
    {
      "type": "Feature",
      "id": "4376",
      "geometry": {
        "type": "Point",
        "coordinates": [
          39.399366,
          -33.93016
        ]
      },
      "properties": {
        "label": "Ospemifene",
        "level": 5,
        "pos": "20455602.724482264,-27347788.32683046",
        "src_id": "4652",
        "weight": "6.744207700579085e-05"
      }
    },
    {
      "type": "Feature",
      "id": "2973",
      "geometry": {
        "type": "Point",
        "coordinates": [
          39.976107,
          -33.206545
        ]
      },
      "properties": {
        "label": "Troxacitabine",
        "level": 5,
        "pos": "20799504.475943718,-26578286.880456604",
        "src_id": "4672",
        "weight": "0.0001109239513871265"
      }
    },
    {
      "type": "Feature",
      "id": "4372",
      "geometry": {
        "type": "Point",
        "coordinates": [
          38.386057,
          -33.70528
        ]
      },
      "properties": {
        "label": "gallium maltolate",
        "level": 5,
        "pos": "19851383.46112919,-27107956.167464685",
        "src_id": "5046",
        "weight": "4.56523460700111e-05"
      }
    },
    {
      "type": "Feature",
      "id": "4370",
      "geometry": {
        "type": "Point",
        "coordinates": [
          38.705145,
          -33.873472
        ]
      },
      "properties": {
        "label": "Ciluprevir",
        "level": 5,
        "pos": "20041650.477220614,-27287271.25866691",
        "src_id": "5317",
        "weight": "6.744207700579085e-05"
      }
    },
    {
      "type": "Feature",
      "id": "4366",
      "geometry": {
        "type": "Point",
        "coordinates": [
          39.147178,
          -33.840843
        ]
      },
      "properties": {
        "label": "Exisulind",
        "level": 5,
        "pos": "20305227.473602526,-27252456.550113574",
        "src_id": "5508",
        "weight": "4.56523460700111e-05"
      }
    },
    {
      "type": "Feature",
      "id": "3445",
      "geometry": {
        "type": "Point",
        "coordinates": [
          39.969311,
          -33.213809
        ]
      },
      "properties": {
        "label": "Arzoxifene",
        "level": 5,
        "pos": "20795452.179587636,-26585980.12629798",
        "src_id": "5511",
        "weight": "9.211146646824456e-05"
      }
    },
    {
      "type": "Feature",
      "id": "4364",
      "geometry": {
        "type": "Point",
        "coordinates": [
          39.502742,
          -33.103579
        ]
      },
      "properties": {
        "label": "Repifermin",
        "level": 5,
        "pos": "20517244.291093014,-26469311.902906172",
        "src_id": "5599",
        "weight": "4.56523460700111e-05"
      }
    },
    {
      "type": "Feature",
      "id": "5170",
      "geometry": {
        "type": "Point",
        "coordinates": [
          39.475755,
          -33.369461
        ]
      },
      "properties": {
        "label": "Belimumab",
        "level": 5,
        "pos": "20501152.284620993,-26750973.877884507",
        "src_id": "7838",
        "weight": "4.558010801513183e-05"
      }
    },
    {
      "type": "Feature",
      "id": "3942",
      "geometry": {
        "type": "Point",
        "coordinates": [
          39.768496,
          -33.241844
        ]
      },
      "properties": {
        "label": "Estradiol acetate",
        "level": 5,
        "pos": "20675709.40047956,-26615676.03073985",
        "src_id": "10984",
        "weight": "7.124088616407036e-05"
      }
    },
    {
      "type": "Feature",
      "id": "1853",
      "geometry": {
        "type": "Point",
        "coordinates": [
          39.970081,
          -33.257448
        ]
      },
      "properties": {
        "label": "Dexrazoxane",
        "level": 5,
        "pos": "20795910.837947313,-26632208.10920496",
        "src_id": "370",
        "weight": "0.00013286477871890474"
      }
    },
    {
      "type": "Feature",
      "id": "4410",
      "geometry": {
        "type": "Point",
        "coordinates": [
          39.325064,
          -33.852624
        ]
      },
      "properties": {
        "label": "Cerivastatin",
        "level": 5,
        "pos": "20411298.13827986,-27265024.87101134",
        "src_id": "428",
        "weight": "6.614719465853967e-05"
      }
    },
    {
      "type": "Feature",
      "id": "2506",
      "geometry": {
        "type": "Point",
        "coordinates": [
          38.720183,
          -33.85883
        ]
      },
      "properties": {
        "label": "Zanamivir",
        "level": 5,
        "pos": "20050617.28430787,-27271647.08533634",
        "src_id": "545",
        "weight": "0.00010887272487402219"
      }
    },
    {
      "type": "Feature",
      "id": "1668",
      "geometry": {
        "type": "Point",
        "coordinates": [
          39.625827,
          -33.972181
        ]
      },
      "properties": {
        "label": "Imiquimod",
        "level": 4,
        "pos": "20590637.743360855,-27392673.050862662",
        "src_id": "710",
        "weight": "0.00019216934582489922"
      }
    },
    {
      "type": "Feature",
      "id": "3460",
      "geometry": {
        "type": "Point",
        "coordinates": [
          38.436802,
          -33.686637
        ]
      },
      "properties": {
        "label": "Picoplatin",
        "level": 5,
        "pos": "19881641.678425103,-27088101.42724676",
        "src_id": "4596",
        "weight": "5.958015995395834e-05"
      }
    },
    {
      "type": "Feature",
      "id": "4174",
      "geometry": {
        "type": "Point",
        "coordinates": [
          39.444676,
          -33.429779
        ]
      },
      "properties": {
        "label": "Oritavancin",
        "level": 5,
        "pos": "20482620.544546973,-26814990.523014702",
        "src_id": "4631",
        "weight": "4.977588286309458e-05"
      }
    },
    {
      "type": "Feature",
      "id": "4622",
      "geometry": {
        "type": "Point",
        "coordinates": [
          39.373986,
          -33.07732
        ]
      },
      "properties": {
        "label": "Ceftobiprole",
        "level": 5,
        "pos": "20440469.045495983,-26441540.815288838",
        "src_id": "4636",
        "weight": "4.0730303238654576e-05"
      }
    },
    {
      "type": "Feature",
      "id": "3139",
      "geometry": {
        "type": "Point",
        "coordinates": [
          39.58982,
          -33.24785
        ]
      },
      "properties": {
        "label": "Clevidipine",
        "level": 5,
        "pos": "20569167.54586472,-26622039.02362003",
        "src_id": "4638",
        "weight": "7.562462039432911e-05"
      }
    },
    {
      "type": "Feature",
      "id": "3972",
      "geometry": {
        "type": "Point",
        "coordinates": [
          39.049827,
          -33.442387
        ]
      },
      "properties": {
        "label": "Asimadoline",
        "level": 5,
        "pos": "20247178.49999498,-26828377.167308353",
        "src_id": "4794",
        "weight": "8.074672010420793e-05"
      }
    },
    {
      "type": "Feature",
      "id": "3452",
      "geometry": {
        "type": "Point",
        "coordinates": [
          39.342515,
          -33.204655
        ]
      },
      "properties": {
        "label": "Paclitaxel docosahexaenoic acid",
        "level": 5,
        "pos": "20421703.495993547,-26576285.336009692",
        "src_id": "4953",
        "weight": "5.958015995395834e-05"
      }
    },
    {
      "type": "Feature",
      "id": "2470",
      "geometry": {
        "type": "Point",
        "coordinates": [
          39.986779,
          -33.634845
        ]
      },
      "properties": {
        "label": "Rimonabant",
        "level": 4,
        "pos": "20805867.818936825,-27032967.210887395",
        "src_id": "5443",
        "weight": "0.00014976742561385376"
      }
    },
    {
      "type": "Feature",
      "id": "2967",
      "geometry": {
        "type": "Point",
        "coordinates": [
          38.919148,
          -33.79114
        ]
      },
      "properties": {
        "label": "Pixantrone",
        "level": 5,
        "pos": "20169256.461191714,-27199450.3644042",
        "src_id": "5468",
        "weight": "0.00011045840659043938"
      }
    },
    {
      "type": "Feature",
      "id": "4171",
      "geometry": {
        "type": "Point",
        "coordinates": [
          38.838493,
          -33.856798
        ]
      },
      "properties": {
        "label": "Bimosiamose",
        "level": 5,
        "pos": "20121163.69383002,-27269478.667142577",
        "src_id": "5472",
        "weight": "4.977588286309458e-05"
      }
    },
    {
      "type": "Feature",
      "id": "1652",
      "geometry": {
        "type": "Point",
        "coordinates": [
          39.368632,
          -33.963223
        ]
      },
      "properties": {
        "label": "Lanoteplase",
        "level": 4,
        "pos": "20437276.49845277,-27383103.18161512",
        "src_id": "5507",
        "weight": "0.00019216934582489922"
      }
    },
    {
      "type": "Feature",
      "id": "1836",
      "geometry": {
        "type": "Point",
        "coordinates": [
          39.37838,
          -33.243566
        ]
      },
      "properties": {
        "label": "Tanomastat",
        "level": 5,
        "pos": "20443089.120482534,-26617500.05949501",
        "src_id": "5530",
        "weight": "0.00013286477871890474"
      }
    },
    {
      "type": "Feature",
      "id": "1834",
      "geometry": {
        "type": "Point",
        "coordinates": [
          38.733558,
          -33.863426
        ]
      },
      "properties": {
        "label": "Semaxanib",
        "level": 5,
        "pos": "20058592.298443764,-27276551.001832157",
        "src_id": "5601",
        "weight": "0.00013286477871890474"
      }
    },
    {
      "type": "Feature",
      "id": "1833",
      "geometry": {
        "type": "Point",
        "coordinates": [
          39.398295,
          -33.373041
        ]
      },
      "properties": {
        "label": "Ravuconazole",
        "level": 5,
        "pos": "20454964.215715207,-26754771.849770237",
        "src_id": "5604",
        "weight": "0.00013286477871890474"
      }
    },
    {
      "type": "Feature",
      "id": "4167",
      "geometry": {
        "type": "Point",
        "coordinates": [
          38.933035,
          -33.899898
        ]
      },
      "properties": {
        "label": "Diethylnorspermine",
        "level": 5,
        "pos": "20177537.172962666,-27315477.44769048",
        "src_id": "5608",
        "weight": "4.977588286309458e-05"
      }
    },
    {
      "type": "Feature",
      "id": "3442",
      "geometry": {
        "type": "Point",
        "coordinates": [
          39.137957,
          -33.547705
        ]
      },
      "properties": {
        "label": "Meclinertant",
        "level": 5,
        "pos": "20299728.947731946,-26940277.72636558",
        "src_id": "5615",
        "weight": "5.958015995395834e-05"
      }
    },
    {
      "type": "Feature",
      "id": "2464",
      "geometry": {
        "type": "Point",
        "coordinates": [
          38.721443,
          -33.870137
        ]
      },
      "properties": {
        "label": "Enrasentan",
        "level": 5,
        "pos": "20051368.38349423,-27283712.723254748",
        "src_id": "5618",
        "weight": "0.00010887272487402219"
      }
    },
    {
      "type": "Feature",
      "id": "4165",
      "geometry": {
        "type": "Point",
        "coordinates": [
          39.127818,
          -33.593621
        ]
      },
      "properties": {
        "label": "Cariporide",
        "level": 5,
        "pos": "20293683.483806644,-26989106.009392604",
        "src_id": "5621",
        "weight": "4.977588286309458e-05"
      }
    },
    {
      "type": "Feature",
      "id": "3441",
      "geometry": {
        "type": "Point",
        "coordinates": [
          38.706604,
          -33.856828
        ]
      },
      "properties": {
        "label": "Bivatuzumab",
        "level": 5,
        "pos": "20042520.047637615,-27269511.192789022",
        "src_id": "5661",
        "weight": "5.958015995395834e-05"
      }
    },
    {
      "type": "Feature",
      "id": "3440",
      "geometry": {
        "type": "Point",
        "coordinates": [
          39.386664,
          -33.322124
        ]
      },
      "properties": {
        "label": "Rostaporfin",
        "level": 5,
        "pos": "20448029.037478883,-26700764.23423129",
        "src_id": "5729",
        "weight": "5.958015995395834e-05"
      }
    },
    {
      "type": "Feature",
      "id": "4608",
      "geometry": {
        "type": "Point",
        "coordinates": [
          39.281843,
          -33.413694
        ]
      },
      "properties": {
        "label": "Fospropofol",
        "level": 5,
        "pos": "20385525.906144015,-26797914.69104505",
        "src_id": "5776",
        "weight": "4.0730303238654576e-05"
      }
    },
    {
      "type": "Feature",
      "id": "2459",
      "geometry": {
        "type": "Point",
        "coordinates": [
          38.994392,
          -33.676566
        ]
      },
      "properties": {
        "label": "Benidipine",
        "level": 5,
        "pos": "20214123.408021137,-27077378.050107878",
        "src_id": "8171",
        "weight": "0.00010887272487402219"
      }
    },
    {
      "type": "Feature",
      "id": "2458",
      "geometry": {
        "type": "Point",
        "coordinates": [
          38.920463,
          -33.913508
        ]
      },
      "properties": {
        "label": "Manidipine",
        "level": 5,
        "pos": "20170040.645386875,-27330006.6939533",
        "src_id": "8178",
        "weight": "0.00010887272487402219"
      }
    },
    {
      "type": "Feature",
      "id": "4591",
      "geometry": {
        "type": "Point",
        "coordinates": [
          39.010726,
          -33.668958
        ]
      },
      "properties": {
        "label": "Incyclinide",
        "level": 5,
        "pos": "20223862.91815303,-27069277.886157475",
        "src_id": "9319",
        "weight": "4.0730303238654576e-05"
      }
    },
    {
      "type": "Feature",
      "id": "3415",
      "geometry": {
        "type": "Point",
        "coordinates": [
          39.404631,
          -33.527901
        ]
      },
      "properties": {
        "label": "Mafosfamide",
        "level": 5,
        "pos": "20458742.11584768,-26919225.373500314",
        "src_id": "9747",
        "weight": "5.958015995395834e-05"
      }
    },
    {
      "type": "Feature",
      "id": "3414",
      "geometry": {
        "type": "Point",
        "coordinates": [
          39.162892,
          -33.713126
        ]
      },
      "properties": {
        "label": "Exatecan",
        "level": 5,
        "pos": "20314597.147551134,-27116312.76977743",
        "src_id": "9845",
        "weight": "5.958015995395834e-05"
      }
    },
    {
      "type": "Feature",
      "id": "4139",
      "geometry": {
        "type": "Point",
        "coordinates": [
          38.700321,
          -33.791442
        ]
      },
      "properties": {
        "label": "Bizelesin",
        "level": 5,
        "pos": "20038773.61041625,-27199771.713021502",
        "src_id": "10008",
        "weight": "4.977588286309458e-05"
      }
    },
    {
      "type": "Feature",
      "id": "2449",
      "geometry": {
        "type": "Point",
        "coordinates": [
          39.610353,
          -33.555002
        ]
      },
      "properties": {
        "label": "Mizolastine",
        "level": 5,
        "pos": "20581411.13178333,-26948035.518326715",
        "src_id": "10171",
        "weight": "0.00010887272487402219"
      }
    },
    {
      "type": "Feature",
      "id": "5526",
      "geometry": {
        "type": "Point",
        "coordinates": [
          39.607437,
          -33.562911
        ]
      },
      "properties": {
        "label": "Soblidotin",
        "level": 5,
        "pos": "20579672.37975688,-26956445.13579812",
        "src_id": "10317",
        "weight": "4.471534591345922e-05"
      }
    },
    {
      "type": "Feature",
      "id": "4585",
      "geometry": {
        "type": "Point",
        "coordinates": [
          39.007632,
          -33.997471
        ]
      },
      "properties": {
        "label": "Bucindolol",
        "level": 5,
        "pos": "20222018.283940174,-27419697.130914345",
        "src_id": "10390",
        "weight": "4.0730303238654576e-05"
      }
    },
    {
      "type": "Feature",
      "id": "4135",
      "geometry": {
        "type": "Point",
        "coordinates": [
          38.923625,
          -33.875127
        ]
      },
      "properties": {
        "label": "Urocortin-2",
        "level": 5,
        "pos": "20171926.161969006,-27289037.738307964",
        "src_id": "10660",
        "weight": "6.154163057981962e-05"
      }
    },
    {
      "type": "Feature",
      "id": "796",
      "geometry": {
        "type": "Point",
        "coordinates": [
          44.357833,
          -36.000457
        ]
      },
      "properties": {
        "label": "Rasagiline",
        "level": 3,
        "pos": "23412256.278792396,-29586458.30111448",
        "src_id": "1324",
        "weight": "0.0002456430329940848"
      }
    },
    {
      "type": "Feature",
      "id": "1217",
      "geometry": {
        "type": "Point",
        "coordinates": [
          44.114395,
          -35.892677
        ]
      },
      "properties": {
        "label": "Sarcosine",
        "level": 4,
        "pos": "23267098.277191114,-29468495.886154253",
        "src_id": "10167",
        "weight": "0.0001851414011191848"
      }
    },
    {
      "type": "Feature",
      "id": "649",
      "geometry": {
        "type": "Point",
        "coordinates": [
          44.280917,
          -36.389509
        ]
      },
      "properties": {
        "label": "Decitabine",
        "level": 3,
        "pos": "23366393.03975389,-30013616.902969375",
        "src_id": "1245",
        "weight": "0.00032697572951203397"
      }
    },
    {
      "type": "Feature",
      "id": "3598",
      "geometry": {
        "type": "Point",
        "coordinates": [
          44.182302,
          -36.117446
        ]
      },
      "properties": {
        "label": "9-aminocamptothecin",
        "level": 5,
        "pos": "23307590.003812265,-29714683.495456416",
        "src_id": "10164",
        "weight": "9.564187014400054e-05"
      }
    },
    {
      "type": "Feature",
      "id": "1858",
      "geometry": {
        "type": "Point",
        "coordinates": [
          31.454008,
          -34.5828
        ]
      },
      "properties": {
        "label": "Palifermin",
        "level": 4,
        "pos": "15717914.426476872,-28047437.843120996",
        "src_id": "38",
        "weight": "0.00019282435424275543"
      }
    },
    {
      "type": "Feature",
      "id": "1676",
      "geometry": {
        "type": "Point",
        "coordinates": [
          31.974733,
          -35.916682
        ]
      },
      "properties": {
        "label": "Betamethasone",
        "level": 4,
        "pos": "16028414.316314075,-29494754.28745666",
        "src_id": "432",
        "weight": "0.00015172292434306427"
      }
    },
    {
      "type": "Feature",
      "id": "2024",
      "geometry": {
        "type": "Point",
        "coordinates": [
          32.360545,
          -35.683651
        ]
      },
      "properties": {
        "label": "Hyaluronic acid",
        "level": 5,
        "pos": "16258468.038831756,-29240177.05381918",
        "src_id": "7794",
        "weight": "9.711474726090308e-05"
      }
    },
    {
      "type": "Feature",
      "id": "7584",
      "geometry": {
        "type": "Point",
        "coordinates": [
          33.15014,
          -37.060647
        ]
      },
      "properties": {
        "label": "Canrenoic acid",
        "level": 5,
        "pos": "16729290.452724988,-30755550.819272734",
        "src_id": "7965",
        "weight": "2.5719799876193376e-05"
      }
    },
    {
      "type": "Feature",
      "id": "8655",
      "geometry": {
        "type": "Point",
        "coordinates": [
          33.139284,
          -37.093837
        ]
      },
      "properties": {
        "label": "Blood cortisol decreased",
        "level": 5,
        "pos": "16722817.319262493,-30792410.42430395",
        "src_id": "172062",
        "weight": "2.088104194272854e-05"
      }
    },
    {
      "type": "Feature",
      "id": "4771",
      "geometry": {
        "type": "Point",
        "coordinates": [
          33.064242,
          -37.003837
        ]
      },
      "properties": {
        "label": "Human herpesvirus 6 infection",
        "level": 5,
        "pos": "16678071.252908153,-30692495.86447103",
        "src_id": "178340",
        "weight": "3.919453877613592e-05"
      }
    },
    {
      "type": "Feature",
      "id": "5337",
      "geometry": {
        "type": "Point",
        "coordinates": [
          33.126694,
          -37.029209
        ]
      },
      "properties": {
        "label": "Neurolysis",
        "level": 5,
        "pos": "16715310.189925265,-30720651.08638228",
        "src_id": "181748",
        "weight": "3.17662003884292e-05"
      }
    },
    {
      "type": "Feature",
      "id": "7034",
      "geometry": {
        "type": "Point",
        "coordinates": [
          33.128837,
          -37.028714
        ]
      },
      "properties": {
        "label": "Peripheral nerve injection",
        "level": 5,
        "pos": "16716588.051249448,-30720101.870600384",
        "src_id": "183185",
        "weight": "2.3002357022963762e-05"
      }
    },
    {
      "type": "Feature",
      "id": "5049",
      "geometry": {
        "type": "Point",
        "coordinates": [
          33.03367,
          -36.887863
        ]
      },
      "properties": {
        "label": "Glial scar",
        "level": 5,
        "pos": "16659841.206701888,-30563919.294590387",
        "src_id": "177383",
        "weight": "3.209005533993901e-05"
      }
    },
    {
      "type": "Feature",
      "id": "990",
      "geometry": {
        "type": "Point",
        "coordinates": [
          32.983282,
          -36.424684
        ]
      },
      "properties": {
        "label": "Etravirine",
        "level": 3,
        "pos": "16629795.71029426,-30052342.33059928",
        "src_id": "5590",
        "weight": "0.0002506527660860265"
      }
    },
    {
      "type": "Feature",
      "id": "4871",
      "geometry": {
        "type": "Point",
        "coordinates": [
          33.014433,
          -35.950986
        ]
      },
      "properties": {
        "label": "Dolutegravir",
        "level": 5,
        "pos": "16648370.819786698,-29532293.31465203",
        "src_id": "7884",
        "weight": "4.378570578141377e-05"
      }
    },
    {
      "type": "Feature",
      "id": "416",
      "geometry": {
        "type": "Point",
        "coordinates": [
          33.367615,
          -36.060036
        ]
      },
      "properties": {
        "label": "Dalfampridine",
        "level": 3,
        "pos": "16858967.59939047,-29651735.78061784",
        "src_id": "5714",
        "weight": "0.0002595885213081529"
      }
    },
    {
      "type": "Feature",
      "id": "308",
      "geometry": {
        "type": "Point",
        "coordinates": [
          33.677046,
          -36.36246
        ]
      },
      "properties": {
        "label": "Eculizumab",
        "level": 2,
        "pos": "17043476.18969619,-29983849.60877825",
        "src_id": "1241",
        "weight": "0.00038446616519720187"
      }
    },
    {
      "type": "Feature",
      "id": "208",
      "geometry": {
        "type": "Point",
        "coordinates": [
          30.406526,
          -25.291599
        ]
      },
      "properties": {
        "label": "Omalizumab",
        "level": 1,
        "pos": "15093318.296850974,-18530013.70671035",
        "src_id": "42",
        "weight": "0.00064804226923971"
      }
    },
    {
      "type": "Feature",
      "id": "694",
      "geometry": {
        "type": "Point",
        "coordinates": [
          29.195127,
          -27.003824
        ]
      },
      "properties": {
        "label": "Adalimumab",
        "level": 2,
        "pos": "14370980.259226054,-20220188.87687413",
        "src_id": "50",
        "weight": "0.00040065310237782725"
      }
    },
    {
      "type": "Feature",
      "id": "5",
      "geometry": {
        "type": "Point",
        "coordinates": [
          30.973588,
          -27.04004
        ]
      },
      "properties": {
        "label": "Dutasteride",
        "level": 1,
        "pos": "15431448.248135757,-20256210.439036664",
        "src_id": "1110",
        "weight": "0.001106923563389464"
      }
    },
    {
      "type": "Feature",
      "id": "1102",
      "geometry": {
        "type": "Point",
        "coordinates": [
          33.441833,
          -25.827083
        ]
      },
      "properties": {
        "label": "Omapatrilat",
        "level": 3,
        "pos": "16903222.367971852,-19055951.87092406",
        "src_id": "872",
        "weight": "0.00025283515184876585"
      }
    },
    {
      "type": "Feature",
      "id": "18",
      "geometry": {
        "type": "Point",
        "coordinates": [
          26.312892,
          -23.612451
        ]
      },
      "properties": {
        "label": "Tipifarnib",
        "level": 1,
        "pos": "12652350.13984196,-16895525.437407214",
        "src_id": "4671",
        "weight": "0.0009015215260815727"
      }
    },
    {
      "type": "Feature",
      "id": "3138",
      "geometry": {
        "type": "Point",
        "coordinates": [
          32.589133,
          -25.481676
        ]
      },
      "properties": {
        "label": "Pirfenidone",
        "level": 5,
        "pos": "16394771.195585003,-18716433.245251093",
        "src_id": "4662",
        "weight": "9.009354396841681e-05"
      }
    },
    {
      "type": "Feature",
      "id": "523",
      "geometry": {
        "type": "Point",
        "coordinates": [
          29.111573,
          -28.897404
        ]
      },
      "properties": {
        "label": "Atazanavir",
        "level": 2,
        "pos": "14321158.332511326,-22119692.317291714",
        "src_id": "1056",
        "weight": "0.0003809490300105128"
      }
    },
    {
      "type": "Feature",
      "id": "1756",
      "geometry": {
        "type": "Point",
        "coordinates": [
          34.829465,
          -27.734747
        ]
      },
      "properties": {
        "label": "Prilocaine",
        "level": 4,
        "pos": "17730644.715802155,-20949465.108077984",
        "src_id": "736",
        "weight": "0.00016327828205853266"
      }
    },
    {
      "type": "Feature",
      "id": "558",
      "geometry": {
        "type": "Point",
        "coordinates": [
          29.929539,
          -28.519158
        ]
      },
      "properties": {
        "label": "Alendronic acid",
        "level": 2,
        "pos": "14808898.18406171,-21737574.846546844",
        "src_id": "617",
        "weight": "0.0003859560282069588"
      }
    },
    {
      "type": "Feature",
      "id": "457",
      "geometry": {
        "type": "Point",
        "coordinates": [
          32.726517,
          -27.622124
        ]
      },
      "properties": {
        "label": "Telmisartan",
        "level": 3,
        "pos": "16476691.076462848,-20836780.825289834",
        "src_id": "952",
        "weight": "0.00026442207812866196"
      }
    },
    {
      "type": "Feature",
      "id": "4897",
      "geometry": {
        "type": "Point",
        "coordinates": [
          33.138893,
          -27.702667
        ]
      },
      "properties": {
        "label": "Abatacept",
        "level": 5,
        "pos": "16722584.143779669,-20917356.206611793",
        "src_id": "1264",
        "weight": "4.733181090985326e-05"
      }
    },
    {
      "type": "Feature",
      "id": "2115",
      "geometry": {
        "type": "Point",
        "coordinates": [
          35.225164,
          -27.185228
        ]
      },
      "properties": {
        "label": "Ebastine",
        "level": 4,
        "pos": "17966593.94556683,-20400736.631863408",
        "src_id": "9412",
        "weight": "0.00014451108764409969"
      }
    },
    {
      "type": "Feature",
      "id": "1961",
      "geometry": {
        "type": "Point",
        "coordinates": [
          34.899457,
          -27.142789
        ]
      },
      "properties": {
        "label": "Streptokinase",
        "level": 4,
        "pos": "17772380.32233493,-20358470.90047255",
        "src_id": "81",
        "weight": "0.0001613060311539931"
      }
    },
    {
      "type": "Feature",
      "id": "1744",
      "geometry": {
        "type": "Point",
        "coordinates": [
          36.64556,
          -26.481091
        ]
      },
      "properties": {
        "label": "Probucol",
        "level": 4,
        "pos": "18813553.148014106,-19701542.103115305",
        "src_id": "1531",
        "weight": "0.00017618808449468222"
      }
    },
    {
      "type": "Feature",
      "id": "10",
      "geometry": {
        "type": "Point",
        "coordinates": [
          30.238901,
          -23.662656
        ]
      },
      "properties": {
        "label": "Tegaserod",
        "level": 1,
        "pos": "14993366.279988065,-16944083.55043933",
        "src_id": "1063",
        "weight": "0.0009480343869626797"
      }
    },
    {
      "type": "Feature",
      "id": "1938",
      "geometry": {
        "type": "Point",
        "coordinates": [
          29.003489,
          -23.441102
        ]
      },
      "properties": {
        "label": "Dapoxetine",
        "level": 4,
        "pos": "14256709.588019537,-16729935.90092432",
        "src_id": "4606",
        "weight": "0.00015370545084014795"
      }
    },
    {
      "type": "Feature",
      "id": "1765",
      "geometry": {
        "type": "Point",
        "coordinates": [
          26.065174,
          -21.319799
        ]
      },
      "properties": {
        "label": "Basiliximab",
        "level": 4,
        "pos": "12504640.339427814,-14697084.713820191",
        "src_id": "72",
        "weight": "0.00018724241037868157"
      }
    },
    {
      "type": "Feature",
      "id": "1051",
      "geometry": {
        "type": "Point",
        "coordinates": [
          28.364864,
          -24.456852
        ]
      },
      "properties": {
        "label": "Travoprost",
        "level": 3,
        "pos": "13875908.04350482,-17714744.76524702",
        "src_id": "278",
        "weight": "0.0002616381937103423"
      }
    },
    {
      "type": "Feature",
      "id": "223",
      "geometry": {
        "type": "Point",
        "coordinates": [
          29.511136,
          -23.477967
        ]
      },