{
  "type": "FeatureCollection",
  "features": [
    {
      "type": "Feature",
      "id": "1",
      "geometry": {
        "type": "Point",
        "coordinates": [
          9.78454,
          -32.438645
        ]
      },
      "properties": {
        "label": "Insulin Aspart",
        "level": 3,
        "pos": "8456.23,3409.56",
        "weight": "107279.25"
      }
    },
    {
      "type": "Feature",
      "id": "109",
      "geometry": {
        "type": "Point",
        "coordinates": [
          9.324301,
          -32.490058
        ]
      },
      "properties": {
        "label": "Sorafenib",
        "level": 3,
        "pos": "7977.89,3324.75",
        "weight": "19286.5"
      }
    },
    {
      "type": "Feature",
      "id": "131",
      "geometry": {
        "type": "Point",
        "coordinates": [
          10.008684,
          -32.574091
        ]
      },
      "properties": {
        "label": "Insulin Detemir",
        "level": 5,
        "pos": "8689.19,3186.03",
        "weight": "636.0"
      }
    },
    {
      "type": "Feature",
      "id": "149",
      "geometry": {
        "type": "Point",
        "coordinates": [
          10.151969,
          -32.34858
        ]
      },
      "properties": {
        "label": "Mycophenolic acid",
        "level": 3,
        "pos": "8838.11,3558.01",
        "weight": "222200.75"
      }
    },
    {
      "type": "Feature",
      "id": "6",
      "geometry": {
        "type": "Point",
        "coordinates": [
          9.815059,
          -32.159593
        ]
      },
      "properties": {
        "label": "Insulin Glargine",
        "level": 3,
        "pos": "8487.95,3869.03",
        "weight": "279538.5"
      }
    },
    {
      "type": "Feature",
      "id": "33",
      "geometry": {
        "type": "Point",
        "coordinates": [
          8.998101,
          -32.400045
        ]
      },
      "properties": {
        "label": "Vorinostat",
        "level": 3,
        "pos": "7638.86,3473.20",
        "weight": "70777.5"
      }
    },
    {
      "type": "Feature",
      "id": "84",
      "geometry": {
        "type": "Point",
        "coordinates": [
          9.475841,
          -32.202636
        ]
      },
      "properties": {
        "label": "Pemetrexed",
        "level": 3,
        "pos": "8135.39,3798.25",
        "weight": "10311.0"
      }
    },
    {
      "type": "Feature",
      "id": "10",
      "geometry": {
        "type": "Point",
        "coordinates": [
          5.243712,
          -32.211822
        ]
      },
      "properties": {
        "label": "Fosamprenavir",
        "level": 4,
        "pos": "3736.81,3783.14",
        "weight": "24384.5"
      }
    },
    {
      "type": "Feature",
      "id": "48",
      "geometry": {
        "type": "Point",
        "coordinates": [
          5.238315,
          -32.191728
        ]
      },
      "properties": {
        "label": "Enfuvirtide",
        "level": 4,
        "pos": "3731.20,3816.19",
        "weight": "7722.0"
      }
    },
    {
      "type": "Feature",
      "id": "100",
      "geometry": {
        "type": "Point",
        "coordinates": [
          6.095944,
          -14.383535
        ]
      },
      "properties": {
        "label": "Alendronic acid",
        "level": 3,
        "pos": "4622.56,30949.69",
        "weight": "50319.0"
      }
    },
    {
      "type": "Feature",
      "id": "564",
      "geometry": {
        "type": "Point",
        "coordinates": [
          6.794759,
          -15.134673
        ]
      },
      "properties": {
        "label": "Tamsulosin",
        "level": 3,
        "pos": "5348.86,29868.60",
        "weight": "235.0"
      }
    },
    {
      "type": "Feature",
      "id": "1000",
      "geometry": {
        "type": "Point",
        "coordinates": [
          34.544644,
          -44.070416
        ]
      },
      "properties": {
        "label": "Promethazine",
        "level": 3,
        "pos": "34190.16,-17286.02",
        "weight": "91190.0"
      }
    },
    {
      "type": "Feature",
      "id": "1658",
      "geometry": {
        "type": "Point",
        "coordinates": [
          34.604836,
          -43.499455
        ]
      },
      "properties": {
        "label": "Diphenhydramine",
        "level": 3,
        "pos": "34252.72,-16185.30",
        "weight": "16895.5"
      }
    },
    {
      "type": "Feature",
      "id": "2881",
      "geometry": {
        "type": "Point",
        "coordinates": [
          33.131513,
          -42.636025
        ]
      },
      "properties": {
        "label": "Histamine",
        "level": 3,
        "pos": "32721.45,-14540.33",
        "weight": "12807.25"
      }
    },
    {
      "type": "Feature",
      "id": "8108",
      "geometry": {
        "type": "Point",
        "coordinates": [
          34.675719,
          -42.685866
        ]
      },
      "properties": {
        "label": "5alpha-androstane-3alpha,17beta-diol",
        "level": 5,
        "pos": "34326.39,-14634.66",
        "weight": "1104.0"
      }
    },
    {
      "type": "Feature",
      "id": "1001",
      "geometry": {
        "type": "Point",
        "coordinates": [
          8.660941,
          -21.727949
        ]
      },
      "properties": {
        "label": "Zidovudine",
        "level": 4,
        "pos": "7288.44,20189.58",
        "weight": "29794.25"
      }
    },
    {
      "type": "Feature",
      "id": "1364",
      "geometry": {
        "type": "Point",
        "coordinates": [
          7.980032,
          -22.41539
        ]
      },
      "properties": {
        "label": "Rifabutin",
        "level": 3,
        "pos": "6580.75,19157.15",
        "weight": "14891.0"
      }
    },
    {
      "type": "Feature",
      "id": "2037",
      "geometry": {
        "type": "Point",
        "coordinates": [
          7.775766,
          -21.544387
        ]
      },
      "properties": {
        "label": "Rifampicin",
        "level": 4,
        "pos": "6368.45,20464.42",
        "weight": "16283.5"
      }
    },
    {
      "type": "Feature",
      "id": "3127",
      "geometry": {
        "type": "Point",
        "coordinates": [
          8.585989,
          -20.339713
        ]
      },
      "properties": {
        "label": "Zalcitabine",
        "level": 3,
        "pos": "7210.54,22259.68",
        "weight": "46.5"
      }
    },
    {
      "type": "Feature",
      "id": "452",
      "geometry": {
        "type": "Point",
        "coordinates": [
          7.241489,
          -21.193303
        ]
      },
      "properties": {
        "label": "Didanosine",
        "level": 5,
        "pos": "5813.16,20989.12",
        "weight": "7002.0"
      }
    },
    {
      "type": "Feature",
      "id": "649",
      "geometry": {
        "type": "Point",
        "coordinates": [
          8.173935,
          -21.220224
        ]
      },
      "properties": {
        "label": "Delavirdine",
        "level": 3,
        "pos": "6782.28,20948.93",
        "weight": "15.0"
      }
    },
    {
      "type": "Feature",
      "id": "1002",
      "geometry": {
        "type": "Point",
        "coordinates": [
          2.620581,
          -29.321209
        ]
      },
      "properties": {
        "label": "Streptokinase",
        "level": 4,
        "pos": "1010.51,8466.01",
        "weight": "20185.5"
      }
    },
    {
      "type": "Feature",
      "id": "4052",
      "geometry": {
        "type": "Point",
        "coordinates": [
          3.805007,
          -29.328119
        ]
      },
      "properties": {
        "label": "Shrimp",
        "level": 4,
        "pos": "2241.52,8454.98",
        "weight": "280.0"
      }
    },
    {
      "type": "Feature",
      "id": "6045",
      "geometry": {
        "type": "Point",
        "coordinates": [
          4.748952,
          -28.996345
        ]
      },
      "properties": {
        "label": "Thuja",
        "level": 4,
        "pos": "3222.59,8983.76",
        "weight": "0.0"
      }
    },
    {
      "type": "Feature",
      "id": "5169",
      "geometry": {
        "type": "Point",
        "coordinates": [
          3.154685,
          -29.191707
        ]
      },
      "properties": {
        "label": "Ficus",
        "level": 5,
        "pos": "1565.62,8672.60",
        "weight": "598.0"
      }
    },
    {
      "type": "Feature",
      "id": "5170",
      "geometry": {
        "type": "Point",
        "coordinates": [
          2.859793,
          -29.402842
        ]
      },
      "properties": {
        "label": "Ferula",
        "level": 5,
        "pos": "1259.13,8335.65",
        "weight": "0.0"
      }
    },
    {
      "type": "Feature",
      "id": "6955",
      "geometry": {
        "type": "Point",
        "coordinates": [
          2.93285,
          -29.200758
        ]
      },
      "properties": {
        "label": "Aquilaria",
        "level": 7,
        "pos": "1335.06,8658.17",
        "weight": "0.0"
      }
    },
    {
      "type": "Feature",
      "id": "730",
      "geometry": {
        "type": "Point",
        "coordinates": [
          3.308207,
          -29.451523
        ]
      },
      "properties": {
        "label": "Carvedilol",
        "level": 5,
        "pos": "1725.18,8257.86",
        "weight": "2214.75"
      }
    },
    {
      "type": "Feature",
      "id": "1003",
      "geometry": {
        "type": "Point",
        "coordinates": [
          -30.050452,
          -20.456025
        ]
      },
      "properties": {
        "label": "Visual field defect",
        "level": 3,
        "pos": "-32945.49,22086.97",
        "weight": "66687.5"
      }
    },
    {
      "type": "Feature",
      "id": "3370",
      "geometry": {
        "type": "Point",
        "coordinates": [
          -31.158887,
          -21.520266
        ]
      },
      "properties": {
        "height": "0.23",
        "label": "Retinogram",
        "level": 1,
        "pos": "-34097.52,20500.51",
        "weight": "469.0",
        "width": "0.92"
      }
    },
    {
      "type": "Feature",
      "id": "8215",
      "geometry": {
        "type": "Point",
        "coordinates": [
          -28.023676,
          -20.604475
        ]
      },
      "properties": {
        "label": "Visual field tests",
        "level": 7,
        "pos": "-30839.00,21866.35",
        "weight": "0.0"
      }
    },
    {
      "type": "Feature",
      "id": "4398",
      "geometry": {
        "type": "Point",
        "coordinates": [
          -28.998689,
          -22.094774
        ]
      },
      "properties": {
        "height": "0.23",
        "label": "Retinal toxicity",
        "level": 1,
        "pos": "-31852.36,19639.29",
        "weight": "66.0",
        "width": "1.20"
      }
    },
    {
      "type": "Feature",
      "id": "6127",
      "geometry": {
        "type": "Point",
        "coordinates": [
          -34.293492,
          -21.79147
        ]
      },
      "properties": {
        "height": "0.23",
        "label": "Retinal injury",
        "level": 1,
        "pos": "-37355.41,20094.39",
        "weight": "0.0",
        "width": "1.07"
      }
    },
    {
      "type": "Feature",
      "id": "1004",
      "geometry": {
        "type": "Point",
        "coordinates": [
          -7.843232,
          -37.075079
        ]
      },
      "properties": {
        "label": "Sinus tachycardia",
        "level": 3,
        "pos": "-9864.85,-4448.86",
        "weight": "47365.25"
      }
    },
    {
      "type": "Feature",
      "id": "1930",
      "geometry": {
        "type": "Point",
        "coordinates": [
          -7.946972,
          -37.416804
        ]
      },
      "properties": {
        "label": "Sinus bradycardia",
        "level": 3,
        "pos": "-9972.67,-5046.32",
        "weight": "5546.75"
      }
    },
    {
      "type": "Feature",
      "id": "3020",
      "geometry": {
        "type": "Point",
        "coordinates": [
          -8.174724,
          -36.704299
        ]
      },
      "properties": {
        "label": "Electrocardiogram",
        "level": 3,
        "pos": "-10209.38,-3803.64",
        "weight": "10621.5"
      }
    },
    {
      "type": "Feature",
      "id": "436",
      "geometry": {
        "type": "Point",
        "coordinates": [
          -8.518879,
          -37.626492
        ]
      },
      "properties": {
        "label": "Atrioventricular block",
        "level": 3,
        "pos": "-10567.07,-5414.28",
        "weight": "73925.25"
      }
    },
    {
      "type": "Feature",
      "id": "7318",
      "geometry": {
        "type": "Point",
        "coordinates": [
          -8.12552,
          -37.703902
        ]
      },
      "properties": {
        "label": "Atrioventricular block second degree",
        "level": 6,
        "pos": "-10158.24,-5550.38",
        "weight": "12.0"
      }
    },
    {
      "type": "Feature",
      "id": "762",
      "geometry": {
        "type": "Point",
        "coordinates": [
          -7.453895,
          -37.037022
        ]
      },
      "properties": {
        "label": "Syncope",
        "level": 3,
        "pos": "-9460.20,-4382.49",
        "weight": "115615.25"
      }
    },
    {
      "type": "Feature",
      "id": "7932",
      "geometry": {
        "type": "Point",
        "coordinates": [
          -8.523545,
          -37.302224
        ]
      },
      "properties": {
        "label": "Atrioventricular block first degree",
        "level": 7,
        "pos": "-10571.92,-4845.69",
        "weight": "0.0"
      }
    },
    {
      "type": "Feature",
      "id": "1005",
      "geometry": {
        "type": "Point",
        "coordinates": [
          24.671961,
          -15.530117
        ]
      },
      "properties": {
        "label": "Sepsis",
        "level": 3,
        "pos": "23929.18,29297.92",
        "weight": "128206.5"
      }
    },
    {
      "type": "Feature",
      "id": "808",
      "geometry": {
        "type": "Point",
        "coordinates": [
          24.319359,
          -15.414225
        ]
      },
      "properties": {
        "label": "Intraventricular haemorrhage",
        "level": 3,
        "pos": "23562.71,29465.28",
        "weight": "62903.0"
      }
    },
    {
      "type": "Feature",
      "id": "813",
      "geometry": {
        "type": "Point",
        "coordinates": [
          22.903986,
          -14.962448
        ]
      },
      "properties": {
        "label": "Cerebral haemorrhage",
        "level": 3,
        "pos": "22091.67,30116.81",
        "weight": "143837.23333333334"
      }
    },
    {
      "type": "Feature",
      "id": "913",
      "geometry": {
        "type": "Point",
        "coordinates": [
          22.825897,
          -16.209094
        ]
      },
      "properties": {
        "label": "Haemorrhage intracranial",
        "level": 3,
        "pos": "22010.51,28315.49",
        "weight": "53397.08333333333"
      }
    },
    {
      "type": "Feature",
      "id": "1006",
      "geometry": {
        "type": "Point",
        "coordinates": [
          -0.339892,
          -32.598616
        ]
      },
      "properties": {
        "label": "Pharyngitis",
        "level": 5,
        "pos": "-2066.40,3145.52",
        "weight": "8088.0"
      }
    },
    {
      "type": "Feature",
      "id": "2057",
      "geometry": {
        "type": "Point",
        "coordinates": [
          -0.551365,
          -32.526729
        ]
      },
      "properties": {
        "label": "Rhinitis",
        "level": 3,
        "pos": "-2286.19,3264.23",
        "weight": "2365.25"
      }
    },
    {
      "type": "Feature",
      "id": "613",
      "geometry": {
        "type": "Point",
        "coordinates": [
          -0.783418,
          -32.733645
        ]
      },
      "properties": {
        "label": "Haemorrhagic stroke",
        "level": 3,
        "pos": "-2527.37,2922.28",
        "weight": "49386.583333333336"
      }
    },
    {
      "type": "Feature",
      "id": "5490",
      "geometry": {
        "type": "Point",
        "coordinates": [
          -0.749434,
          -32.096975
        ]
      },
      "properties": {
        "label": "Oral allergy syndrome",
        "level": 3,
        "pos": "-2492.05,3971.94",
        "weight": "0.0"
      }
    },
    {
      "type": "Feature",
      "id": "1007",
      "geometry": {
        "type": "Point",
        "coordinates": [
          8.851218,
          -36.634329
        ]
      },
      "properties": {
        "label": "Otitis media",
        "level": 3,
        "pos": "7486.20,-3682.23",
        "weight": "38812.5"
      }
    },
    {
      "type": "Feature",
      "id": "4432",
      "geometry": {
        "type": "Point",
        "coordinates": [
          9.270055,
          -36.372553
        ]
      },
      "properties": {
        "label": "Middle ear effusion",
        "level": 2,
        "pos": "7921.51,-3228.98",
        "weight": "0.0"
      }
    },
    {
      "type": "Feature",
      "id": "5501",
      "geometry": {
        "type": "Point",
        "coordinates": [
          8.430225,
          -36.432685
        ]
      },
      "properties": {
        "label": "Myringotomy",
        "level": 2,
        "pos": "7048.65,-3332.96",
        "weight": "0.0"
      }
    },
    {
      "type": "Feature",
      "id": "4476",
      "geometry": {
        "type": "Point",
        "coordinates": [
          9.523227,
          -36.709714
        ]
      },
      "properties": {
        "label": "Endolymphatic hydrops",
        "level": 3,
        "pos": "8184.64,-3813.04",
        "weight": "0.0"
      }
    },
    {
      "type": "Feature",
      "id": "4665",
      "geometry": {
        "type": "Point",
        "coordinates": [
          9.551986,
          -36.527392
        ]
      },
      "properties": {
        "label": "Cerebellopontine angle tumour",
        "level": 2,
        "pos": "8214.53,-3496.89",
        "weight": "0.0"
      }
    },
    {
      "type": "Feature",
      "id": "1008",
      "geometry": {
        "type": "Point",
        "coordinates": [
          32.727772,
          -32.436037
        ]
      },
      "properties": {
        "label": "Neuromuscular blockade",
        "level": 3,
        "pos": "32301.83,3413.86",
        "weight": "36698.0"
      }
    },
    {
      "type": "Feature",
      "id": "2171",
      "geometry": {
        "type": "Point",
        "coordinates": [
          32.900874,
          -32.2626
        ]
      },
      "properties": {
        "label": "Rocuronium",
        "level": 5,
        "pos": "32481.74,3699.59",
        "weight": "4895.5"
      }
    },
    {
      "type": "Feature",
      "id": "4072",
      "geometry": {
        "type": "Point",
        "coordinates": [
          32.19593,
          -33.0885
        ]
      },
      "properties": {
        "label": "Mivacurium",
        "level": 3,
        "pos": "31749.07,2333.99",
        "weight": "140.0"
      }
    },
    {
      "type": "Feature",
      "id": "7430",
      "geometry": {
        "type": "Point",
        "coordinates": [
          33.670187,
          -31.532573
        ]
      },
      "properties": {
        "label": "Sugammadex",
        "level": 6,
        "pos": "33281.31,4896.35",
        "weight": "0.0"
      }
    },
    {
      "type": "Feature",
      "id": "4325",
      "geometry": {
        "type": "Point",
        "coordinates": [
          31.594648,
          -34.097332
        ]
      },
      "properties": {
        "label": "Arteriospasm coronary",
        "level": 3,
        "pos": "31124.14,648.38",
        "weight": "1367.75"
      }
    },
    {
      "type": "Feature",
      "id": "1009",
      "geometry": {
        "type": "Point",
        "coordinates": [
          -11.738904,
          -45.717616
        ]
      },
      "properties": {
        "label": "Nervous system disorder",
        "level": 3,
        "pos": "-13913.74,-20522.49",
        "weight": "230687.75"
      }
    },
    {
      "type": "Feature",
      "id": "2364",
      "geometry": {
        "type": "Point",
        "coordinates": [
          -12.485461,
          -46.598817
        ]
      },
      "properties": {
        "label": "Drug resistance",
        "level": 3,
        "pos": "-14689.66,-22293.13",
        "weight": "35218.5"
      }
    },
    {
      "type": "Feature",
      "id": "7504",
      "geometry": {
        "type": "Point",
        "coordinates": [
          -10.579417,
          -44.948715
        ]
      },
      "properties": {
        "label": "Houttuynia",
        "level": 5,
        "pos": "-12708.65,-19000.18",
        "weight": "7286.5"
      }
    },
    {
      "type": "Feature",
      "id": "8300",
      "geometry": {
        "type": "Point",
        "coordinates": [
          -12.374159,
          -46.124679
        ]
      },
      "properties": {
        "label": "Reiter's syndrome",
        "level": 7,
        "pos": "-14573.98,-21336.90",
        "weight": "0.0"
      }
    },
    {
      "type": "Feature",
      "id": "8410",
      "geometry": {
        "type": "Point",
        "coordinates": [
          -11.245509,
          -45.427736
        ]
      },
      "properties": {
        "label": "Methylenetetrahydrofolate reductase polymorphism",
        "level": 7,
        "pos": "-13400.94,-19946.14",
        "weight": "0.0"
      }
    },
    {
      "type": "Feature",
      "id": "3294",
      "geometry": {
        "type": "Point",
        "coordinates": [
          -13.72118,
          -46.165087
        ]
      },
      "properties": {
        "label": "Hippocampal sclerosis",
        "level": 2,
        "pos": "-15973.98,-21418.07",
        "weight": "22.0"
      }
    },
    {
      "type": "Feature",
      "id": "8702",
      "geometry": {
        "type": "Point",
        "coordinates": [
          -13.155191,
          -46.952122
        ]
      },
      "properties": {
        "label": "Pyronaridine",
        "level": 7,
        "pos": "-15385.73,-23011.12",
        "weight": "0.0"
      }
    },
    {
      "type": "Feature",
      "id": "8796",
      "geometry": {
        "type": "Point",
        "coordinates": [
          -11.545616,
          -46.392166
        ]
      },
      "properties": {
        "label": "SEBACIC ACID",
        "level": 7,
        "pos": "-13712.85,-21875.34",
        "weight": "0.0"
      }
    },
    {
      "type": "Feature",
      "id": "965",
      "geometry": {
        "type": "Point",
        "coordinates": [
          -11.305817,
          -46.593614
        ]
      },
      "properties": {
        "label": "Probenecid",
        "level": 3,
        "pos": "-13463.62,-22282.59",
        "weight": "43310.08333333333"
      }
    },
    {
      "type": "Feature",
      "id": "101",
      "geometry": {
        "type": "Point",
        "coordinates": [
          8.129869,
          -31.067672
        ]
      },
      "properties": {
        "label": "Pimecrolimus",
        "level": 5,
        "pos": "6736.48,5653.60",
        "weight": "5451.5"
      }
    },
    {
      "type": "Feature",
      "id": "185",
      "geometry": {
        "type": "Point",
        "coordinates": [
          8.020442,
          -31.292688
        ]
      },
      "properties": {
        "label": "Darbepoetin alfa",
        "level": 3,
        "pos": "6622.75,5287.55",
        "weight": "306.5"
      }
    },
    {
      "type": "Feature",
      "id": "247",
      "geometry": {
        "type": "Point",
        "coordinates": [
          8.474504,
          -31.014199
        ]
      },
      "properties": {
        "label": "Efalizumab",
        "level": 3,
        "pos": "7094.67,5740.46",
        "weight": "440.0"
      }
    },
    {
      "type": "Feature",
      "id": "211",
      "geometry": {
        "type": "Point",
        "coordinates": [
          7.339648,
          -31.393101
        ]
      },
      "properties": {
        "label": "Ximelagatran",
        "level": 3,
        "pos": "5915.18,5123.92",
        "weight": "2094.25"
      }
    },
    {
      "type": "Feature",
      "id": "248",
      "geometry": {
        "type": "Point",
        "coordinates": [
          8.37698,
          -31.242869
        ]
      },
      "properties": {
        "label": "Alefacept",
        "level": 5,
        "pos": "6993.31,5368.67",
        "weight": "8029.0"
      }
    },
    {
      "type": "Feature",
      "id": "71",
      "geometry": {
        "type": "Point",
        "coordinates": [
          6.950754,
          -31.649813
        ]
      },
      "properties": {
        "label": "Imatinib",
        "level": 3,
        "pos": "5510.99,4704.79",
        "weight": "21504.5"
      }
    },
    {
      "type": "Feature",
      "id": "1010",
      "geometry": {
        "type": "Point",
        "coordinates": [
          -16.761532,
          -58.205537
        ]
      },
      "properties": {
        "height": "0.23",
        "label": "Irritability",
        "level": 1,
        "pos": "-19133.91,-48970.73",
        "weight": "83216.58333333334",
        "width": "0.80"
      }
    },
    {
      "type": "Feature",
      "id": "1261",
      "geometry": {
        "type": "Point",
        "coordinates": [
          -15.073089,
          -58.572985
        ]
      },
      "properties": {
        "label": "Decreased appetite",
        "level": 3,
        "pos": "-17379.06,-49946.43",
        "weight": "185897.5"
      }
    },
    {
      "type": "Feature",
      "id": "1890",
      "geometry": {
        "type": "Point",
        "coordinates": [
          -14.044936,
          -56.989533
        ]
      },
      "properties": {
        "height": "0.23",
        "label": "Ataxia",
        "level": 1,
        "pos": "-16310.47,-45812.11",
        "weight": "4802.0",
        "width": "0.52"
      }
    },
    {
      "type": "Feature",
      "id": "212",
      "geometry": {
        "type": "Point",
        "coordinates": [
          -19.805915,
          -59.491725
        ]
      },
      "properties": {
        "height": "0.23",
        "label": "Restlessness",
        "level": 1,
        "pos": "-22298.03,-52431.62",
        "weight": "560769.6666666666",
        "width": "0.97"
      }
    },
    {
      "type": "Feature",
      "id": "8253",
      "geometry": {
        "type": "Point",
        "coordinates": [
          -17.917709,
          -57.911158
        ]
      },
      "properties": {
        "label": "Tearfulness",
        "level": 7,
        "pos": "-20335.56,-48196.31",
        "weight": "0.0"
      }
    },
    {
      "type": "Feature",
      "id": "7499",
      "geometry": {
        "type": "Point",
        "coordinates": [
          -20.191971,
          -59.974748
        ]
      },
      "properties": {
        "label": "Kaempferia",
        "level": 5,
        "pos": "-22699.27,-53765.42",
        "weight": "798.0"
      }
    },
    {
      "type": "Feature",
      "id": "1011",
      "geometry": {
        "type": "Point",
        "coordinates": [
          13.293818,
          -48.606634
        ]
      },
      "properties": {
        "label": "Infertility",
        "level": 4,
        "pos": "12103.53,-26438.23",
        "weight": "14838.25"
      }
    },
    {
      "type": "Feature",
      "id": "3088",
      "geometry": {
        "type": "Point",
        "coordinates": [
          12.639926,
          -48.158221
        ]
      },
      "properties": {
        "label": "Hyperandrogenism",
        "level": 3,
        "pos": "11423.92,-25498.55",
        "weight": "5635.25"
      }
    },
    {
      "type": "Feature",
      "id": "1012",
      "geometry": {
        "type": "Point",
        "coordinates": [
          -9.725694,
          -36.19999
        ]
      },
      "properties": {
        "label": "Hypoproteinaemia",
        "level": 3,
        "pos": "-11821.35,-2931.03",
        "weight": "26693.25"
      }
    },
    {
      "type": "Feature",
      "id": "1140",
      "geometry": {
        "type": "Point",
        "coordinates": [
          -10.205118,
          -36.227242
        ]
      },
      "properties": {
        "label": "Hyperuricaemia",
        "level": 3,
        "pos": "-12319.63,-2978.04",
        "weight": "13739.166666666668"
      }
    },
    {
      "type": "Feature",
      "id": "4970",
      "geometry": {
        "type": "Point",
        "coordinates": [
          -9.489677,
          -36.209156
        ]
      },
      "properties": {
        "label": "Ulcerative keratitis",
        "level": 5,
        "pos": "-11576.05,-2946.84",
        "weight": "0.0"
      }
    },
    {
      "type": "Feature",
      "id": "509",
      "geometry": {
        "type": "Point",
        "coordinates": [
          -9.080288,
          -36.149281
        ]
      },
      "properties": {
        "label": "Hypoalbuminaemia",
        "level": 3,
        "pos": "-11150.56,-2843.60",
        "weight": "141186.75"
      }
    },
    {
      "type": "Feature",
      "id": "2135",
      "geometry": {
        "type": "Point",
        "coordinates": [
          -10.76646,
          -36.384082
        ]
      },
      "properties": {
        "label": "Gout",
        "level": 3,
        "pos": "-12903.05,-3248.91",
        "weight": "10179.0"
      }
    },
    {
      "type": "Feature",
      "id": "644",
      "geometry": {
        "type": "Point",
        "coordinates": [
          -8.486608,
          -36.144842
        ]
      },
      "properties": {
        "label": "Anaemia",
        "level": 3,
        "pos": "-10533.53,-2835.95",
        "weight": "290705.1666666666"
      }
    },
    {
      "type": "Feature",
      "id": "1013",
      "geometry": {
        "type": "Point",
        "coordinates": [
          29.245954,
          -6.817117
        ]
      },
      "properties": {
        "label": "Glomerulonephritis",
        "level": 4,
        "pos": "28683.07,41671.58",
        "weight": "12951.25"
      }
    },
    {
      "type": "Feature",
      "id": "2001",
      "geometry": {
        "type": "Point",
        "coordinates": [
          26.166654,
          -5.796645
        ]
      },
      "properties": {
        "label": "Lupus nephritis",
        "level": 4,
        "pos": "25482.66,43100.51",
        "weight": "1597.75"
      }
    },
    {
      "type": "Feature",
      "id": "4829",
      "geometry": {
        "type": "Point",
        "coordinates": [
          29.242374,
          -8.462424
        ]
      },
      "properties": {
        "label": "Goodpasture's syndrome",
        "level": 6,
        "pos": "28679.35,39361.10",
        "weight": "10.0"
      }
    },
    {
      "type": "Feature",
      "id": "5065",
      "geometry": {
        "type": "Point",
        "coordinates": [
          31.650569,
          -8.127383
        ]
      },
      "properties": {
        "label": "Glomerulonephritis acute",
        "level": 4,
        "pos": "31182.26,39832.33",
        "weight": "0.0"
      }
    },
    {
      "type": "Feature",
      "id": "944",
      "geometry": {
        "type": "Point",
        "coordinates": [
          28.688527,
          -5.483712
        ]
      },
      "properties": {
        "label": "Nephrotic syndrome",
        "level": 4,
        "pos": "28103.72,43538.16",
        "weight": "19985.25"
      }
    },
    {
      "type": "Feature",
      "id": "989",
      "geometry": {
        "type": "Point",
        "coordinates": [
          30.683668,
          -6.355103
        ]
      },
      "properties": {
        "label": "Biopsy kidney",
        "level": 4,
        "pos": "30177.33,42318.87",
        "weight": "22694.75"
      }
    },
    {
      "type": "Feature",
      "id": "3082",
      "geometry": {
        "type": "Point",
        "coordinates": [
          23.663571,
          -4.840696
        ]
      },
      "properties": {
        "height": "0.23",
        "label": "Neuropsychiatric lupus",
        "level": 1,
        "pos": "22881.13,44436.74",
        "weight": "182.0",
        "width": "1.81"
      }
    },
    {
      "type": "Feature",
      "id": "7329",
      "geometry": {
        "type": "Point",
        "coordinates": [
          29.261858,
          -9.224902
        ]
      },
      "properties": {
        "label": "Anti-glomerular basement membrane antibody",
        "level": 7,
        "pos": "28699.60,38287.13",
        "weight": "0.0"
      }
    },
    {
      "type": "Feature",
      "id": "6668",
      "geometry": {
        "type": "Point",
        "coordinates": [
          31.447486,
          -9.037931
        ]
      },
      "properties": {
        "label": "Hepatorenal failure",
        "level": 7,
        "pos": "30971.19,38550.69",
        "weight": "0.0"
      }
    },
    {
      "type": "Feature",
      "id": "1014",
      "geometry": {
        "type": "Point",
        "coordinates": [
          1.361819,
          -8.136132
        ]
      },
      "properties": {
        "label": "Gastritis",
        "level": 3,
        "pos": "-297.76,39820.03",
        "weight": "66515.25"
      }
    },
    {
      "type": "Feature",
      "id": "1019",
      "geometry": {
        "type": "Point",
        "coordinates": [
          2.64172,
          -8.140265
        ]
      },
      "properties": {
        "label": "Dyspepsia",
        "level": 4,
        "pos": "1032.48,39814.22",
        "weight": "10759.833333333332"
      }
    },
    {
      "type": "Feature",
      "id": "1531",
      "geometry": {
        "type": "Point",
        "coordinates": [
          3.73121,
          -8.708079
        ]
      },
      "properties": {
        "label": "Peptic ulcer",
        "level": 3,
        "pos": "2164.82,39015.33",
        "weight": "3003.75"
      }
    },
    {
      "type": "Feature",
      "id": "6234",
      "geometry": {
        "type": "Point",
        "coordinates": [
          -0.783745,
          -8.640644
        ]
      },
      "properties": {
        "label": "Hospice care",
        "level": 3,
        "pos": "-2527.71,39110.27",
        "weight": "0.0"
      }
    },
    {
      "type": "Feature",
      "id": "8381",
      "geometry": {
        "type": "Point",
        "coordinates": [
          0.679043,
          -8.805758
        ]
      },
      "properties": {
        "label": "Occult blood",
        "level": 7,
        "pos": "-1007.39,38877.78",
        "weight": "0.0"
      }
    },
    {
      "type": "Feature",
      "id": "5416",
      "geometry": {
        "type": "Point",
        "coordinates": [
          5.457042,
          -10.673489
        ]
      },
      "properties": {
        "label": "Pentagastrin",
        "level": 3,
        "pos": "3958.53,36240.19",
        "weight": "0.0"
      }
    },
    {
      "type": "Feature",
      "id": "827",
      "geometry": {
        "type": "Point",
        "coordinates": [
          -2.163335,
          -8.660683
        ]
      },
      "properties": {
        "label": "Palliative care",
        "level": 3,
        "pos": "-3961.56,39082.06",
        "weight": "63161.583333333336"
      }
    },
    {
      "type": "Feature",
      "id": "1015",
      "geometry": {
        "type": "Point",
        "coordinates": [
          5.085861,
          -20.787828
        ]
      },
      "properties": {
        "label": "Extravasation",
        "level": 3,
        "pos": "3572.75,21593.56",
        "weight": "100409.0"
      }
    },
    {
      "type": "Feature",
      "id": "2301",
      "geometry": {
        "type": "Point",
        "coordinates": [
          4.800446,
          -20.507409
        ]
      },
      "properties": {
        "label": "Horseradish",
        "level": 3,
        "pos": "3276.11,22010.63",
        "weight": "21348.5"
      }
    },
    {
      "type": "Feature",
      "id": "292",
      "geometry": {
        "type": "Point",
        "coordinates": [
          5.250111,
          -20.656615
        ]
      },
      "properties": {
        "label": "Blood pressure increased",
        "level": 3,
        "pos": "3743.46,21788.81",
        "weight": "268510.4166666666"
      }
    },
    {
      "type": "Feature",
      "id": "929",
      "geometry": {
        "type": "Point",
        "coordinates": [
          4.362751,
          -20.827019
        ]
      },
      "properties": {
        "label": "Fluorescein",
        "level": 3,
        "pos": "2821.20,21535.21",
        "weight": "54542.0"
      }
    },
    {
      "type": "Feature",
      "id": "771",
      "geometry": {
        "type": "Point",
        "coordinates": [
          4.989799,
          -20.345089
        ]
      },
      "properties": {
        "label": "Brain oedema",
        "level": 3,
        "pos": "3472.91,22251.70",
        "weight": "285920.1666666666"
      }
    },
    {
      "type": "Feature",
      "id": "1016",
      "geometry": {
        "type": "Point",
        "coordinates": [
          -7.088208,
          -67.322267
        ]
      },
      "properties": {
        "label": "Extrapyramidal disorder",
        "level": 3,
        "pos": "-9080.13,-76949.64",
        "weight": "69429.05"
      }
    },
    {
      "type": "Feature",
      "id": "1372",
      "geometry": {
        "type": "Point",
        "coordinates": [
          -5.758756,
          -66.597143
        ]
      },
      "properties": {
        "label": "Tardive dyskinesia",
        "level": 3,
        "pos": "-7698.39,-74370.84",
        "weight": "22688.5"
      }
    },
    {
      "type": "Feature",
      "id": "830",
      "geometry": {
        "type": "Point",
        "coordinates": [
          -7.527163,
          -67.769122
        ]
      },
      "properties": {
        "label": "Neuroleptic malignant syndrome",
        "level": 3,
        "pos": "-9536.35,-78577.98",
        "weight": "62330.5"
      }
    },
    {
      "type": "Feature",
      "id": "1771",
      "geometry": {
        "type": "Point",
        "coordinates": [
          -5.296583,
          -67.103436
        ]
      },
      "properties": {
        "label": "Sarizotan",
        "level": 4,
        "pos": "-7218.04,-76163.28",
        "weight": "22750.0"
      }
    },
    {
      "type": "Feature",
      "id": "2021",
      "geometry": {
        "type": "Point",
        "coordinates": [
          -2.864556,
          -66.845016
        ]
      },
      "properties": {
        "label": "Akathisia",
        "level": 3,
        "pos": "-4690.36,-75243.76",
        "weight": "4578.25"
      }
    },
    {
      "type": "Feature",
      "id": "2953",
      "geometry": {
        "type": "Point",
        "coordinates": [
          -4.232177,
          -66.128379
        ]
      },
      "properties": {
        "label": "Sertindole",
        "level": 5,
        "pos": "-6111.77,-72743.60",
        "weight": "2785.25"
      }
    },
    {
      "type": "Feature",
      "id": "454",
      "geometry": {
        "type": "Point",
        "coordinates": [
          -6.43979,
          -65.496256
        ]
      },
      "properties": {
        "label": "Vitamin E",
        "level": 3,
        "pos": "-8406.21,-70596.27",
        "weight": "167348.6666666667"
      }
    },
    {
      "type": "Feature",
      "id": "7616",
      "geometry": {
        "type": "Point",
        "coordinates": [
          -7.302172,
          -66.125692
        ]
      },
      "properties": {
        "label": "Respiratory dyskinesia",
        "level": 5,
        "pos": "-9302.51,-72734.36",
        "weight": "277.0"
      }
    },
    {
      "type": "Feature",
      "id": "1017",
      "geometry": {
        "type": "Point",
        "coordinates": [
          -40.199736,
          -43.060444
        ]
      },
      "properties": {
        "label": "Epidural analgesia",
        "level": 4,
        "pos": "-43493.95,-15346.02",
        "weight": "16176.0"
      }
    },
    {
      "type": "Feature",
      "id": "1724",
      "geometry": {
        "type": "Point",
        "coordinates": [
          -39.518375,
          -42.245689
        ]
      },
      "properties": {
        "label": "Bupivacaine",
        "level": 3,
        "pos": "-42785.79,-13804.18",
        "weight": "8995.5"
      }
    },
    {
      "type": "Feature",
      "id": "6744",
      "geometry": {
        "type": "Point",
        "coordinates": [
          -40.192761,
          -43.656707
        ]
      },
      "properties": {
        "label": "Catheter site infection",
        "level": 7,
        "pos": "-43486.70,-16487.41",
        "weight": "0.0"
      }
    },
    {
      "type": "Feature",
      "id": "2106",
      "geometry": {
        "type": "Point",
        "coordinates": [
          -41.788625,
          -41.985946
        ]
      },
      "properties": {
        "height": "0.23",
        "label": "Fentanyl",
        "level": 1,
        "pos": "-45145.33,-13316.84",
        "weight": "1053.75",
        "width": "0.68"
      }
    },
    {
      "type": "Feature",
      "id": "4920",
      "geometry": {
        "type": "Point",
        "coordinates": [
          -38.164705,
          -43.527598
        ]
      },
      "properties": {
        "label": "Etidocaine",
        "level": 3,
        "pos": "-41378.88,-16239.31",
        "weight": "12.0"
      }
    },
    {
      "type": "Feature",
      "id": "369",
      "geometry": {
        "type": "Point",
        "coordinates": [
          -38.491954,
          -41.169475
        ]
      },
      "properties": {
        "label": "Spinal anaesthesia",
        "level": 3,
        "pos": "-41719.00,-11797.75",
        "weight": "202065.5"
      }
    },
    {
      "type": "Feature",
      "id": "1018",
      "geometry": {
        "type": "Point",
        "coordinates": [
          4.931098,
          -43.745704
        ]
      },
      "properties": {
        "label": "Dysphoria",
        "level": 3,
        "pos": "3411.90,-16658.74",
        "weight": "62213.75"
      }
    },
    {
      "type": "Feature",
      "id": "578",
      "geometry": {
        "type": "Point",
        "coordinates": [
          4.147064,
          -43.450688
        ]
      },
      "properties": {
        "label": "Affect lability",
        "level": 3,
        "pos": "2597.03,-16091.77",
        "weight": "100087.75"
      }
    },
    {
      "type": "Feature",
      "id": "102",
      "geometry": {
        "type": "Point",
        "coordinates": [
          42.652306,
          -13.426816
        ]
      },
      "properties": {
        "label": "Back pain",
        "level": 2,
        "pos": "42616.70,32321.44",
        "weight": "436336.9166666666"
      }
    },
    {
      "type": "Feature",
      "id": "797",
      "geometry": {
        "type": "Point",
        "coordinates": [
          40.905672,
          -13.290861
        ]
      },
      "properties": {
        "label": "Arthritis",
        "level": 2,
        "pos": "40801.37,32515.92",
        "weight": "67210.25"
      }
    },
    {
      "type": "Feature",
      "id": "8442",
      "geometry": {
        "type": "Point",
        "coordinates": [
          41.105445,
          -14.164185
        ]
      },
      "properties": {
        "label": "Joint stiffness",
        "level": 7,
        "pos": "41009.00,31264.70",
        "weight": "0.0"
      }
    },
    {
      "type": "Feature",
      "id": "1020",
      "geometry": {
        "type": "Point",
        "coordinates": [
          0.833402,
          -47.430627
        ]
      },
      "properties": {
        "label": "Delirium tremens",
        "level": 3,
        "pos": "-846.96,-23991.14",
        "weight": "25990.5"
      }
    },
    {
      "type": "Feature",
      "id": "1767",
      "geometry": {
        "type": "Point",
        "coordinates": [
          1.102498,
          -47.266945
        ]
      },
      "properties": {
        "label": "Alcohol poisoning",
        "level": 3,
        "pos": "-567.28,-23654.91",
        "weight": "35623.0"
      }
    },
    {
      "type": "Feature",
      "id": "2156",
      "geometry": {
        "type": "Point",
        "coordinates": [
          0.782956,
          -46.920655
        ]
      },
      "properties": {
        "label": "Paraldehyde",
        "level": 4,
        "pos": "-899.39,-22946.98",
        "weight": "20522.25"
      }
    },
    {
      "type": "Feature",
      "id": "2783",
      "geometry": {
        "type": "Point",
        "coordinates": [
          0.789066,
          -48.151491
        ]
      },
      "properties": {
        "label": "Alcoholic",
        "level": 3,
        "pos": "-893.04,-25484.51",
        "weight": "14011.0"
      }
    },
    {
      "type": "Feature",
      "id": "986",
      "geometry": {
        "type": "Point",
        "coordinates": [
          2.629587,
          -47.389368
        ]
      },
      "properties": {
        "label": "Drug withdrawal convulsions",
        "level": 3,
        "pos": "1019.87,-23906.29",
        "weight": "58424.5"
      }
    },
    {
      "type": "Feature",
      "id": "7485",
      "geometry": {
        "type": "Point",
        "coordinates": [
          -0.448673,
          -47.863713
        ]
      },
      "properties": {
        "label": "Terminalia",
        "level": 5,
        "pos": "-2179.46,-24885.85",
        "weight": "741.0"
      }
    },
    {
      "type": "Feature",
      "id": "7530",
      "geometry": {
        "type": "Point",
        "coordinates": [
          1.549719,
          -48.093508
        ]
      },
      "properties": {
        "label": "Chasteberry",
        "level": 5,
        "pos": "-102.47,-25363.62",
        "weight": "730.5"
      }
    },
    {
      "type": "Feature",
      "id": "1021",
      "geometry": {
        "type": "Point",
        "coordinates": [
          7.39681,
          -28.69424
        ]
      },
      "properties": {
        "label": "Contraceptive diaphragm",
        "level": 3,
        "pos": "5974.59,9463.78",
        "weight": "35277.5"
      }
    },
    {
      "type": "Feature",
      "id": "2687",
      "geometry": {
        "type": "Point",
        "coordinates": [
          7.231752,
          -28.76635
        ]
      },
      "properties": {
        "label": "Blood cholinesterase",
        "level": 3,
        "pos": "5803.04,9349.33",
        "weight": "24845.25"
      }
    },
    {
      "type": "Feature",
      "id": "6859",
      "geometry": {
        "type": "Point",
        "coordinates": [
          7.260444,
          -28.646259
        ]
      },
      "properties": {
        "label": "Hydroxydione",
        "level": 5,
        "pos": "5832.86,9539.89",
        "weight": "756.0"
      }
    },
    {
      "type": "Feature",
      "id": "3940",
      "geometry": {
        "type": "Point",
        "coordinates": [
          6.98366,
          -28.787649
        ]
      },
      "properties": {
        "label": "Huperzine A",
        "level": 3,
        "pos": "5545.19,9315.51",
        "weight": "9.0"
      }
    },
    {
      "type": "Feature",
      "id": "528",
      "geometry": {
        "type": "Point",
        "coordinates": [
          7.53513,
          -28.748234
        ]
      },
      "properties": {
        "label": "Blood cholesterol",
        "level": 3,
        "pos": "6118.35,9378.09",
        "weight": "138408.25"
      }
    },
    {
      "type": "Feature",
      "id": "6925",
      "geometry": {
        "type": "Point",
        "coordinates": [
          6.945077,
          -28.882006
        ]
      },
      "properties": {
        "label": "Zizyphus",
        "level": 5,
        "pos": "5505.09,9165.60",
        "weight": "2286.5"
      }
    },
    {
      "type": "Feature",
      "id": "8170",
      "geometry": {
        "type": "Point",
        "coordinates": [
          7.183644,
          -28.867012
        ]
      },
      "properties": {
        "label": "Galium",
        "level": 7,
        "pos": "5753.04,9189.43",
        "weight": "0.0"
      }
    },
    {
      "type": "Feature",
      "id": "1022",
      "geometry": {
        "type": "Point",
        "coordinates": [
          8.695319,
          -26.082318
        ]
      },
      "properties": {
        "label": "Blood insulin",
        "level": 3,
        "pos": "7324.17,13558.43",
        "weight": "69607.75"
      }
    },
    {
      "type": "Feature",
      "id": "106",
      "geometry": {
        "type": "Point",
        "coordinates": [
          8.377249,
          -26.237503
        ]
      },
      "properties": {
        "label": "Insulin Human",
        "level": 4,
        "pos": "6993.59,13317.80",
        "weight": "4095.5"
      }
    },
    {
      "type": "Feature",
      "id": "2834",
      "geometry": {
        "type": "Point",
        "coordinates": [
          9.237139,
          -26.212237
        ]
      },
      "properties": {
        "label": "Neonatal diabetes mellitus",
        "level": 3,
        "pos": "7887.30,13357.00",
        "weight": "449.0"
      }
    },
    {
      "type": "Feature",
      "id": "7911",
      "geometry": {
        "type": "Point",
        "coordinates": [
          8.243047,
          -26.023771
        ]
      },
      "properties": {
        "label": "Blood insulin increased",
        "level": 4,
        "pos": "6854.11,13649.13",
        "weight": "12441.5"
      }
    },
    {
      "type": "Feature",
      "id": "138",
      "geometry": {
        "type": "Point",
        "coordinates": [
          7.648636,
          -26.112755
        ]
      },
      "properties": {
        "label": "Fondaparinux sodium",
        "level": 5,
        "pos": "6236.32,13511.26",
        "weight": "275.0"
      }
    },
    {
      "type": "Feature",
      "id": "92",
      "geometry": {
        "type": "Point",
        "coordinates": [
          8.825961,
          -26.289945
        ]
      },
      "properties": {
        "label": "Ivabradine",
        "level": 4,
        "pos": "7459.95,13236.41",
        "weight": "18998.25"
      }
    },
    {
      "type": "Feature",
      "id": "5015",
      "geometry": {
        "type": "Point",
        "coordinates": [
          9.661489,
          -26.317623
        ]
      },
      "properties": {
        "label": "Pancreatic enzymes",
        "level": 3,
        "pos": "8328.34,13193.44",
        "weight": "0.0"
      }
    },
    {
      "type": "Feature",
      "id": "1023",
      "geometry": {
        "type": "Point",
        "coordinates": [
          -25.770062,
          -44.892969
        ]
      },
      "properties": {
        "label": "Atonic seizures",
        "level": 3,
        "pos": "-28496.75,-18890.61",
        "weight": "67662.75"
      }
    },
    {
      "type": "Feature",
      "id": "1603",
      "geometry": {
        "type": "Point",
        "coordinates": [
          -24.149086,
          -44.398444
        ]
      },
      "properties": {
        "label": "Cannabidiol",
        "level": 3,
        "pos": "-26812.02,-17923.21",
        "weight": "1970.0"
      }
    },
    {
      "type": "Feature",
      "id": "7591",
      "geometry": {
        "type": "Point",
        "coordinates": [
          -26.910585,
          -44.686042
        ]
      },
      "properties": {
        "label": "Skin erosion",
        "level": 5,
        "pos": "-29682.13,-18484.81",
        "weight": "144.0"
      }
    },
    {
      "type": "Feature",
      "id": "2592",
      "geometry": {
        "type": "Point",
        "coordinates": [
          -22.968691,
          -45.034823
        ]
      },
      "properties": {
        "label": "Lennox-Gastaut syndrome",
        "level": 3,
        "pos": "-25585.20,-19169.64",
        "weight": "7.0"
      }
    },
    {
      "type": "Feature",
      "id": "3413",
      "geometry": {
        "type": "Point",
        "coordinates": [
          -25.236892,
          -44.135813
        ]
      },
      "properties": {
        "label": "Blood cannabinoids",
        "level": 3,
        "pos": "-27942.61,-17412.77",
        "weight": "53.0"
      }
    },
    {
      "type": "Feature",
      "id": "1024",
      "geometry": {
        "type": "Point",
        "coordinates": [
          11.999427,
          -17.784053
        ]
      },
      "properties": {
        "label": "Abortion spontaneous",
        "level": 3,
        "pos": "10758.23,26023.31",
        "weight": "44717.0"
      }
    },
    {
      "type": "Feature",
      "id": "2427",
      "geometry": {
        "type": "Point",
        "coordinates": [
          12.65863,
          -18.165651
        ]
      },
      "properties": {
        "label": "Stillbirth",
        "level": 3,
        "pos": "11443.36,25464.96",
        "weight": "1642.0"
      }
    },
    {
      "type": "Feature",
      "id": "8884",
      "geometry": {
        "type": "Point",
        "coordinates": [
          11.784741,
          -18.20067
        ]
      },
      "properties": {
        "label": "Floxuridine",
        "level": 6,
        "pos": "10535.10,25413.66",
        "weight": "0.0"
      }
    },
    {
      "type": "Feature",
      "id": "2826",
      "geometry": {
        "type": "Point",
        "coordinates": [
          13.191974,
          -17.533415
        ]
      },
      "properties": {
        "label": "Premature labour",
        "level": 5,
        "pos": "11997.68,26389.39",
        "weight": "368.75"
      }
    },
    {
      "type": "Feature",
      "id": "1025",
      "geometry": {
        "type": "Point",
        "coordinates": [
          4.567065,
          -30.8333
        ]
      },
      "properties": {
        "label": "Apixaban",
        "level": 3,
        "pos": "3033.55,6033.95",
        "weight": "739.5"
      }
    },
    {
      "type": "Feature",
      "id": "5195",
      "geometry": {
        "type": "Point",
        "coordinates": [
          4.135701,
          -30.655198
        ]
      },
      "properties": {
        "label": "Thrombotic stroke",
        "level": 5,
        "pos": "2585.22,6322.36",
        "weight": "2194.75"
      }
    },
    {
      "type": "Feature",
      "id": "687",
      "geometry": {
        "type": "Point",
        "coordinates": [
          5.19267,
          -31.366865
        ]
      },
      "properties": {
        "label": "Rivaroxaban",
        "level": 3,
        "pos": "3683.76,5166.69",
        "weight": "22548.75"
      }
    },
    {
      "type": "Feature",
      "id": "839",
      "geometry": {
        "type": "Point",
        "coordinates": [
          4.339255,
          -30.900259
        ]
      },
      "properties": {
        "label": "Atrial fibrillation",
        "level": 3,
        "pos": "2796.78,5925.38",
        "weight": "75245.5"
      }
    },
    {
      "type": "Feature",
      "id": "993",
      "geometry": {
        "type": "Point",
        "coordinates": [
          4.310939,
          -30.633785
        ]
      },
      "properties": {
        "label": "Edoxaban",
        "level": 5,
        "pos": "2767.35,6357.00",
        "weight": "493.0"
      }
    },
    {
      "type": "Feature",
      "id": "7567",
      "geometry": {
        "type": "Point",
        "coordinates": [
          3.932946,
          -30.641346
        ]
      },
      "properties": {
        "label": "Thrombotic cerebral infarction",
        "level": 7,
        "pos": "2374.49,6344.77",
        "weight": "0.0"
      }
    },
    {
      "type": "Feature",
      "id": "1026",
      "geometry": {
        "type": "Point",
        "coordinates": [
          -12.283264,
          -49.822482
        ]
      },
      "properties": {
        "label": "Gaboxadol",
        "level": 5,
        "pos": "-14479.51,-29028.90",
        "weight": "10007.5"
      }
    },
    {
      "type": "Feature",
      "id": "210",
      "geometry": {
        "type": "Point",
        "coordinates": [
          -11.774244,
          -49.270445
        ]
      },
      "properties": {
        "label": "Indiplon",
        "level": 5,
        "pos": "-13950.47,-27844.74",
        "weight": "4623.5"
      }
    },
    {
      "type": "Feature",
      "id": "2808",
      "geometry": {
        "type": "Point",
        "coordinates": [
          -12.081345,
          -49.791739
        ]
      },
      "properties": {
        "label": "Zaleplon",
        "level": 5,
        "pos": "-14269.65,-28962.60",
        "weight": "1839.0"
      }
    },
    {
      "type": "Feature",
      "id": "3238",
      "geometry": {
        "type": "Point",
        "coordinates": [
          -11.093219,
          -49.337806
        ]
      },
      "properties": {
        "label": "Zopiclone",
        "level": 5,
        "pos": "-13242.66,-27988.52",
        "weight": "1150.0"
      }
    },
    {
      "type": "Feature",
      "id": "1027",
      "geometry": {
        "type": "Point",
        "coordinates": [
          -50.4337,
          -78.732856
        ]
      },
      "properties": {
        "label": "Lactic Acid",
        "level": 4,
        "pos": "-54130.42,-133522.06",
        "weight": "10386.0"
      }
    },
    {
      "type": "Feature",
      "id": "5147",
      "geometry": {
        "type": "Point",
        "coordinates": [
          -49.646376,
          -78.95428
        ]
      },
      "properties": {
        "label": "Glycolic acid",
        "level": 4,
        "pos": "-53312.13,-135114.83",
        "weight": "75.0"
      }
    },
    {
      "type": "Feature",
      "id": "5653",
      "geometry": {
        "type": "Point",
        "coordinates": [
          -47.522672,
          -79.029452
        ]
      },
      "properties": {
        "label": "Glyoxylic acid",
        "level": 4,
        "pos": "-51104.90,-135662.74",
        "weight": "0.0"
      }
    },
    {
      "type": "Feature",
      "id": "8118",
      "geometry": {
        "type": "Point",
        "coordinates": [
          -50.877332,
          -79.051362
        ]
      },
      "properties": {
        "label": "Tazarotene",
        "level": 6,
        "pos": "-54591.50,-135823.13",
        "weight": "0.0"
      }
    },
    {
      "type": "Feature",
      "id": "1028",
      "geometry": {
        "type": "Point",
        "coordinates": [
          6.682052,
          -27.095316
        ]
      },
      "properties": {
        "label": "Domperidone",
        "level": 3,
        "pos": "5231.72,11981.80",
        "weight": "4335.75"
      }
    },
    {
      "type": "Feature",
      "id": "1320",
      "geometry": {
        "type": "Point",
        "coordinates": [
          6.650156,
          -27.175078
        ]
      },
      "properties": {
        "label": "Prochlorperazine",
        "level": 4,
        "pos": "5198.57,11857.06",
        "weight": "25732.75"
      }
    },
    {
      "type": "Feature",
      "id": "1717",
      "geometry": {
        "type": "Point",
        "coordinates": [
          6.723502,
          -26.951859
        ]
      },
      "properties": {
        "label": "Metoclopramide",
        "level": 3,
        "pos": "5274.80,12205.93",
        "weight": "45576.75"
      }
    },
    {
      "type": "Feature",
      "id": "4887",
      "geometry": {
        "type": "Point",
        "coordinates": [
          6.785474,
          -27.241669
        ]
      },
      "properties": {
        "label": "Acupressure",
        "level": 3,
        "pos": "5339.21,11752.85",
        "weight": "0.0"
      }
    },
    {
      "type": "Feature",
      "id": "8809",
      "geometry": {
        "type": "Point",
        "coordinates": [
          6.648425,
          -27.24204
        ]
      },
      "properties": {
        "label": "Becatecarin",
        "level": 6,
        "pos": "5196.77,11752.27",
        "weight": "0.0"
      }
    },
    {
      "type": "Feature",
      "id": "549",
      "geometry": {
        "type": "Point",
        "coordinates": [
          6.751347,
          -27.366691
        ]
      },
      "properties": {
        "label": "Corticotropin",
        "level": 3,
        "pos": "5303.74,11557.03",
        "weight": "287695.4166666666"
      }
    },
    {
      "type": "Feature",
      "id": "1029",
      "geometry": {
        "type": "Point",
        "coordinates": [
          9.981118,
          -19.901368
        ]
      },
      "properties": {
        "label": "Biperiden",
        "level": 3,
        "pos": "8660.54,22909.41",
        "weight": "36996.5"
      }
    },
    {
      "type": "Feature",
      "id": "3522",
      "geometry": {
        "type": "Point",
        "coordinates": [
          10.754607,
          -20.172725
        ]
      },
      "properties": {
        "label": "Benactyzine",
        "level": 3,
        "pos": "9464.45,22507.41",
        "weight": "104.0"
      }
    },
    {
      "type": "Feature",
      "id": "5686",
      "geometry": {
        "type": "Point",
        "coordinates": [
          10.632595,
          -19.493547
        ]
      },
      "properties": {
        "label": "Natrium",
        "level": 4,
        "pos": "9337.64,23512.28",
        "weight": "0.0"
      }
    },
    {
      "type": "Feature",
      "id": "103",
      "geometry": {
        "type": "Point",
        "coordinates": [
          -5.869211,
          -63.827947
        ]
      },
      "properties": {
        "label": "Gabapentin Enacarbil",
        "level": 3,
        "pos": "-7813.19,-65168.80",
        "weight": "43901.25"
      }
    },
    {
      "type": "Feature",
      "id": "129",
      "geometry": {
        "type": "Point",
        "coordinates": [
          -7.585643,
          -63.837893
        ]
      },
      "properties": {
        "label": "Rotigotine",
        "level": 3,
        "pos": "-9597.13,-65200.19",
        "weight": "53830.0"
      }
    },
    {
      "type": "Feature",
      "id": "1419",
      "geometry": {
        "type": "Point",
        "coordinates": [
          -3.450269,
          -63.822806
        ]
      },
      "properties": {
        "label": "Ropinirole",
        "level": 2,
        "pos": "-5299.11,-65152.58",
        "weight": "7386.75"
      }
    },
    {
      "type": "Feature",
      "id": "778",
      "geometry": {
        "type": "Point",
        "coordinates": [
          -7.631731,
          -64.432273
        ]
      },
      "properties": {
        "label": "Pramipexole",
        "level": 2,
        "pos": "-9645.03,-67096.52",
        "weight": "13421.25"
      }
    },
    {
      "type": "Feature",
      "id": "964",
      "geometry": {
        "type": "Point",
        "coordinates": [
          0.768783,
          -62.531274
        ]
      },
      "properties": {
        "label": "Pergolide",
        "level": 2,
        "pos": "-914.12,-61168.29",
        "weight": "2019.0"
      }
    },
    {
      "type": "Feature",
      "id": "941",
      "geometry": {
        "type": "Point",
        "coordinates": [
          -1.503526,
          -63.923987
        ]
      },
      "properties": {
        "label": "Restless legs syndrome",
        "level": 4,
        "pos": "-3275.80,-65472.37",
        "weight": "26950.75"
      }
    },
    {
      "type": "Feature",
      "id": "1030",
      "geometry": {
        "type": "Point",
        "coordinates": [
          6.972518,
          -28.032167
        ]
      },
      "properties": {
        "label": "Zileuton",
        "level": 5,
        "pos": "5533.61,10510.95",
        "weight": "6653.25"
      }
    },
    {
      "type": "Feature",
      "id": "1512",
      "geometry": {
        "type": "Point",
        "coordinates": [
          6.861196,
          -28.021823
        ]
      },
      "properties": {
        "label": "Tridolgosir",
        "level": 5,
        "pos": "5417.91,10527.26",
        "weight": "0.0"
      }
    },
    {
      "type": "Feature",
      "id": "4377",
      "geometry": {
        "type": "Point",
        "coordinates": [
          6.883095,
          -28.173226
        ]
      },
      "properties": {
        "label": "Aristolochic acids",
        "level": 3,
        "pos": "5440.67,10288.39",
        "weight": "0.0"
      }
    },
    {
      "type": "Feature",
      "id": "5690",
      "geometry": {
        "type": "Point",
        "coordinates": [
          6.395281,
          -28.007367
        ]
      },
      "properties": {
        "label": "Calamus",
        "level": 2,
        "pos": "4933.67,10550.05",
        "weight": "0.0"
      }
    },
    {
      "type": "Feature",
      "id": "1031",
      "geometry": {
        "type": "Point",
        "coordinates": [
          -37.973342,
          -36.945819
        ]
      },
      "properties": {
        "label": "Butorphanol",
        "level": 5,
        "pos": "-41179.99,-4223.57",
        "weight": "6653.75"
      }
    },
    {
      "type": "Feature",
      "id": "2799",
      "geometry": {
        "type": "Point",
        "coordinates": [
          -38.287188,
          -37.792399
        ]
      },
      "properties": {
        "label": "Acepromazine",
        "level": 5,
        "pos": "-41506.18,-5706.15",
        "weight": "520.0"
      }
    },
    {
      "type": "Feature",
      "id": "2811",
      "geometry": {
        "type": "Point",
        "coordinates": [
          -36.225091,
          -38.053173
        ]
      },
      "properties": {
        "height": "0.23",
        "label": "Isoflurane",
        "level": 1,
        "pos": "-39362.98,-6166.24",
        "weight": "96.0",
        "width": "0.79"
      }
    },
    {
      "type": "Feature",
      "id": "6505",
      "geometry": {
        "type": "Point",
        "coordinates": [
          -38.611897,
          -38.48706
        ]
      },
      "properties": {
        "label": "Twiddler's syndrome",
        "level": 5,
        "pos": "-41843.66,-6935.41",
        "weight": "6528.75"
      }
    },
    {
      "type": "Feature",
      "id": "1032",
      "geometry": {
        "type": "Point",
        "coordinates": [
          22.04017,
          -41.542219
        ]
      },
      "properties": {
        "label": "Dapsone",
        "level": 3,
        "pos": "21193.88,-12488.88",
        "weight": "31802.75"
      }
    },
    {
      "type": "Feature",
      "id": "3291",
      "geometry": {
        "type": "Point",
        "coordinates": [
          21.862392,
          -40.504727
        ]
      },
      "properties": {
        "label": "Leprosy",
        "level": 3,
        "pos": "21009.11,-10574.88",
        "weight": "10037.0"
      }
    },
    {
      "type": "Feature",
      "id": "545",
      "geometry": {
        "type": "Point",
        "coordinates": [
          22.850673,
          -42.355795
        ]
      },
      "properties": {
        "label": "Drug hypersensitivity",
        "level": 3,
        "pos": "22036.26,-14011.37",
        "weight": "23578.25"
      }
    },
    {
      "type": "Feature",
      "id": "4813",
      "geometry": {
        "type": "Point",
        "coordinates": [
          21.896587,
          -41.891435
        ]
      },
      "properties": {
        "label": "Illiteracy",
        "level": 3,
        "pos": "21044.65,-13140.01",
        "weight": "0.0"
      }
    },
    {
      "type": "Feature",
      "id": "4803",
      "geometry": {
        "type": "Point",
        "coordinates": [
          23.389914,
          -41.602916
        ]
      },
      "properties": {
        "label": "Lepromatous leprosy",
        "level": 5,
        "pos": "22596.71,-12601.80",
        "weight": "0.0"
      }
    },
    {
      "type": "Feature",
      "id": "3898",
      "geometry": {
        "type": "Point",
        "coordinates": [
          22.656327,
          -39.764714
        ]
      },
      "properties": {
        "label": "Dupuytren's contracture",
        "level": 6,
        "pos": "21834.27,-9227.72",
        "weight": "111.0"
      }
    },
    {
      "type": "Feature",
      "id": "5099",
      "geometry": {
        "type": "Point",
        "coordinates": [
          24.717615,
          -39.512321
        ]
      },
      "properties": {
        "label": "Cerebral aspergillosis",
        "level": 3,
        "pos": "23976.63,-8771.57",
        "weight": "0.0"
      }
    },
    {
      "type": "Feature",
      "id": "6323",
      "geometry": {
        "type": "Point",
        "coordinates": [
          21.039112,
          -40.784523
        ]
      },
      "properties": {
        "label": "Blood HIV RNA",
        "level": 3,
        "pos": "20153.45,-11088.10",
        "weight": "0.0"
      }
    },
    {
      "type": "Feature",
      "id": "8453",
      "geometry": {
        "type": "Point",
        "coordinates": [
          21.967258,
          -39.885926
        ]
      },
      "properties": {
        "label": "Indeterminate leprosy",
        "level": 7,
        "pos": "21118.10,-9447.38",
        "weight": "0.0"
      }
    },
    {
      "type": "Feature",
      "id": "7624",
      "geometry": {
        "type": "Point",
        "coordinates": [
          23.75792,
          -42.299297
        ]
      },
      "properties": {
        "label": "Pyogenic granuloma",
        "level": 7,
        "pos": "22979.19,-13905.01",
        "weight": "0.0"
      }
    },
    {
      "type": "Feature",
      "id": "8340",
      "geometry": {
        "type": "Point",
        "coordinates": [
          22.957357,
          -42.99308
        ]
      },
      "properties": {
        "label": "Platelet toxicity",
        "level": 7,
        "pos": "22147.14,-15217.77",
        "weight": "0.0"
      }
    },
    {
      "type": "Feature",
      "id": "1033",
      "geometry": {
        "type": "Point",
        "coordinates": [
          10.368252,
          -20.374937
        ]
      },
      "properties": {
        "label": "Benzatropine",
        "level": 3,
        "pos": "9062.90,22207.39",
        "weight": "31602.0"
      }
    },
    {
      "type": "Feature",
      "id": "8776",
      "geometry": {
        "type": "Point",
        "coordinates": [
          9.89158,
          -20.414611
        ]
      },
      "properties": {
        "label": "Talsupram",
        "level": 6,
        "pos": "8567.48,22148.48",
        "weight": "0.0"
      }
    },
    {
      "type": "Feature",
      "id": "1034",
      "geometry": {
        "type": "Point",
        "coordinates": [
          8.297149,
          -42.540129
        ]
      },
      "properties": {
        "label": "Urticaria",
        "level": 4,
        "pos": "6910.34,-14359.05",
        "weight": "23916.75"
      }
    },
    {
      "type": "Feature",
      "id": "2540",
      "geometry": {
        "type": "Point",
        "coordinates": [
          9.260943,
          -42.723645
        ]
      },
      "properties": {
        "label": "Angioedema",
        "level": 3,
        "pos": "7912.04,-14706.21",
        "weight": "105.0"
      }
    },
    {
      "type": "Feature",
      "id": "7170",
      "geometry": {
        "type": "Point",
        "coordinates": [
          8.242008,
          -42.330851
        ]
      },
      "properties": {
        "label": "Injection site reaction",
        "level": 7,
        "pos": "6853.03,-13964.40",
        "weight": "0.0"
      }
    },
    {
      "type": "Feature",
      "id": "3807",
      "geometry": {
        "type": "Point",
        "coordinates": [
          8.884951,
          -42.021532
        ]
      },
      "properties": {
        "label": "Blood immunoglobulin E",
        "level": 3,
        "pos": "7521.26,-13383.49",
        "weight": "103.0"
      }
    },
    {
      "type": "Feature",
      "id": "398",
      "geometry": {
        "type": "Point",
        "coordinates": [
          9.473561,
          -43.088964
        ]
      },
      "properties": {
        "label": "Pruritus",
        "level": 3,
        "pos": "8133.02,-15400.36",
        "weight": "240089.5"
      }
    },
    {
      "type": "Feature",
      "id": "5919",
      "geometry": {
        "type": "Point",
        "coordinates": [
          9.206754,
          -42.510263
        ]
      },
      "properties": {
        "label": "Antiallergic therapy",
        "level": 7,
        "pos": "7855.72,-14302.65",
        "weight": "0.0"
      }
    },
    {
      "type": "Feature",
      "id": "1035",
      "geometry": {
        "type": "Point",
        "coordinates": [
          67.591342,
          -51.966716
        ]
      },
      "properties": {
        "label": "Tourette's disorder",
        "level": 3,
        "pos": "68536.60,-33761.34",
        "weight": "45787.0"
      }
    },
    {
      "type": "Feature",
      "id": "6741",
      "geometry": {
        "type": "Point",
        "coordinates": [
          68.727545,
          -51.828349
        ]
      },
      "properties": {
        "label": "Childhood depression",
        "level": 6,
        "pos": "69717.49,-33449.26",
        "weight": "58.0"
      }
    },
    {
      "type": "Feature",
      "id": "6932",
      "geometry": {
        "type": "Point",
        "coordinates": [
          65.829169,
          -52.46996
        ]
      },
      "properties": {
        "label": "Saiga",
        "level": 3,
        "pos": "66705.12,-34904.58",
        "weight": "0.0"
      }
    },
    {
      "type": "Feature",
      "id": "1036",
      "geometry": {
        "type": "Point",
        "coordinates": [
          -11.876415,
          -41.508733
        ]
      },
      "properties": {
        "label": "Staring",
        "level": 2,
        "pos": "-14056.66,-12426.63",
        "weight": "54412.75"
      }
    },
    {
      "type": "Feature",
      "id": "1433",
      "geometry": {
        "type": "Point",
        "coordinates": [
          -12.81679,
          -41.006829
        ]
      },
      "properties": {
        "label": "Fall",
        "level": 2,
        "pos": "-15034.02,-11497.41",
        "weight": "141444.0"
      }
    },
    {
      "type": "Feature",
      "id": "2347",
      "geometry": {
        "type": "Point",
        "coordinates": [
          -10.296889,
          -41.757552
        ]
      },
      "properties": {
        "label": "Posturing",
        "level": 2,
        "pos": "-12415.01,-12889.96",
        "weight": "14980.5"
      }
    },
    {
      "type": "Feature",
      "id": "254",
      "geometry": {
        "type": "Point",
        "coordinates": [
          -14.652837,
          -40.790083
        ]
      },
      "properties": {
        "label": "Malaise",
        "level": 2,
        "pos": "-16942.28,-11098.32",
        "weight": "339569.3333333333"
      }
    },
    {
      "type": "Feature",
      "id": "8540",
      "geometry": {
        "type": "Point",
        "coordinates": [
          -12.731754,
          -41.507609
        ]
      },
      "properties": {
        "label": "Eccentric fixation",
        "level": 7,
        "pos": "-14945.64,-12424.54",
        "weight": "0.0"
      }
    },
    {
      "type": "Feature",
      "id": "3683",
      "geometry": {
        "type": "Point",
        "coordinates": [
          -8.876186,
          -42.052259
        ]
      },
      "properties": {
        "label": "Frontal lobe epilepsy",
        "level": 2,
        "pos": "-10938.43,-13441.07",
        "weight": "58.0"
      }
    },
    {
      "type": "Feature",
      "id": "1037",
      "geometry": {
        "type": "Point",
        "coordinates": [
          -8.696589,
          -38.133131
        ]
      },
      "properties": {
        "label": "Rheumatoid factor",
        "level": 3,
        "pos": "-10751.77,-6307.64",
        "weight": "20107.0"
      }
    },
    {
      "type": "Feature",
      "id": "3918",
      "geometry": {
        "type": "Point",
        "coordinates": [
          -9.008001,
          -37.806865
        ]
      },
      "properties": {
        "label": "Aldolase",
        "level": 6,
        "pos": "-11075.43,-5731.63",
        "weight": "0.0"
      }
    },
    {
      "type": "Feature",
      "id": "7330",
      "geometry": {
        "type": "Point",
        "coordinates": [
          -9.309561,
          -38.321375
        ]
      },
      "properties": {
        "label": "Anti-cyclic citrullinated peptide antibody",
        "level": 3,
        "pos": "-11388.85,-6641.15",
        "weight": "0.0"
      }
    },
    {
      "type": "Feature",
      "id": "736",
      "geometry": {
        "type": "Point",
        "coordinates": [
          -7.967168,
          -38.138036
        ]
      },
      "properties": {
        "label": "Rheumatoid arthritis",
        "level": 3,
        "pos": "-9993.66,-6316.32",
        "weight": "53233.916666666664"
      }
    },
    {
      "type": "Feature",
      "id": "7735",
      "geometry": {
        "type": "Point",
        "coordinates": [
          -7.468654,
          -38.365556
        ]
      },
      "properties": {
        "label": "Joint destruction",
        "level": 7,
        "pos": "-9475.54,-6719.55",
        "weight": "0.0"
      }
    },
    {
      "type": "Feature",
      "id": "1038",
      "geometry": {
        "type": "Point",
        "coordinates": [
          8.473648,
          -35.318661
        ]
      },
      "properties": {
        "label": "Retching",
        "level": 4,
        "pos": "7093.78,-1419.43",
        "weight": "28790.5"
      }
    },
    {
      "type": "Feature",
      "id": "1992",
      "geometry": {
        "type": "Point",
        "coordinates": [
          8.486146,
          -35.048882
        ]
      },
      "properties": {
        "label": "Peritonitis",
        "level": 4,
        "pos": "7106.77,-960.03",
        "weight": "4149.75"
      }
    },
    {
      "type": "Feature",
      "id": "6116",
      "geometry": {
        "type": "Point",
        "coordinates": [
          8.880515,
          -35.313737
        ]
      },
      "properties": {
        "label": "Sclerosing encapsulating peritonitis",
        "level": 4,
        "pos": "7516.65,-1411.03",
        "weight": "0.0"
      }
    },
    {
      "type": "Feature",
      "id": "2046",
      "geometry": {
        "type": "Point",
        "coordinates": [
          7.982466,
          -35.239083
        ]
      },
      "properties": {
        "label": "Ceftazidime",
        "level": 4,
        "pos": "6583.28,-1283.76",
        "weight": "6979.75"
      }
    },
    {
      "type": "Feature",
      "id": "4913",
      "geometry": {
        "type": "Point",
        "coordinates": [
          8.818754,
          -35.015276
        ]
      },
      "properties": {
        "height": "0.23",
        "label": "Alatrofloxacin",
        "level": 1,
        "pos": "7452.46,-902.91",
        "weight": "0.0",
        "width": "1.13"
      }
    },
    {
      "type": "Feature",
      "id": "1039",
      "geometry": {
        "type": "Point",
        "coordinates": [
          -13.152679,
          -25.834544
        ]
      },
      "properties": {
        "label": "Phaeochromocytoma",
        "level": 3,
        "pos": "-15383.12,13941.97",
        "weight": "38897.25"
      }
    },
    {
      "type": "Feature",
      "id": "1852",
      "geometry": {
        "type": "Point",
        "coordinates": [
          -12.136131,
          -26.429586
        ]
      },
      "properties": {
        "label": "Esmolol",
        "level": 3,
        "pos": "-14326.59,13019.51",
        "weight": "34365.58333333333"
      }
    },
    {
      "type": "Feature",
      "id": "3232",
      "geometry": {
        "type": "Point",
        "coordinates": [
          -13.5427,
          -26.494282
        ]
      },
      "properties": {
        "label": "Colforsin",
        "level": 3,
        "pos": "-15788.48,12918.93",
        "weight": "13811.0"
      }
    },
    {
      "type": "Feature",
      "id": "5604",
      "geometry": {
        "type": "Point",
        "coordinates": [
          -13.677498,
          -25.461059
        ]
      },
      "properties": {
        "label": "Adrenal mass",
        "level": 5,
        "pos": "-15928.58,14518.59",
        "weight": "1637.0"
      }
    },
    {
      "type": "Feature",
      "id": "6534",
      "geometry": {
        "type": "Point",
        "coordinates": [
          -12.297398,
          -25.698562
        ]
      },
      "properties": {
        "label": "Sense of oppression",
        "level": 5,
        "pos": "-14494.20,14152.12",
        "weight": "0.0"
      }
    },
    {
      "type": "Feature",
      "id": "8631",
      "geometry": {
        "type": "Point",
        "coordinates": [
          -14.05502,
          -25.967973
        ]
      },
      "properties": {
        "label": "Blood isopropanol increased",
        "level": 7,
        "pos": "-16320.95,13735.53",
        "weight": "0.0"
      }
    },
    {
      "type": "Feature",
      "id": "3620",
      "geometry": {
        "type": "Point",
        "coordinates": [
          -14.180601,
          -26.195991
        ]
      },
      "properties": {
        "label": "Rolipram",
        "level": 3,
        "pos": "-16451.47,13382.20",
        "weight": "1758.0"
      }
    },
    {
      "type": "Feature",
      "id": "5820",
      "geometry": {
        "type": "Point",
        "coordinates": [
          -14.186451,
          -25.168909
        ]
      },
      "properties": {
        "label": "Histoplasmosis",
        "level": 6,
        "pos": "-16457.55,14968.39",
        "weight": "55.0"
      }
    },
    {
      "type": "Feature",
      "id": "104",
      "geometry": {
        "type": "Point",
        "coordinates": [
          16.826487,
          -29.282706
        ]
      },
      "properties": {
        "label": "Pleconaril",
        "level": 4,
        "pos": "15775.14,8527.46",
        "weight": "27939.0"
      }
    },
    {
      "type": "Feature",
      "id": "20",
      "geometry": {
        "type": "Point",
        "coordinates": [
          16.53299,
          -28.78285
        ]
      },
      "properties": {
        "label": "Omacetaxine mepesuccinate",
        "level": 3,
        "pos": "15470.10,9323.13",
        "weight": "113587.5"
      }
    },
    {
      "type": "Feature",
      "id": "1040",
      "geometry": {
        "type": "Point",
        "coordinates": [
          -1.588696,
          -39.954366
        ]
      },
      "properties": {
        "label": "Pain management",
        "level": 3,
        "pos": "-3364.32,-9571.58",
        "weight": "81885.5"
      }
    },
    {
      "type": "Feature",
      "id": "1820",
      "geometry": {
        "type": "Point",
        "coordinates": [
          -1.144304,
          -40.120526
        ]
      },
      "properties": {
        "label": "Cancer pain",
        "level": 3,
        "pos": "-2902.45,-9873.63",
        "weight": "2565.0"
      }
    },
    {
      "type": "Feature",
      "id": "383",
      "geometry": {
        "type": "Point",
        "coordinates": [
          -1.470899,
          -40.046037
        ]
      },
      "properties": {
        "label": "Procedural pain",
        "level": 3,
        "pos": "-3241.89,-9738.13",
        "weight": "83094.25"
      }
    },
    {
      "type": "Feature",
      "id": "4754",
      "geometry": {
        "type": "Point",
        "coordinates": [
          -1.183685,
          -39.808492
        ]
      },
      "properties": {
        "label": "Temporomandibular joint syndrome",
        "level": 3,
        "pos": "-2943.38,-9307.01",
        "weight": "0.0"
      }
    },
    {
      "type": "Feature",
      "id": "917",
      "geometry": {
        "type": "Point",
        "coordinates": [
          -0.662831,
          -40.411
        ]
      },
      "properties": {
        "label": "Diabetic neuropathy",
        "level": 3,
        "pos": "-2402.04,-10403.44",
        "weight": "74261.0"
      }
    },
    {
      "type": "Feature",
      "id": "6754",
      "geometry": {
        "type": "Point",
        "coordinates": [
          -1.797859,
          -39.930629
        ]
      },
      "properties": {
        "label": "Breast reconstruction",
        "level": 6,
        "pos": "-3581.71,-9528.49",
        "weight": "74.0"
      }
    },
    {
      "type": "Feature",
      "id": "6806",
      "geometry": {
        "type": "Point",
        "coordinates": [
          -0.944387,
          -40.27915
        ]
      },
      "properties": {
        "label": "Abdominal operation",
        "level": 5,
        "pos": "-2694.67,-10162.67",
        "weight": "435.0"
      }
    },
    {
      "type": "Feature",
      "id": "1041",
      "geometry": {
        "type": "Point",
        "coordinates": [
          -20.348985,
          -46.434521
        ]
      },
      "properties": {
        "label": "Neurological examination",
        "level": 4,
        "pos": "-22862.46,-21960.84",
        "weight": "26216.25"
      }
    },
    {
      "type": "Feature",
      "id": "2608",
      "geometry": {
        "type": "Point",
        "coordinates": [
          -20.645965,
          -45.26936
        ]
      },
      "properties": {
        "label": "Childhood",
        "level": 3,
        "pos": "-23171.12,-19632.50",
        "weight": "26760.0"
      }
    },
    {
      "type": "Feature",
      "id": "7866",
      "geometry": {
        "type": "Point",
        "coordinates": [
          -19.262844,
          -46.209542
        ]
      },
      "properties": {
        "label": "Condition aggravated",
        "level": 5,
        "pos": "-21733.60,-21507.44",
        "weight": "2203.0"
      }
    },
    {
      "type": "Feature",
      "id": "2750",
      "geometry": {
        "type": "Point",
        "coordinates": [
          -19.040018,
          -45.123429
        ]
      },
      "properties": {
        "label": "Juvenile myoclonic epilepsy",
        "level": 3,
        "pos": "-21502.01,-19344.28",
        "weight": "8916.0"
      }
    },
    {
      "type": "Feature",
      "id": "3920",
      "geometry": {
        "type": "Point",
        "coordinates": [
          -21.186977,
          -44.828707
        ]
      },
      "properties": {
        "label": "Adolescence",
        "level": 6,
        "pos": "-23733.41,-18764.43",
        "weight": "55.0"
      }
    },
    {
      "type": "Feature",
      "id": "8602",
      "geometry": {
        "type": "Point",
        "coordinates": [
          -21.562594,
          -45.761459
        ]
      },
      "properties": {
        "label": "Cerebrosclerosis",
        "level": 7,
        "pos": "-24123.80,-20609.92",
        "weight": "0.0"
      }
    },
    {
      "type": "Feature",
      "id": "8684",
      "geometry": {
        "type": "Point",
        "coordinates": [
          -19.074347,
          -45.717822
        ]
      },
      "properties": {
        "label": "Acetonaemic vomiting",
        "level": 7,
        "pos": "-21537.69,-20522.90",
        "weight": "0.0"
      }
    },
    {
      "type": "Feature",
      "id": "8743",
      "geometry": {
        "type": "Point",
        "coordinates": [
          -19.560612,
          -45.899942
        ]
      },
      "properties": {
        "label": "Hepatitis A Vaccine",
        "level": 7,
        "pos": "-22043.08,-20886.53",
        "weight": "0.0"
      }
    },
    {
      "type": "Feature",
      "id": "1042",
      "geometry": {
        "type": "Point",
        "coordinates": [
          -1.854733,
          -19.490838
        ]
      },
      "properties": {
        "label": "Nerve conduction studies",
        "level": 4,
        "pos": "-3640.82,23516.28",
        "weight": "12923.5"
      }
    },
    {
      "type": "Feature",
      "id": "1995",
      "geometry": {
        "type": "Point",
        "coordinates": [
          -1.786102,
          -19.443668
        ]
      },
      "properties": {
        "label": "Neuropathy peripheral",
        "level": 5,
        "pos": "-3569.49,23585.91",
        "weight": "7830.75"
      }
    },
    {
      "type": "Feature",
      "id": "693",
      "geometry": {
        "type": "Point",
        "coordinates": [
          -1.597557,
          -20.026837
        ]
      },
      "properties": {
        "label": "Peripheral sensory neuropathy",
        "level": 3,
        "pos": "-3373.53,22723.62",
        "weight": "39855.75"
      }
    },
    {
      "type": "Feature",
      "id": "8241",
      "geometry": {
        "type": "Point",
        "coordinates": [
          -1.735271,
          -20.366315
        ]
      },
      "properties": {
        "label": "Total hypoxanthine-guanine phosphoribosyl transferase deficiency",
        "level": 7,
        "pos": "-3516.66,22220.19",
        "weight": "0.0"
      }
    },
    {
      "type": "Feature",
      "id": "1043",
      "geometry": {
        "type": "Point",
        "coordinates": [
          4.740302,
          -22.231179
        ]
      },
      "properties": {
        "label": "Myelopathy",
        "level": 5,
        "pos": "3213.60,19434.30",
        "weight": "10007.5"
      }
    },
    {
      "type": "Feature",
      "id": "1744",
      "geometry": {
        "type": "Point",
        "coordinates": [
          4.792557,
          -22.468378
        ]
      },
      "properties": {
        "label": "Mononeuropathy",
        "level": 4,
        "pos": "3267.91,19077.36",
        "weight": "19750.25"
      }
    },
    {
      "type": "Feature",
      "id": "2185",
      "geometry": {
        "type": "Point",
        "coordinates": [
          4.604945,
          -22.664667
        ]
      },
      "properties": {
        "label": "Radiculopathy",
        "level": 5,
        "pos": "3072.92,18781.52",
        "weight": "2024.25"
      }
    },
    {
      "type": "Feature",
      "id": "2352",
      "geometry": {
        "type": "Point",
        "coordinates": [
          3.939286,
          -22.221854
        ]
      },
      "properties": {
        "label": "Mononeuropathy multiplex",
        "level": 4,
        "pos": "2381.08,19448.32",
        "weight": "0.0"
      }
    },
    {
      "type": "Feature",
      "id": "1044",
      "geometry": {
        "type": "Point",
        "coordinates": [
          7.946193,
          -17.068905
        ]
      },
      "properties": {
        "label": "Lymphocytosis",
        "level": 4,
        "pos": "6545.58,27066.52",
        "weight": "19868.0"
      }
    },
    {
      "type": "Feature",
      "id": "1253",
      "geometry": {
        "type": "Point",
        "coordinates": [
          8.793517,
          -16.947724
        ]
      },
      "properties": {
        "label": "Lymphadenopathy",
        "level": 4,
        "pos": "7426.23,27242.89",
        "weight": "18516.25"
      }
    },
    {
      "type": "Feature",
      "id": "1811",
      "geometry": {
        "type": "Point",
        "coordinates": [
          7.651137,
          -15.581339
        ]
      },
      "properties": {
        "label": "Eosinophilia",
        "level": 3,
        "pos": "6238.92,29223.92",
        "weight": "5331.75"
      }
    },
    {
      "type": "Feature",
      "id": "6273",
      "geometry": {
        "type": "Point",
        "coordinates": [
          8.292185,
          -16.433171
        ]
      },
      "properties": {
        "label": "Encephalitis venezuelan equine",
        "level": 5,
        "pos": "6905.18,27990.53",
        "weight": "0.0"
      }
    },
    {
      "type": "Feature",
      "id": "587",
      "geometry": {
        "type": "Point",
        "coordinates": [
          9.476322,
          -17.520747
        ]
      },
      "properties": {
        "label": "Rash maculo-papular",
        "level": 4,
        "pos": "8135.89,26407.88",
        "weight": "28007.25"
      }
    },
    {
      "type": "Feature",
      "id": "6609",
      "geometry": {
        "type": "Point",
        "coordinates": [
          8.601326,
          -17.63936
        ]
      },
      "properties": {
        "label": "Mucocutaneous rash",
        "level": 5,
        "pos": "7226.48,26234.71",
        "weight": "0.0"
      }
    },
    {
      "type": "Feature",
      "id": "7605",
      "geometry": {
        "type": "Point",
        "coordinates": [
          9.096366,
          -16.358818
        ]
      },
      "properties": {
        "label": "Rosai-Dorfman syndrome",
        "level": 6,
        "pos": "7740.99,28098.40",
        "weight": "111.0"
      }
    },
    {
      "type": "Feature",
      "id": "7755",
      "geometry": {
        "type": "Point",
        "coordinates": [
          8.97473,
          -16.370345
        ]
      },
      "properties": {
        "label": "Hyperglobulinaemia",
        "level": 7,
        "pos": "7614.57,28081.68",
        "weight": "0.0"
      }
    },
    {
      "type": "Feature",
      "id": "8473",
      "geometry": {
        "type": "Point",
        "coordinates": [
          9.377316,
          -16.98711
        ]
      },
      "properties": {
        "label": "Histiocytic necrotising lymphadenitis",
        "level": 7,
        "pos": "8032.99,27185.58",
        "weight": "0.0"
      }
    },
    {
      "type": "Feature",
      "id": "1872",
      "geometry": {
        "type": "Point",
        "coordinates": [
          7.239911,
          -14.129022
        ]
      },
      "properties": {
        "label": "Lymphocyte morphology abnormal",
        "level": 3,
        "pos": "5811.52,31315.17",
        "weight": "21296.0"
      }
    },
    {
      "type": "Feature",
      "id": "6412",
      "geometry": {
        "type": "Point",
        "coordinates": [
          8.034413,
          -15.935907
        ]
      },
      "properties": {
        "label": "Medical air",
        "level": 5,
        "pos": "6637.27,28711.17",
        "weight": "429.5"
      }
    },
    {
      "type": "Feature",
      "id": "1045",
      "geometry": {
        "type": "Point",
        "coordinates": [
          0.684604,
          -35.314516
        ]
      },
      "properties": {
        "label": "Laceration",
        "level": 3,
        "pos": "-1001.61,-1412.36",
        "weight": "16831.25"
      }
    },
    {
      "type": "Feature",
      "id": "1635",
      "geometry": {
        "type": "Point",
        "coordinates": [
          1.444815,
          -35.234776
        ]
      },
      "properties": {
        "label": "Extradural haematoma",
        "level": 5,
        "pos": "-211.50,-1276.42",
        "weight": "3743.0"
      }
    },
    {
      "type": "Feature",
      "id": "2768",
      "geometry": {
        "type": "Point",
        "coordinates": [
          0.294632,
          -35.558855
        ]
      },
      "properties": {
        "label": "Concussion",
        "level": 3,
        "pos": "-1406.92,-1829.74",
        "weight": "1332.25"
      }
    },
    {
      "type": "Feature",
      "id": "5840",
      "geometry": {
        "type": "Point",
        "coordinates": [
          1.268586,
          -35.484914
        ]
      },
      "properties": {
        "label": "Fracture reduction",
        "level": 6,
        "pos": "-394.66,-1703.30",
        "weight": "0.0"
      }
    },
    {
      "type": "Feature",
      "id": "7184",
      "geometry": {
        "type": "Point",
        "coordinates": [
          0.548016,
          -34.898637
        ]
      },
      "properties": {
        "label": "Gun shot wound",
        "level": 7,
        "pos": "-1143.57,-704.84",
        "weight": "0.0"
      }
    },
    {
      "type": "Feature",
      "id": "7340",
      "geometry": {
        "type": "Point",
        "coordinates": [
          0.288936,
          -34.764652
        ]
      },
      "properties": {
        "label": "Alopecia scarring",
        "level": 7,
        "pos": "-1412.84,-477.66",
        "weight": "0.0"
      }
    },
    {
      "type": "Feature",
      "id": "7572",
      "geometry": {
        "type": "Point",
        "coordinates": [
          1.003098,
          -35.702115
        ]
      },
      "properties": {
        "label": "Swollen tongue",
        "level": 7,
        "pos": "-670.59,-2075.05",
        "weight": "0.0"
      }
    },
    {
      "type": "Feature",
      "id": "7871",
      "geometry": {
        "type": "Point",
        "coordinates": [
          1.061193,
          -35.064027
        ]
      },
      "properties": {
        "label": "Chondroma",
        "level": 7,
        "pos": "-610.21,-985.78",
        "weight": "0.0"
      }
    },
    {
      "type": "Feature",
      "id": "953",
      "geometry": {
        "type": "Point",
        "coordinates": [
          0.944531,
          -35.899504
        ]
      },
      "properties": {
        "label": "Emergency care",
        "level": 3,
        "pos": "-731.46,-2413.77",
        "weight": "60094.166666666664"
      }
    },
    {
      "type": "Feature",
      "id": "3597",
      "geometry": {
        "type": "Point",
        "coordinates": [
          -0.419135,
          -35.464551
        ]
      },
      "properties": {
        "label": "Brain contusion",
        "level": 3,
        "pos": "-2148.76,-1668.50",
        "weight": "20.0"
      }
    },
    {
      "type": "Feature",
      "id": "4024",
      "geometry": {
        "type": "Point",
        "coordinates": [
          0.411679,
          -35.691641
        ]
      },
      "properties": {
        "label": "Decerebration",
        "level": 5,
        "pos": "-1285.27,-2057.10",
        "weight": "4768.5"
      }
    },
    {
      "type": "Feature",
      "id": "1046",
      "geometry": {
        "type": "Point",
        "coordinates": [
          -15.256697,
          -36.186149
        ]
      },
      "properties": {
        "label": "Hyperventilation",
        "level": 2,
        "pos": "-17569.89,-2907.16",
        "weight": "108319.5"
      }
    },
    {
      "type": "Feature",
      "id": "2922",
      "geometry": {
        "type": "Point",
        "coordinates": [
          -21.035264,
          -35.754651
        ]
      },
      "properties": {
        "label": "Hypocapnia",
        "level": 2,
        "pos": "-23575.73,-2165.12",
        "weight": "406.5"
      }
    },
    {
      "type": "Feature",
      "id": "435",
      "geometry": {
        "type": "Point",
        "coordinates": [
          -12.938994,
          -36.451101
        ]
      },
      "properties": {
        "label": "Electroencephalogram abnormal",
        "level": 2,
        "pos": "-15161.03,-3364.82",
        "weight": "309449.5833333334"
      }
    },
    {
      "type": "Feature",
      "id": "3318",
      "geometry": {
        "type": "Point",
        "coordinates": [
          -22.606179,
          -35.34045
        ]
      },
      "properties": {
        "label": "Cerebral vasoconstriction",
        "level": 3,
        "pos": "-25208.43,-1456.60",
        "weight": "570.75"
      }
    },
    {
      "type": "Feature",
      "id": "1047",
      "geometry": {
        "type": "Point",
        "coordinates": [
          -0.683286,
          -36.484886
        ]
      },
      "properties": {
        "label": "Hyperphosphataemia",
        "level": 4,
        "pos": "-2423.30,-3423.29",
        "weight": "12778.75"
      }
    },
    {
      "type": "Feature",
      "id": "2259",
      "geometry": {
        "type": "Point",
        "coordinates": [
          -0.134327,
          -36.534505
        ]
      },
      "properties": {
        "label": "Pseudohypoparathyroidism",
        "level": 4,
        "pos": "-1852.75,-3509.21",
        "weight": "9961.0"
      }
    },
    {
      "type": "Feature",
      "id": "2272",
      "geometry": {
        "type": "Point",
        "coordinates": [
          -1.420241,
          -36.536993
        ]
      },
      "properties": {
        "label": "Hypocalcaemia",
        "level": 4,
        "pos": "-3189.24,-3513.52",
        "weight": "8682.5"
      }
    },