{
  "type": "FeatureCollection",
  "features": [
    {
      "type": "Feature",
      "id": "1",
      "geometry": {
        "type": "Point",
        "coordinates": [
          5.863604,
          4.911782
        ]
      },
      "properties": {
        "label": "10,000 Maniacs",
        "level": 4,
        "pos": "8034921.643006325,3708194.2614714345",
        "weight": "185348.0"
      }
    },
    {
      "type": "Feature",
      "id": "1992",
      "geometry": {
        "type": "Point",
        "coordinates": [
          3.203849,
          5.993607
        ]
      },
      "properties": {
        "label": "Suzanne Vega",
        "level": 3,
        "pos": "7275284.488525566,3962165.6813140027",
        "weight": "365231.0"
      }
    },
    {
      "type": "Feature",
      "id": "1111",
      "geometry": {
        "type": "Point",
        "coordinates": [
          0.399994,
          7.659866
        ]
      },
      "properties": {
        "label": "Joni Mitchell",
        "level": 3,
        "pos": "6474492.099403902,4354358.804874853",
        "weight": "403885.0"
      }
    },
    {
      "type": "Feature",
      "id": "2352",
      "geometry": {
        "type": "Point",
        "coordinates": [
          3.760906,
          7.265033
        ]
      },
      "properties": {
        "label": "Tracy Chapman",
        "level": 3,
        "pos": "7434382.363964384,4261299.4708081335",
        "weight": "467792.0"
      }
    },
    {
      "type": "Feature",
      "id": "1078",
      "geometry": {
        "type": "Point",
        "coordinates": [
          -3.293389,
          8.531078
        ]
      },
      "properties": {
        "label": "Joan Baez",
        "level": 4,
        "pos": "5419646.941027227,4560009.046459938",
        "weight": "237307.0"
      }
    },
    {
      "type": "Feature",
      "id": "19",
      "geometry": {
        "type": "Point",
        "coordinates": [
          -43.476045,
          -40.563224
        ]
      },
      "properties": {
        "label": "4 Non Blondes",
        "level": 4,
        "pos": "-6056684.1510218615,-7828828.910990281",
        "weight": "176534.0"
      }
    },
    {
      "type": "Feature",
      "id": "1923",
      "geometry": {
        "type": "Point",
        "coordinates": [
          -41.051638,
          -38.960989
        ]
      },
      "properties": {
        "label": "Spin Doctors",
        "level": 4,
        "pos": "-5364263.51980188,-7341692.056495579",
        "weight": "243038.0"
      }
    },
    {
      "type": "Feature",
      "id": "1248",
      "geometry": {
        "type": "Point",
        "coordinates": [
          -36.827261,
          -37.928357
        ]
      },
      "properties": {
        "label": "Lenny Kravitz",
        "level": 2,
        "pos": "-4157764.2071312494,-7033562.82502159",
        "weight": "800370.0"
      }
    },
    {
      "type": "Feature",
      "id": "2331",
      "geometry": {
        "type": "Point",
        "coordinates": [
          -42.467943,
          -41.189586
        ]
      },
      "properties": {
        "label": "Toad the Wet Sprocket",
        "level": 4,
        "pos": "-5768766.134540487,-8022422.091526609",
        "weight": "155873.0"
      }
    },
    {
      "type": "Feature",
      "id": "869",
      "geometry": {
        "type": "Point",
        "coordinates": [
          -42.921413,
          -41.094265
        ]
      },
      "properties": {
        "label": "Gin Blossoms",
        "level": 4,
        "pos": "-5898278.890016557,-7992842.015290712",
        "weight": "214073.0"
      }
    },
    {
      "type": "Feature",
      "id": "965",
      "geometry": {
        "type": "Point",
        "coordinates": [
          -43.949991,
          -41.354237
        ]
      },
      "properties": {
        "label": "Hootie & the Blowfish",
        "level": 4,
        "pos": "-6192044.936214509,-8073618.178949636",
        "weight": "187205.0"
      }
    },
    {
      "type": "Feature",
      "id": "1909",
      "geometry": {
        "type": "Point",
        "coordinates": [
          -44.172065,
          -42.060844
        ]
      },
      "properties": {
        "label": "Soul Asylum",
        "level": 4,
        "pos": "-6255470.194758524,-8294814.271905705",
        "weight": "197627.0"
      }
    },
    {
      "type": "Feature",
      "id": "770",
      "geometry": {
        "type": "Point",
        "coordinates": [
          -43.110362,
          -40.153481
        ]
      },
      "properties": {
        "label": "Fastball",
        "level": 4,
        "pos": "-5952243.611498299,-7703166.477874355",
        "weight": "158839.0"
      }
    },
    {
      "type": "Feature",
      "id": "250",
      "geometry": {
        "type": "Point",
        "coordinates": [
          -44.000075,
          -41.296776
        ]
      },
      "properties": {
        "label": "Better Than Ezra",
        "level": 4,
        "pos": "-6206349.362339154,-8055736.846209005",
        "weight": "234650.0"
      }
    },
    {
      "type": "Feature",
      "id": "1516",
      "geometry": {
        "type": "Point",
        "coordinates": [
          -42.446984,
          -40.958244
        ]
      },
      "properties": {
        "label": "New Radicals",
        "level": 4,
        "pos": "-5762780.080252685,-7950706.271464762",
        "weight": "198737.0"
      }
    },
    {
      "type": "Feature",
      "id": "1865",
      "geometry": {
        "type": "Point",
        "coordinates": [
          -42.981434,
          -40.784068
        ]
      },
      "properties": {
        "label": "Sister Hazel",
        "level": 4,
        "pos": "-5915421.080032662,-7896877.617339507",
        "weight": "129519.0"
      }
    },
    {
      "type": "Feature",
      "id": "2342",
      "geometry": {
        "type": "Point",
        "coordinates": [
          -42.082346,
          -40.884818
        ]
      },
      "properties": {
        "label": "Tonic",
        "level": 4,
        "pos": "-5658637.923651323,-7927996.9020481575",
        "weight": "204494.0"
      }
    },
    {
      "type": "Feature",
      "id": "1980",
      "geometry": {
        "type": "Point",
        "coordinates": [
          -43.712643,
          -41.073023
        ]
      },
      "properties": {
        "label": "Sugar Ray",
        "level": 4,
        "pos": "-6124257.555163534,-7986256.345352017",
        "weight": "225325.0"
      }
    },
    {
      "type": "Feature",
      "id": "2303",
      "geometry": {
        "type": "Point",
        "coordinates": [
          -43.951856,
          -41.308798
        ]
      },
      "properties": {
        "label": "Third Eye Blind",
        "level": 3,
        "pos": "-6192577.6427195035,-8059476.693579565",
        "weight": "437023.0"
      }
    },
    {
      "type": "Feature",
      "id": "755",
      "geometry": {
        "type": "Point",
        "coordinates": [
          -43.719876,
          -40.595445
        ]
      },
      "properties": {
        "label": "Everclear",
        "level": 3,
        "pos": "-6126323.376965691,-7838743.3330262145",
        "weight": "390700.0"
      }
    },
    {
      "type": "Feature",
      "id": "306",
      "geometry": {
        "type": "Point",
        "coordinates": [
          -43.171921,
          -40.794042
        ]
      },
      "properties": {
        "label": "Blues Traveler",
        "level": 4,
        "pos": "-5969825.067451282,-7899956.204270446",
        "weight": "178990.0"
      }
    },
    {
      "type": "Feature",
      "id": "1363",
      "geometry": {
        "type": "Point",
        "coordinates": [
          -37.341478,
          -41.901049
        ]
      },
      "properties": {
        "label": "Matchbox Twenty",
        "level": 2,
        "pos": "-4304626.70156524,-8244578.601227442",
        "weight": "570024.0"
      }
    },
    {
      "type": "Feature",
      "id": "1871",
      "geometry": {
        "type": "Point",
        "coordinates": [
          -33.556288,
          -37.87146
        ]
      },
      "properties": {
        "label": "Skunk Anansie",
        "level": 3,
        "pos": "-3223560.9623896456,-7016712.317984472",
        "weight": "277102.0"
      }
    },
    {
      "type": "Feature",
      "id": "1822",
      "geometry": {
        "type": "Point",
        "coordinates": [
          -35.252903,
          -42.338954
        ]
      },
      "properties": {
        "label": "Semisonic",
        "level": 3,
        "pos": "-3708121.16867081,-8382547.612978484",
        "weight": "313910.0"
      }
    },
    {
      "type": "Feature",
      "id": "487",
      "geometry": {
        "type": "Point",
        "coordinates": [
          -34.201196,
          -40.648555
        ]
      },
      "properties": {
        "label": "Collective Soul",
        "level": 3,
        "pos": "-3407749.1883124504,-7855095.312793944",
        "weight": "380646.0"
      }
    },
    {
      "type": "Feature",
      "id": "2287",
      "geometry": {
        "type": "Point",
        "coordinates": [
          -33.558959,
          -38.543921
        ]
      },
      "properties": {
        "label": "The Wallflowers",
        "level": 3,
        "pos": "-3224323.9238649,-7216710.862542304",
        "weight": "343767.0"
      }
    },
    {
      "type": "Feature",
      "id": "2354",
      "geometry": {
        "type": "Point",
        "coordinates": [
          -33.737168,
          -39.826999
        ]
      },
      "properties": {
        "label": "Train",
        "level": 3,
        "pos": "-3275220.9480624665,-7603581.055600405",
        "weight": "367682.0"
      }
    },
    {
      "type": "Feature",
      "id": "895",
      "geometry": {
        "type": "Point",
        "coordinates": [
          -27.390579,
          -42.444526
        ]
      },
      "properties": {
        "label": "Goo Goo Dolls",
        "level": 2,
        "pos": "-1462609.1540059976,-8415953.457959475",
        "weight": "854056.0"
      }
    },
    {
      "type": "Feature",
      "id": "1882",
      "geometry": {
        "type": "Point",
        "coordinates": [
          -33.747523,
          -39.172824
        ]
      },
      "properties": {
        "label": "Smash Mouth",
        "level": 3,
        "pos": "-3278178.3783961814,-7405453.553327286",
        "weight": "414274.0"
      }
    },
    {
      "type": "Feature",
      "id": "672",
      "geometry": {
        "type": "Point",
        "coordinates": [
          -39.486034,
          -40.271409
        ]
      },
      "properties": {
        "label": "Eagle-Eye Cherry",
        "level": 3,
        "pos": "-4917120.746200229,-7739255.165650521",
        "weight": "300539.0"
      }
    },
    {
      "type": "Feature",
      "id": "507",
      "geometry": {
        "type": "Point",
        "coordinates": [
          -39.657761,
          -40.902815
        ]
      },
      "properties": {
        "label": "Creed",
        "level": 2,
        "pos": "-4966166.524428131,-7933560.917479462",
        "weight": "566764.0"
      }
    },
    {
      "type": "Feature",
      "id": "839",
      "geometry": {
        "type": "Point",
        "coordinates": [
          -38.548613,
          -40.965744
        ]
      },
      "properties": {
        "label": "Fun Lovin' Criminals",
        "level": 4,
        "pos": "-4649389.42065581,-7953027.5048300745",
        "weight": "191712.0"
      }
    },
    {
      "type": "Feature",
      "id": "1706",
      "geometry": {
        "type": "Point",
        "coordinates": [
          -37.880919,
          -41.11045
        ]
      },
      "properties": {
        "label": "Reamonn",
        "level": 4,
        "pos": "-4458693.323074995,-7997861.717380359",
        "weight": "196349.0"
      }
    },
    {
      "type": "Feature",
      "id": "1007",
      "geometry": {
        "type": "Point",
        "coordinates": [
          -34.632948,
          -34.710525
        ]
      },
      "properties": {
        "label": "INXS",
        "level": 3,
        "pos": "-3531059.4288432905,-6099995.4269728875",
        "weight": "514441.0"
      }
    },
    {
      "type": "Feature",
      "id": "1663",
      "geometry": {
        "type": "Point",
        "coordinates": [
          -37.256709,
          -41.2565
        ]
      },
      "properties": {
        "label": "Prince",
        "level": 2,
        "pos": "-4280416.290460619,-8043212.517645342",
        "weight": "664339.0"
      }
    },
    {
      "type": "Feature",
      "id": "552",
      "geometry": {
        "type": "Point",
        "coordinates": [
          -46.031301,
          -43.897023
        ]
      },
      "properties": {
        "label": "Dave Matthews Band",
        "level": 2,
        "pos": "-6786475.651375703,-8881413.269486204",
        "weight": "629789.0"
      }
    },
    {
      "type": "Feature",
      "id": "288",
      "geometry": {
        "type": "Point",
        "coordinates": [
          -45.746839,
          -44.42769
        ]
      },
      "properties": {
        "label": "Blind Melon",
        "level": 3,
        "pos": "-6705232.2337844735,-9054289.82097575",
        "weight": "351969.0"
      }
    },
    {
      "type": "Feature",
      "id": "1459",
      "geometry": {
        "type": "Point",
        "coordinates": [
          -45.772826,
          -45.176181
        ]
      },
      "properties": {
        "label": "Mother Love Bone",
        "level": 4,
        "pos": "-6712654.282752954,-9300817.867316402",
        "weight": "119833.0"
      }
    },
    {
      "type": "Feature",
      "id": "1812",
      "geometry": {
        "type": "Point",
        "coordinates": [
          -45.122607,
          -44.10597
        ]
      },
      "properties": {
        "label": "Screaming Trees",
        "level": 4,
        "pos": "-6526949.040630268,-8949296.912531992",
        "weight": "182602.0"
      }
    },
    {
      "type": "Feature",
      "id": "303",
      "geometry": {
        "type": "Point",
        "coordinates": [
          -46.005168,
          -43.316831
        ]
      },
      "properties": {
        "label": "Blue October",
        "level": 4,
        "pos": "-6779012.0510665625,-8694156.543413179",
        "weight": "223936.0"
      }
    },
    {
      "type": "Feature",
      "id": "1274",
      "geometry": {
        "type": "Point",
        "coordinates": [
          -45.380572,
          -42.698791
        ]
      },
      "properties": {
        "label": "Lit",
        "level": 4,
        "pos": "-6600624.883432764,-8496640.861179098",
        "weight": "192681.0"
      }
    },
    {
      "type": "Feature",
      "id": "1550",
      "geometry": {
        "type": "Point",
        "coordinates": [
          -45.443649,
          -43.173244
        ]
      },
      "properties": {
        "label": "O.A.R.",
        "level": 4,
        "pos": "-6618639.79312592,-8648090.928068986",
        "weight": "141947.0"
      }
    },
    {
      "type": "Feature",
      "id": "248",
      "geometry": {
        "type": "Point",
        "coordinates": [
          -44.764435,
          -33.461495
        ]
      },
      "properties": {
        "label": "Beth Orton",
        "level": 3,
        "pos": "-6424653.568987393,-5747537.444511841",
        "weight": "312380.0"
      }
    },
    {
      "type": "Feature",
      "id": "1793",
      "geometry": {
        "type": "Point",
        "coordinates": [
          -41.736055,
          -34.145181
        ]
      },
      "properties": {
        "label": "Sarah McLachlan",
        "level": 2,
        "pos": "-5559735.78959535,-5939818.815347949",
        "weight": "691754.0"
      }
    },
    {
      "type": "Feature",
      "id": "1762",
      "geometry": {
        "type": "Point",
        "coordinates": [
          -46.86731,
          -35.385103
        ]
      },
      "properties": {
        "label": "Rosie Thomas",
        "level": 4,
        "pos": "-7025243.297016644,-6292560.954527715",
        "weight": "146598.0"
      }
    },
    {
      "type": "Feature",
      "id": "1272",
      "geometry": {
        "type": "Point",
        "coordinates": [
          -43.758308,
          -36.353237
        ]
      },
      "properties": {
        "label": "Lisa Loeb",
        "level": 3,
        "pos": "-6137299.5516132405,-6571764.631174612",
        "weight": "274835.0"
      }
    },
    {
      "type": "Feature",
      "id": "1497",
      "geometry": {
        "type": "Point",
        "coordinates": [
          -42.574524,
          -37.183727
        ]
      },
      "properties": {
        "label": "Natalie Merchant",
        "level": 4,
        "pos": "-5799206.004036819,-6814050.82511605",
        "weight": "241734.0"
      }
    },
    {
      "type": "Feature",
      "id": "58",
      "geometry": {
        "type": "Point",
        "coordinates": [
          -45.597421,
          -34.773096
        ]
      },
      "properties": {
        "label": "Alanis Morissette",
        "level": 2,
        "pos": "-6662557.670236598,-6117790.396650036",
        "weight": "881375.0"
      }
    },
    {
      "type": "Feature",
      "id": "944",
      "geometry": {
        "type": "Point",
        "coordinates": [
          -44.767273,
          -34.641379
        ]
      },
      "properties": {
        "label": "Heather Nova",
        "level": 4,
        "pos": "-6425464.051128805,-6080346.262683894",
        "weight": "228168.0"
      }
    },
    {
      "type": "Feature",
      "id": "1387",
      "geometry": {
        "type": "Point",
        "coordinates": [
          -41.899432,
          -36.920845
        ]
      },
      "properties": {
        "label": "Melissa Etheridge",
        "level": 4,
        "pos": "-5606397.016368694,-6737073.401350692",
        "weight": "181427.0"
      }
    },
    {
      "type": "Feature",
      "id": "128",
      "geometry": {
        "type": "Point",
        "coordinates": [
          -45.576044,
          -35.443364
        ]
      },
      "properties": {
        "label": "Anna Nalick",
        "level": 3,
        "pos": "-6656452.353301019,-6309267.30529623",
        "weight": "305049.0"
      }
    },
    {
      "type": "Feature",
      "id": "427",
      "geometry": {
        "type": "Point",
        "coordinates": [
          -44.200988,
          -34.980898
        ]
      },
      "properties": {
        "label": "Chantal Kreviazuk",
        "level": 4,
        "pos": "-6263730.691440774,-6176985.50879521",
        "weight": "149221.0"
      }
    },
    {
      "type": "Feature",
      "id": "1068",
      "geometry": {
        "type": "Point",
        "coordinates": [
          -44.313191,
          -35.591972
        ]
      },
      "properties": {
        "label": "Jewel",
        "level": 3,
        "pos": "-6295776.4794566035,-6351935.322654006",
        "weight": "485526.0"
      }
    },
    {
      "type": "Feature",
      "id": "1653",
      "geometry": {
        "type": "Point",
        "coordinates": [
          -45.500828,
          -36.251054
        ]
      },
      "properties": {
        "label": "Poe",
        "level": 4,
        "pos": "-6634970.503803305,-6542133.744988122",
        "weight": "170106.0"
      }
    },
    {
      "type": "Feature",
      "id": "2346",
      "geometry": {
        "type": "Point",
        "coordinates": [
          -44.90856,
          -35.924109
        ]
      },
      "properties": {
        "label": "Tori Amos",
        "level": 2,
        "pos": "-6465816.326549377,-6447585.592357677",
        "weight": "698337.0"
      }
    },
    {
      "type": "Feature",
      "id": "132",
      "geometry": {
        "type": "Point",
        "coordinates": [
          -37.222939,
          -32.544193
        ]
      },
      "properties": {
        "label": "Annie Lennox",
        "level": 3,
        "pos": "-4270771.550810992,-5491917.314594396",
        "weight": "363635.0"
      }
    },
    {
      "type": "Feature",
      "id": "1056",
      "geometry": {
        "type": "Point",
        "coordinates": [
          -44.442429,
          -36.352583
        ]
      },
      "properties": {
        "label": "Jem",
        "level": 3,
        "pos": "-6332687.457963988,-6571574.840873485",
        "weight": "484415.0"
      }
    },
    {
      "type": "Feature",
      "id": "604",
      "geometry": {
        "type": "Point",
        "coordinates": [
          -44.481927,
          -37.128843
        ]
      },
      "properties": {
        "label": "Dido",
        "level": 1,
        "pos": "-6343968.027686802,-6797957.642391857",
        "weight": "957515.0"
      }
    },
    {
      "type": "Feature",
      "id": "433",
      "geometry": {
        "type": "Point",
        "coordinates": [
          -46.044996,
          -38.007456
        ]
      },
      "properties": {
        "label": "Charlotte Martin",
        "level": 4,
        "pos": "-6790387.131834085,-7057010.617245203",
        "weight": "106886.0"
      }
    },
    {
      "type": "Feature",
      "id": "2471",
      "geometry": {
        "type": "Point",
        "coordinates": [
          -45.467591,
          -38.39638
        ]
      },
      "properties": {
        "label": "Yael Naim",
        "level": 4,
        "pos": "-6625477.814938777,-7172671.608675953",
        "weight": "120779.0"
      }
    },
    {
      "type": "Feature",
      "id": "1581",
      "geometry": {
        "type": "Point",
        "coordinates": [
          -48.634851,
          -36.235786
        ]
      },
      "properties": {
        "label": "P!nk",
        "level": 3,
        "pos": "-7530060.31979567,-6537709.717004936",
        "weight": "293683.0"
      }
    },
    {
      "type": "Feature",
      "id": "183",
      "geometry": {
        "type": "Point",
        "coordinates": [
          -48.020586,
          -35.937614
        ]
      },
      "properties": {
        "label": "Auf der Maur",
        "level": 4,
        "pos": "-7354623.725890253,-6451483.188149428",
        "weight": "116032.0"
      }
    },
    {
      "type": "Feature",
      "id": "1247",
      "geometry": {
        "type": "Point",
        "coordinates": [
          -47.470477,
          -35.698964
        ]
      },
      "properties": {
        "label": "Lene Marlin",
        "level": 4,
        "pos": "-7197510.176444836,-6382703.668269184",
        "weight": "159518.0"
      }
    },
    {
      "type": "Feature",
      "id": "1846",
      "geometry": {
        "type": "Point",
        "coordinates": [
          -47.234892,
          -35.5891
        ]
      },
      "properties": {
        "label": "Shivaree",
        "level": 4,
        "pos": "-7130226.30872862,-6351110.045909377",
        "weight": "164910.0"
      }
    },
    {
      "type": "Feature",
      "id": "1145",
      "geometry": {
        "type": "Point",
        "coordinates": [
          -47.253018,
          -36.176244
        ]
      },
      "properties": {
        "label": "K's Choice",
        "level": 4,
        "pos": "-7135402.967182247,-6520464.730344581",
        "weight": "175853.0"
      }
    },
    {
      "type": "Feature",
      "id": "1341",
      "geometry": {
        "type": "Point",
        "coordinates": [
          -47.32492,
          -36.131569
        ]
      },
      "properties": {
        "label": "Maria Mena",
        "level": 4,
        "pos": "-7155938.508226676,-6507534.591334216",
        "weight": "266367.0"
      }
    },
    {
      "type": "Feature",
      "id": "1209",
      "geometry": {
        "type": "Point",
        "coordinates": [
          -48.522189,
          -37.28449
        ]
      },
      "properties": {
        "label": "KT Tunstall",
        "level": 2,
        "pos": "-7497883.394095402,-6843627.238110871",
        "weight": "684225.0"
      }
    },
    {
      "type": "Feature",
      "id": "1684",
      "geometry": {
        "type": "Point",
        "coordinates": [
          -48.49437,
          -36.881481
        ]
      },
      "properties": {
        "label": "Rachael Yamagata",
        "level": 3,
        "pos": "-7489938.4013955835,-6725569.750386564",
        "weight": "348857.0"
      }
    },
    {
      "type": "Feature",
      "id": "1005",
      "geometry": {
        "type": "Point",
        "coordinates": [
          -47.978207,
          -37.110525
        ]
      },
      "properties": {
        "label": "Ingrid Michaelson",
        "level": 4,
        "pos": "-7342519.980215753,-6792588.883069564",
        "weight": "254827.0"
      }
    },
    {
      "type": "Feature",
      "id": "2362",
      "geometry": {
        "type": "Point",
        "coordinates": [
          -47.933923,
          -36.500049
        ]
      },
      "properties": {
        "label": "Tristan Prettyman",
        "level": 4,
        "pos": "-7329872.374104118,-6614405.324683575",
        "weight": "153970.0"
      }
    },
    {
      "type": "Feature",
      "id": "44",
      "geometry": {
        "type": "Point",
        "coordinates": [
          -47.897574,
          -37.219078
        ]
      },
      "properties": {
        "label": "A Fine Frenzy",
        "level": 4,
        "pos": "-7319490.912008713,-6824422.64720183",
        "weight": "229882.0"
      }
    },
    {
      "type": "Feature",
      "id": "1437",
      "geometry": {
        "type": "Point",
        "coordinates": [
          -47.412923,
          -37.009452
        ]
      },
      "properties": {
        "label": "Missy Higgins",
        "level": 4,
        "pos": "-7181072.465262885,-6762989.478886299",
        "weight": "190785.0"
      }
    },
    {
      "type": "Feature",
      "id": "378",
      "geometry": {
        "type": "Point",
        "coordinates": [
          -47.620032,
          -36.745468
        ]
      },
      "properties": {
        "label": "Butterfly Boucher",
        "level": 4,
        "pos": "-7240223.621492809,-6685866.803891803",
        "weight": "115527.0"
      }
    },
    {
      "type": "Feature",
      "id": "1510",
      "geometry": {
        "type": "Point",
        "coordinates": [
          -48.329727,
          -36.765182
        ]
      },
      "properties": {
        "label": "Nerina Pallot",
        "level": 4,
        "pos": "-7442915.552298778,-6691616.926700915",
        "weight": "142913.0"
      }
    },
    {
      "type": "Feature",
      "id": "1790",
      "geometry": {
        "type": "Point",
        "coordinates": [
          -48.156493,
          -37.32085
        ]
      },
      "properties": {
        "label": "Sara Bareilles",
        "level": 3,
        "pos": "-7393439.135319952,-6854309.692552155",
        "weight": "351048.0"
      }
    },
    {
      "type": "Feature",
      "id": "1159",
      "geometry": {
        "type": "Point",
        "coordinates": [
          -49.000411,
          -37.195573
        ]
      },
      "properties": {
        "label": "Kate Havnevik",
        "level": 4,
        "pos": "-7634465.570198025,-6817526.013392036",
        "weight": "111383.0"
      }
    },
    {
      "type": "Feature",
      "id": "1794",
      "geometry": {
        "type": "Point",
        "coordinates": [
          -46.380956,
          -36.558383
        ]
      },
      "properties": {
        "label": "Sarah Slean",
        "level": 4,
        "pos": "-6886338.459645104,-6631370.3842868935",
        "weight": "100375.0"
      }
    },
    {
      "type": "Feature",
      "id": "2099",
      "geometry": {
        "type": "Point",
        "coordinates": [
          -47.112707,
          -36.909489
        ]
      },
      "properties": {
        "label": "The Corrs",
        "level": 3,
        "pos": "-7095329.544197519,-6733753.975828345",
        "weight": "438374.0"
      }
    },
    {
      "type": "Feature",
      "id": "2410",
      "geometry": {
        "type": "Point",
        "coordinates": [
          -48.746577,
          -37.587514
        ]
      },
      "properties": {
        "label": "Veruca Salt",
        "level": 4,
        "pos": "-7561969.6311884625,-6932812.162247363",
        "weight": "124495.0"
      }
    },
    {
      "type": "Feature",
      "id": "851",
      "geometry": {
        "type": "Point",
        "coordinates": [
          -49.264749,
          -37.786272
        ]
      },
      "properties": {
        "label": "Garbage",
        "level": 2,
        "pos": "-7709961.530670149,-6991507.325552041",
        "weight": "824282.0"
      }
    },
    {
      "type": "Feature",
      "id": "1647",
      "geometry": {
        "type": "Point",
        "coordinates": [
          -47.858038,
          -37.97986
        ]
      },
      "properties": {
        "label": "PJ Harvey",
        "level": 2,
        "pos": "-7308199.11695277,-7048827.328859299",
        "weight": "711575.0"
      }
    },
    {
      "type": "Feature",
      "id": "1860",
      "geometry": {
        "type": "Point",
        "coordinates": [
          -36.705306,
          -36.434668
        ]
      },
      "properties": {
        "label": "Sin\u00e9ad O'Connor",
        "level": 3,
        "pos": "-4122933.417894169,-6595405.834146958",
        "weight": "431116.0"
      }
    },
    {
      "type": "Feature",
      "id": "1814",
      "geometry": {
        "type": "Point",
        "coordinates": [
          -36.811071,
          -35.655853
        ]
      },
      "properties": {
        "label": "Seal",
        "level": 3,
        "pos": "-4153140.3491533995,-6370300.924786484",
        "weight": "407957.0"
      }
    },
    {
      "type": "Feature",
      "id": "454",
      "geometry": {
        "type": "Point",
        "coordinates": [
          -32.652334,
          -31.02099
        ]
      },
      "properties": {
        "label": "Chris Isaak",
        "level": 3,
        "pos": "-2965387.8396473518,-5073137.233171105",
        "weight": "294773.0"
      }
    },
    {
      "type": "Feature",
      "id": "997",
      "geometry": {
        "type": "Point",
        "coordinates": [
          -47.122118,
          -38.609213
        ]
      },
      "properties": {
        "label": "Imogen Heap",
        "level": 2,
        "pos": "-7098017.616601174,-7236228.443384816",
        "weight": "677093.0"
      }
    },
    {
      "type": "Feature",
      "id": "830",
      "geometry": {
        "type": "Point",
        "coordinates": [
          -47.379659,
          -38.253934
        ]
      },
      "properties": {
        "label": "Frou Frou",
        "level": 2,
        "pos": "-7171572.2355217645,-7130238.245375357",
        "weight": "640714.0"
      }
    },
    {
      "type": "Feature",
      "id": "272",
      "geometry": {
        "type": "Point",
        "coordinates": [
          -46.874138,
          -37.825714
        ]
      },
      "properties": {
        "label": "Bitter:Sweet",
        "level": 4,
        "pos": "-7027193.270914528,-7003173.485429076",
        "weight": "122634.0"
      }
    },
    {
      "type": "Feature",
      "id": "1498",
      "geometry": {
        "type": "Point",
        "coordinates": [
          -47.730346,
          -38.94607
        ]
      },
      "properties": {
        "label": "Natasha Bedingfield",
        "level": 2,
        "pos": "-7271729.849377006,-7337208.9415967185",
        "weight": "634312.0"
      }
    },
    {
      "type": "Feature",
      "id": "500",
      "geometry": {
        "type": "Point",
        "coordinates": [
          -13.819506,
          23.247953
        ]
      },
      "properties": {
        "label": "Cowboy Junkies",
        "level": 4,
        "pos": "2413344.8049483723,8147401.070536237",
        "weight": "137255.0"
      }
    },
    {
      "type": "Feature",
      "id": "723",
      "geometry": {
        "type": "Point",
        "coordinates": [
          -14.187909,
          20.07532
        ]
      },
      "properties": {
        "label": "Emmylou Harris",
        "level": 4,
        "pos": "2308127.332687297,7349496.153675977",
        "weight": "142511.0"
      }
    },
    {
      "type": "Feature",
      "id": "1168",
      "geometry": {
        "type": "Point",
        "coordinates": [
          -14.320067,
          15.818947
        ]
      },
      "properties": {
        "label": "k.d. lang",
        "level": 4,
        "pos": "2270382.635159179,6303630.429880499",
        "weight": "123677.0"
      }
    },
    {
      "type": "Feature",
      "id": "1304",
      "geometry": {
        "type": "Point",
        "coordinates": [
          -13.541888,
          22.704731
        ]
      },
      "properties": {
        "label": "Lucinda Williams",
        "level": 4,
        "pos": "2492633.6978281853,8009512.281762303",
        "weight": "159513.0"
      }
    },
    {
      "type": "Feature",
      "id": "1951",
      "geometry": {
        "type": "Point",
        "coordinates": [
          -13.904675,
          23.258068
        ]
      },
      "properties": {
        "label": "Steve Earle",
        "level": 4,
        "pos": "2389020.281769497,8149973.976676129",
        "weight": "143243.0"
      }
    },
    {
      "type": "Feature",
      "id": "78",
      "geometry": {
        "type": "Point",
        "coordinates": [
          -13.556654,
          23.846751
        ]
      },
      "properties": {
        "label": "Alison Krauss",
        "level": 4,
        "pos": "2488416.2677590847,8300049.936313692",
        "weight": "175981.0"
      }
    },
    {
      "type": "Feature",
      "id": "640",
      "geometry": {
        "type": "Point",
        "coordinates": [
          -13.427857,
          23.162552
        ]
      },
      "properties": {
        "label": "Dolly Parton",
        "level": 4,
        "pos": "2525201.442059506,8125686.645446607",
        "weight": "224160.0"
      }
    },
    {
      "type": "Feature",
      "id": "1835",
      "geometry": {
        "type": "Point",
        "coordinates": [
          -13.752891,
          19.29315
        ]
      },
      "properties": {
        "label": "Shawn Colvin",
        "level": 4,
        "pos": "2432370.384127805,7155359.5734995315",
        "weight": "171442.0"
      }
    },
    {
      "type": "Feature",
      "id": "323",
      "geometry": {
        "type": "Point",
        "coordinates": [
          -12.823258,
          12.112001
        ]
      },
      "properties": {
        "label": "Bonnie Raitt",
        "level": 4,
        "pos": "2697877.136743719,5410769.785031818",
        "weight": "156706.0"
      }
    },
    {
      "type": "Feature",
      "id": "249",
      "geometry": {
        "type": "Point",
        "coordinates": [
          -14.349165,
          19.181126
        ]
      },
      "properties": {
        "label": "Bette Midler",
        "level": 4,
        "pos": "2262072.0120962393,7127631.7366256295",
        "weight": "139097.0"
      }
    },
    {
      "type": "Feature",
      "id": "2381",
      "geometry": {
        "type": "Point",
        "coordinates": [
          -13.575543,
          26.207531
        ]
      },
      "properties": {
        "label": "Uncle Tupelo",
        "level": 4,
        "pos": "2483021.481799757,8908985.849617612",
        "weight": "121825.0"
      }
    },
    {
      "type": "Feature",
      "id": "622",
      "geometry": {
        "type": "Point",
        "coordinates": [
          -13.664076,
          27.326226
        ]
      },
      "properties": {
        "label": "Dixie Chicks",
        "level": 4,
        "pos": "2457736.075073665,9201803.350388875",
        "weight": "241869.0"
      }
    },
    {
      "type": "Feature",
      "id": "504",
      "geometry": {
        "type": "Point",
        "coordinates": [
          -42.295958,
          -41.81109
        ]
      },
      "properties": {
        "label": "Crash Test Dummies",
        "level": 4,
        "pos": "-5719646.455134708,-8216353.099983086",
        "weight": "186053.0"
      }
    },
    {
      "type": "Feature",
      "id": "499",
      "geometry": {
        "type": "Point",
        "coordinates": [
          -40.30817,
          -40.136966
        ]
      },
      "properties": {
        "label": "Counting Crows",
        "level": 1,
        "pos": "-5151926.070069523,-7698117.606768637",
        "weight": "898958.0"
      }
    },
    {
      "type": "Feature",
      "id": "210",
      "geometry": {
        "type": "Point",
        "coordinates": [
          -42.904128,
          -41.795789
        ]
      },
      "properties": {
        "label": "Barenaked Ladies",
        "level": 3,
        "pos": "-5893342.385714508,-8211556.218013074",
        "weight": "410376.0"
      }
    },
    {
      "type": "Feature",
      "id": "1278",
      "geometry": {
        "type": "Point",
        "coordinates": [
          -43.733873,
          -41.839979
        ]
      },
      "properties": {
        "label": "Live",
        "level": 3,
        "pos": "-6130320.755063502,-8225413.090856206",
        "weight": "509553.0"
      }
    },
    {
      "type": "Feature",
      "id": "2409",
      "geometry": {
        "type": "Point",
        "coordinates": [
          -43.022363,
          -41.513625
        ]
      },
      "properties": {
        "label": "Vertical Horizon",
        "level": 3,
        "pos": "-5927110.727360156,-8123301.433112973",
        "weight": "272035.0"
      }
    },
    {
      "type": "Feature",
      "id": "375",
      "geometry": {
        "type": "Point",
        "coordinates": [
          -45.10656,
          -44.717094
        ]
      },
      "properties": {
        "label": "Bush",
        "level": 2,
        "pos": "-6522365.817277833,-9149231.011647956",
        "weight": "546559.0"
      }
    },
    {
      "type": "Feature",
      "id": "2084",
      "geometry": {
        "type": "Point",
        "coordinates": [
          -44.123201,
          -44.137164
        ]
      },
      "properties": {
        "label": "The Calling",
        "level": 3,
        "pos": "-6241514.430671098,-8959451.8282264",
        "weight": "385698.0"
      }
    },
    {
      "type": "Feature",
      "id": "545",
      "geometry": {
        "type": "Point",
        "coordinates": [
          6.478847,
          5.326485
        ]
      },
      "properties": {
        "label": "Dar Williams",
        "level": 4,
        "pos": "8210637.421481457,3805497.027824578",
        "weight": "143227.0"
      }
    },
    {
      "type": "Feature",
      "id": "123",
      "geometry": {
        "type": "Point",
        "coordinates": [
          3.808484,
          6.417286
        ]
      },
      "properties": {
        "label": "Ani DiFranco",
        "level": 3,
        "pos": "7447970.841509072,4061761.6153781116",
        "weight": "312705.0"
      }
    },
    {
      "type": "Feature",
      "id": "2412",
      "geometry": {
        "type": "Point",
        "coordinates": [
          9.172085,
          4.383558
        ]
      },
      "properties": {
        "label": "Vienna Teng",
        "level": 4,
        "pos": "8979837.316492392,3584342.5961601366",
        "weight": "138324.0"
      }
    },
    {
      "type": "Feature",
      "id": "792",
      "geometry": {
        "type": "Point",
        "coordinates": [
          7.177754,
          5.273348
        ]
      },
      "properties": {
        "label": "Fiona Apple",
        "level": 2,
        "pos": "8410248.187015163,3793025.7611079896",
        "weight": "652836.0"
      }
    },
    {
      "type": "Feature",
      "id": "554",
      "geometry": {
        "type": "Point",
        "coordinates": [
          -17.002313,
          -41.439012
        ]
      },
      "properties": {
        "label": "David Byrne",
        "level": 4,
        "pos": "1504322.0239753055,-8100028.49296381",
        "weight": "155448.0"
      }
    },
    {
      "type": "Feature",
      "id": "2005",
      "geometry": {
        "type": "Point",
        "coordinates": [
          -19.10093,
          -39.801236
        ]
      },
      "properties": {
        "label": "Talking Heads",
        "level": 2,
        "pos": "904948.5919749249,-7595742.7797422325",
        "weight": "626936.0"
      }
    },
    {
      "type": "Feature",
      "id": "2416",
      "geometry": {
        "type": "Point",
        "coordinates": [
          -17.432174,
          -42.980117
        ]
      },
      "properties": {
        "label": "Violent Femmes",
        "level": 3,
        "pos": "1381551.8922274723,-8586301.825730056",
        "weight": "391223.0"
      }
    },
    {
      "type": "Feature",
      "id": "2054",
      "geometry": {
        "type": "Point",
        "coordinates": [
          -19.105741,
          -36.101715
        ]
      },
      "properties": {
        "label": "The B-52's",
        "level": 3,
        "pos": "903574.4777734809,-6498897.951771516",
        "weight": "307010.0"
      }
    },
    {
      "type": "Feature",
      "id": "2080",
      "geometry": {
        "type": "Point",
        "coordinates": [
          -16.386159,
          -45.1725
        ]
      },
      "properties": {
        "label": "The Breeders",
        "level": 4,
        "pos": "1680298.0877994518,-9299597.473312857",
        "weight": "200250.0"
      }
    },
    {
      "type": "Feature",
      "id": "1646",
      "geometry": {
        "type": "Point",
        "coordinates": [
          -16.019201,
          -45.98018
        ]
      },
      "properties": {
        "label": "Pixies",
        "level": 1,
        "pos": "1785102.9525997657,-9569265.860767884",
        "weight": "962774.0"
      }
    },
    {
      "type": "Feature",
      "id": "2232",
      "geometry": {
        "type": "Point",
        "coordinates": [
          -16.983741,
          -45.379433
        ]
      },
      "properties": {
        "label": "The Replacements",
        "level": 4,
        "pos": "1509626.2105952404,-9368319.966406561",
        "weight": "153863.0"
      }
    },
    {
      "type": "Feature",
      "id": "1910",
      "geometry": {
        "type": "Point",
        "coordinates": [
          -18.01112,
          -45.36478
        ]
      },
      "properties": {
        "label": "Soul Coughing",
        "level": 4,
        "pos": "1216202.643337445,-9363445.304157395",
        "weight": "159918.0"
      }
    },
    {
      "type": "Feature",
      "id": "387",
      "geometry": {
        "type": "Point",
        "coordinates": [
          -16.388766,
          -46.441209
        ]
      },
      "properties": {
        "label": "Cake",
        "level": 2,
        "pos": "1679553.6458817308,-9724959.916990513",
        "weight": "742723.0"
      }
    },
    {
      "type": "Feature",
      "id": "2134",
      "geometry": {
        "type": "Point",
        "coordinates": [
          -18.088896,
          -46.020094
        ]
      },
      "properties": {
        "label": "The Flaming Lips",
        "level": 2,
        "pos": "1193989.514668182,-9582693.610157637",
        "weight": "830685.0"
      }
    },
    {
      "type": "Feature",
      "id": "818",
      "geometry": {
        "type": "Point",
        "coordinates": [
          -18.680957,
          -45.189174
        ]
      },
      "properties": {
        "label": "Frank Black",
        "level": 4,
        "pos": "1024894.5279796703,-9305125.476955084",
        "weight": "136103.0"
      }
    },
    {
      "type": "Feature",
      "id": "2291",
      "geometry": {
        "type": "Point",
        "coordinates": [
          -16.926306,
          -46.100419
        ]
      },
      "properties": {
        "label": "The White Stripes",
        "level": 1,
        "pos": "1526029.9230520206,-9609745.98735816",
        "weight": "1242635.0"
      }
    },
    {
      "type": "Feature",
      "id": "2086",
      "geometry": {
        "type": "Point",
        "coordinates": [
          -19.984158,
          -32.320939
        ]
      },
      "properties": {
        "label": "The Cars",
        "level": 3,
        "pos": "652695.0478425656,-5430102.026075156",
        "weight": "338676.0"
      }
    },
    {
      "type": "Feature",
      "id": "1002",
      "geometry": {
        "type": "Point",
        "coordinates": [
          3.139595,
          6.854455
        ]
      },
      "properties": {
        "label": "Indigo Girls",
        "level": 4,
        "pos": "7256933.377466055,4164615.621842069",
        "weight": "175174.0"
      }
    },
    {
      "type": "Feature",
      "id": "1602",
      "geometry": {
        "type": "Point",
        "coordinates": [
          5.903275,
          6.102586
        ]
      },
      "properties": {
        "label": "Patty Griffin",
        "level": 4,
        "pos": "8046251.605228586,3987776.146576232",
        "weight": "129702.0"
      }
    },
    {
      "type": "Feature",
      "id": "2062",
      "geometry": {
        "type": "Point",
        "coordinates": [
          8.681777,
          5.66527
        ]
      },
      "properties": {
        "label": "The Be Good Tanyas",
        "level": 4,
        "pos": "8839803.373863442,3885035.4887505537",
        "weight": "104608.0"
      }
    },
    {
      "type": "Feature",
      "id": "750",
      "geometry": {
        "type": "Point",
        "coordinates": [
          6.997091,
          7.141509
        ]
      },
      "properties": {
        "label": "Eva Cassidy",
        "level": 3,
        "pos": "8358650.1507629,4232202.782685116",
        "weight": "309373.0"
      }
    },
    {
      "type": "Feature",
      "id": "1232",
      "geometry": {
        "type": "Point",
        "coordinates": [
          3.024564,
          10.468649
        ]
      },
      "properties": {
        "label": "Laura Marling",
        "level": 4,
        "pos": "7224080.151698663,5019131.343210263",
        "weight": "233069.0"
      }
    },
    {
      "type": "Feature",
      "id": "104",
      "geometry": {
        "type": "Point",
        "coordinates": [
          2.332166,
          10.641056
        ]
      },
      "properties": {
        "label": "Amos Lee",
        "level": 3,
        "pos": "7026328.2803526325,5060115.651131454",
        "weight": "276612.0"
      }
    },
    {
      "type": "Feature",
      "id": "1250",
      "geometry": {
        "type": "Point",
        "coordinates": [
          -6.866272,
          9.302623
        ]
      },
      "properties": {
        "label": "Leonard Cohen",
        "level": 3,
        "pos": "4399216.765518626,4742523.50382749",
        "weight": "536625.0"
      }
    },
    {
      "type": "Feature",
      "id": "1279",
      "geometry": {
        "type": "Point",
        "coordinates": [
          -41.363314,
          -35.499693
        ]
      },
      "properties": {
        "label": "Liz Phair",
        "level": 3,
        "pos": "-5453279.560851383,-6325431.106515003",
        "weight": "271289.0"
      }
    },
    {
      "type": "Feature",
      "id": "1839",
      "geometry": {
        "type": "Point",
        "coordinates": [
          -38.220161,
          -35.773483
        ]
      },
      "properties": {
        "label": "Sheryl Crow",
        "level": 2,
        "pos": "-4555582.097041328,-6404158.050258409",
        "weight": "605660.0"
      }
    },
    {
      "type": "Feature",
      "id": "1080",
      "geometry": {
        "type": "Point",
        "coordinates": [
          -41.005075,
          -36.091329
        ]
      },
      "properties": {
        "label": "Joan Osborne",
        "level": 4,
        "pos": "-5350964.883637808,-6495894.312872976",
        "weight": "205205.0"
      }
    },
    {
      "type": "Feature",
      "id": "1393",
      "geometry": {
        "type": "Point",
        "coordinates": [
          -39.827495,
          -37.992706
        ]
      },
      "properties": {
        "label": "Meredith Brooks",
        "level": 4,
        "pos": "-5014643.236688069,-7052636.348891413",
        "weight": "161543.0"
      }
    },
    {
      "type": "Feature",
      "id": "52",
      "geometry": {
        "type": "Point",
        "coordinates": [
          -41.231978,
          -36.738096
        ]
      },
      "properties": {
        "label": "Aimee Mann",
        "level": 3,
        "pos": "-5415769.381141819,-6683716.832544578",
        "weight": "460640.0"
      }
    },
    {
      "type": "Feature",
      "id": "1496",
      "geometry": {
        "type": "Point",
        "coordinates": [
          -41.478007,
          -37.661689
        ]
      },
      "properties": {
        "label": "Natalie Imbruglia",
        "level": 2,
        "pos": "-5486036.313930015,-6954698.342842126",
        "weight": "556836.0"
      }
    },
    {
      "type": "Feature",
      "id": "1411",
      "geometry": {
        "type": "Point",
        "coordinates": [
          -40.784086,
          -37.263506
        ]
      },
      "properties": {
        "label": "Michelle Branch",
        "level": 3,
        "pos": "-5287849.599477975,-6837464.734726964",
        "weight": "440679.0"
      }
    },
    {
      "type": "Feature",
      "id": "2034",
      "geometry": {
        "type": "Point",
        "coordinates": [
          -40.533471,
          -37.89644
        ]
      },
      "properties": {
        "label": "Texas",
        "level": 3,
        "pos": "-5216273.015232474,-7024108.912695857",
        "weight": "311809.0"
      }
    },
    {
      "type": "Feature",
      "id": "2085",
      "geometry": {
        "type": "Point",
        "coordinates": [
          -44.497536,
          -39.265844
        ]
      },
      "properties": {
        "label": "The Cardigans",
        "level": 2,
        "pos": "-6348426.1533636665,-7433513.128703478",
        "weight": "804033.0"
      }
    },
    {
      "type": "Feature",
      "id": "863",
      "geometry": {
        "type": "Point",
        "coordinates": [
          -43.377537,
          -39.690368
        ]
      },
      "properties": {
        "label": "Geri Halliwell",
        "level": 4,
        "pos": "-6028549.831360197,-7562045.616370314",
        "weight": "163415.0"
      }
    },
    {
      "type": "Feature",
      "id": "722",
      "geometry": {
        "type": "Point",
        "coordinates": [
          -43.882886,
          -38.958619
        ]
      },
      "properties": {
        "label": "Emma Bunton",
        "level": 4,
        "pos": "-6172879.632531465,-7340979.84806343",
        "weight": "126484.0"
      }
    },
    {
      "type": "Feature",
      "id": "538",
      "geometry": {
        "type": "Point",
        "coordinates": [
          -44.387756,
          -38.446542
        ]
      },
      "properties": {
        "label": "Dannii Minogue",
        "level": 4,
        "pos": "-6317072.588404523,-7187634.255726886",
        "weight": "153685.0"
      }
    },
    {
      "type": "Feature",
      "id": "83",
      "geometry": {
        "type": "Point",
        "coordinates": [
          -43.883938,
          -39.5612
        ]
      },
      "properties": {
        "label": "All Saints",
        "level": 3,
        "pos": "-6173180.0030724825,-7522854.451514283",
        "weight": "281514.0"
      }
    },
    {
      "type": "Feature",
      "id": "2395",
      "geometry": {
        "type": "Point",
        "coordinates": [
          -42.948699,
          -39.250586
        ]
      },
      "properties": {
        "label": "Vanessa Carlton",
        "level": 3,
        "pos": "-5906071.904276328,-7428907.76229053",
        "weight": "403428.0"
      }
    },
    {
      "type": "Feature",
      "id": "2294",
      "geometry": {
        "type": "Point",
        "coordinates": [
          -42.345818,
          -39.461577
        ]
      },
      "properties": {
        "label": "The Wreckers",
        "level": 4,
        "pos": "-5733886.703038282,-7492677.31698855",
        "weight": "105282.0"
      }
    },
    {
      "type": "Feature",
      "id": "395",
      "geometry": {
        "type": "Point",
        "coordinates": [
          -48.370213,
          -39.937547
        ]
      },
      "properties": {
        "label": "Camille",
        "level": 4,
        "pos": "-7454478.5073273955,-7637247.956064581",
        "weight": "202716.0"
      }
    },
    {
      "type": "Feature",
      "id": "432",
      "geometry": {
        "type": "Point",
        "coordinates": [
          -47.083329,
          -40.423023
        ]
      },
      "properties": {
        "label": "Charlotte Gainsbourg",
        "level": 4,
        "pos": "-7086939.32496475,-7785745.386368201",
        "weight": "161105.0"
      }
    },
    {
      "type": "Feature",
      "id": "1180",
      "geometry": {
        "type": "Point",
        "coordinates": [
          -47.687263,
          -40.003319
        ]
      },
      "properties": {
        "label": "Keren Ann",
        "level": 4,
        "pos": "-7259425.186802016,-7657304.097713699",
        "weight": "190357.0"
      }
    },
    {
      "type": "Feature",
      "id": "404",
      "geometry": {
        "type": "Point",
        "coordinates": [
          -48.024662,
          -39.335561
        ]
      },
      "properties": {
        "label": "Carla Bruni",
        "level": 4,
        "pos": "-7355787.674642474,-7454567.364266646",
        "weight": "241038.0"
      }
    },
    {
      "type": "Feature",
      "id": "1594",
      "geometry": {
        "type": "Point",
        "coordinates": [
          -46.545904,
          -42.269802
        ]
      },
      "properties": {
        "label": "Paris Combo",
        "level": 4,
        "pos": "-6933448.357344353,-8360696.768001419",
        "weight": "113716.0"
      }
    },
    {
      "type": "Feature",
      "id": "2398",
      "geometry": {
        "type": "Point",
        "coordinates": [
          -46.394711,
          -42.779863
        ]
      },
      "properties": {
        "label": "Vanessa Paradis",
        "level": 4,
        "pos": "-6890266.941822959,-8522437.346896296",
        "weight": "113609.0"
      }
    },
    {
      "type": "Feature",
      "id": "1827",
      "geometry": {
        "type": "Point",
        "coordinates": [
          -45.325158,
          -42.037955
        ]
      },
      "properties": {
        "label": "Serge Gainsbourg",
        "level": 4,
        "pos": "-6584798.38634756,-8287610.844110395",
        "weight": "234416.0"
      }
    },
    {
      "type": "Feature",
      "id": "1605",
      "geometry": {
        "type": "Point",
        "coordinates": [
          -14.97258,
          19.272127
        ]
      },
      "properties": {
        "label": "Paula Cole",
        "level": 4,
        "pos": "2084022.0530263,7150154.421678883",
        "weight": "176111.0"
      }
    },
    {
      "type": "Feature",
      "id": "668",
      "geometry": {
        "type": "Point",
        "coordinates": [
          -14.007515,
          22.156461
        ]
      },
      "properties": {
        "label": "Duncan Sheik",
        "level": 4,
        "pos": "2359648.5335734026,7870895.672361199",
        "weight": "101168.0"
      }
    },
    {
      "type": "Feature",
      "id": "2402",
      "geometry": {
        "type": "Point",
        "coordinates": [
          -9.849325,
          10.345176
        ]
      },
      "properties": {
        "label": "Van Morrison",
        "level": 2,
        "pos": "3547244.8262071647,4989793.405712053",
        "weight": "650090.0"
      }
    },
    {
      "type": "Feature",
      "id": "1716",
      "geometry": {
        "type": "Point",
        "coordinates": [
          -33.125246,
          -39.497428
        ]
      },
      "properties": {
        "label": "R.E.M.",
        "level": 1,
        "pos": "-3100453.530093587,-7503532.138284811",
        "weight": "1314084.0"
      }
    },
    {
      "type": "Feature",
      "id": "1534",
      "geometry": {
        "type": "Point",
        "coordinates": [
          -39.451338,
          -43.58148
        ]
      },
      "properties": {
        "label": "Nine Days",
        "level": 4,
        "pos": "-4907211.473289956,-8779348.016585767",
        "weight": "130850.0"
      }
    },
    {
      "type": "Feature",
      "id": "2177",
      "geometry": {
        "type": "Point",
        "coordinates": [
          -39.9598,
          -44.027137
        ]
      },
      "properties": {
        "label": "The Last Goodnight",
        "level": 4,
        "pos": "-5052430.1827237345,-8923657.073115332",
        "weight": "101507.0"
      }
    },
    {
      "type": "Feature",
      "id": "1746",
      "geometry": {
        "type": "Point",
        "coordinates": [
          -39.291539,
          -44.169657
        ]
      },
      "properties": {
        "label": "Rob Thomas",
        "level": 3,
        "pos": "-4861572.114336148,-8970035.586273536",
        "weight": "269787.0"
      }
    },
    {
      "type": "Feature",
      "id": "1349",
      "geometry": {
        "type": "Point",
        "coordinates": [
          -38.623427,
          -45.020972
        ]
      },
      "properties": {
        "label": "Maroon 5",
        "level": 1,
        "pos": "-4670756.437066397,-9249433.050241515",
        "weight": "1083002.0"
      }
    },
    {
      "type": "Feature",
      "id": "619",
      "geometry": {
        "type": "Point",
        "coordinates": [
          -34.082304,
          -44.5362
        ]
      },
      "properties": {
        "label": "Dishwalla",
        "level": 4,
        "pos": "-3373793.2169394894,-9089831.832126133",
        "weight": "146829.0"
      }
    },
    {
      "type": "Feature",
      "id": "2282",
      "geometry": {
        "type": "Point",
        "coordinates": [
          -35.436744,
          -44.763979
        ]
      },
      "properties": {
        "label": "The Verve Pipe",
        "level": 4,
        "pos": "-3760626.85015226,-9164656.553954685",
        "weight": "171136.0"
      }
    },
    {
      "type": "Feature",
      "id": "754",
      "geometry": {
        "type": "Point",
        "coordinates": [
          -33.39165,
          -44.538084
        ]
      },
      "properties": {
        "label": "Eve 6",
        "level": 3,
        "pos": "-3176539.7618145207,-9090449.81557982",
        "weight": "317568.0"
      }
    },
    {
      "type": "Feature",
      "id": "1339",
      "geometry": {
        "type": "Point",
        "coordinates": [
          -34.737831,
          -44.726155
        ]
      },
      "properties": {
        "label": "Marcy Playground",
        "level": 4,
        "pos": "-3561014.437285232,-9152211.3413068",
        "weight": "244071.0"
      }
    },
    {
      "type": "Feature",
      "id": "2441",
      "geometry": {
        "type": "Point",
        "coordinates": [
          -38.277039,
          -44.440707
        ]
      },
      "properties": {
        "label": "Wheatus",
        "level": 4,
        "pos": "-4571826.776506659,-9058549.77402571",
        "weight": "222176.0"
      }
    },
    {
      "type": "Feature",
      "id": "698",
      "geometry": {
        "type": "Point",
        "coordinates": [
          -34.572646,
          -46.392313
        ]
      },
      "properties": {
        "label": "Electric Six",
        "level": 4,
        "pos": "-3513837.060950217,-9708385.00436932",
        "weight": "228070.0"
      }
    },
    {
      "type": "Feature",
      "id": "1717",
      "geometry": {
        "type": "Point",
        "coordinates": [
          -32.785484,
          -44.231849
        ]
      },
      "properties": {
        "label": "Remy Zero",
        "level": 3,
        "pos": "-3003416.0388418147,-8990309.059477555",
        "weight": "272923.0"
      }
    },
    {
      "type": "Feature",
      "id": "397",
      "geometry": {
        "type": "Point",
        "coordinates": [
          -32.139793,
          -43.290477
        ]
      },
      "properties": {
        "label": "Candlebox",
        "level": 4,
        "pos": "-2819004.284477989,-8685693.569666352",
        "weight": "129066.0"
      }
    },
    {
      "type": "Feature",
      "id": "831",
      "geometry": {
        "type": "Point",
        "coordinates": [
          -31.976145,
          -42.682694
        ]
      },
      "properties": {
        "label": "Fuel",
        "level": 3,
        "pos": "-2772265.68080359,-8491523.039449917",
        "weight": "373212.0"
      }
    },
    {
      "type": "Feature",
      "id": "578",
      "geometry": {
        "type": "Point",
        "coordinates": [
          -31.294154,
          -42.539727
        ]
      },
      "properties": {
        "label": "Default",
        "level": 4,
        "pos": "-2577486.1717797667,-8446125.462345386",
        "weight": "186893.0"
      }
    },
    {
      "type": "Feature",
      "id": "795",
      "geometry": {
        "type": "Point",
        "coordinates": [
          -30.570285,
          -40.956571
        ]
      },
      "properties": {
        "label": "Five for Fighting",
        "level": 3,
        "pos": "-2370746.1553753354,-7950188.622712732",
        "weight": "314892.0"
      }
    },
    {
      "type": "Feature",
      "id": "687",
      "geometry": {
        "type": "Point",
        "coordinates": [
          -31.581731,
          -41.497443
        ]
      },
      "properties": {
        "label": "Edwin McCain",
        "level": 4,
        "pos": "-2659619.2819607467,-8118251.559722257",
        "weight": "107185.0"
      }
    },
    {
      "type": "Feature",
      "id": "1257",
      "geometry": {
        "type": "Point",
        "coordinates": [
          -28.269121,
          -42.887105
        ]
      },
      "properties": {
        "label": "Lifehouse",
        "level": 2,
        "pos": "-1713524.3264593983,-8556612.995397694",
        "weight": "626378.0"
      }
    },
    {
      "type": "Feature",
      "id": "535",
      "geometry": {
        "type": "Point",
        "coordinates": [
          -41.72172,
          -41.889032
        ]
      },
      "properties": {
        "label": "Daniel Powter",
        "level": 3,
        "pos": "-5555641.833057751,-8240806.102180037",
        "weight": "336008.0"
      }
    },
    {
      "type": "Feature",
      "id": "809",
      "geometry": {
        "type": "Point",
        "coordinates": [
          -42.941768,
          -42.159949
        ]
      },
      "properties": {
        "label": "Fool's Garden",
        "level": 4,
        "pos": "-5904092.344920946,-8326034.132991417",
        "weight": "182806.0"
      }
    },
    {
      "type": "Feature",
      "id": "1934",
      "geometry": {
        "type": "Point",
        "coordinates": [
          -42.897222,
          -43.040983
        ]
      },
      "properties": {
        "label": "Staind",
        "level": 2,
        "pos": "-5891369.893053534,-8605754.498385811",
        "weight": "597418.0"
      }
    },
    {
      "type": "Feature",
      "id": "17",
      "geometry": {
        "type": "Point",
        "coordinates": [
          -43.190341,
          -42.581782
        ]
      },
      "properties": {
        "label": "3 Doors Down",
        "level": 1,
        "pos": "-5975085.822752828,-8459468.77899",
        "weight": "949527.0"
      }
    },
    {
      "type": "Feature",
      "id": "89",
      "geometry": {
        "type": "Point",
        "coordinates": [
          -41.965606,
          -42.426716
        ]
      },
      "properties": {
        "label": "Alter Bridge",
        "level": 4,
        "pos": "-5625296.542026707,-8410313.746437712",
        "weight": "231894.0"
      }
    },
    {
      "type": "Feature",
      "id": "1672",
      "geometry": {
        "type": "Point",
        "coordinates": [
          -41.928249,
          -42.861584
        ]
      },
      "properties": {
        "label": "Puddle of Mudd",
        "level": 3,
        "pos": "-5614627.120879362,-8548474.787546406",
        "weight": "394073.0"
      }
    },
    {
      "type": "Feature",
      "id": "1524",
      "geometry": {
        "type": "Point",
        "coordinates": [
          -42.414879,
          -43.293093
        ]
      },
      "properties": {
        "label": "Nickelback",
        "level": 1,
        "pos": "-5753610.893653324,-8686533.376220379",
        "weight": "968277.0"
      }
    },
    {
      "type": "Feature",
      "id": "841",
      "geometry": {
        "type": "Point",
        "coordinates": [
          -41.020179,
          -42.095261
        ]
      },
      "properties": {
        "label": "G. Love & Special Sauce",
        "level": 4,
        "pos": "-5355278.826983868,-8305650.822006015",
        "weight": "192410.0"
      }
    },
    {
      "type": "Feature",
      "id": "758",
      "geometry": {
        "type": "Point",
        "coordinates": [
          -41.024446,
          -42.72778
        ]
      },
      "properties": {
        "label": "Everlast",
        "level": 4,
        "pos": "-5356497.511971539,-8505861.13264067",
        "weight": "207852.0"
      }
    },
    {
      "type": "Feature",
      "id": "1948",
      "geometry": {
        "type": "Point",
        "coordinates": [
          -40.894193,
          -43.396367
        ]
      },
      "properties": {
        "label": "Stereo MC's",
        "level": 4,
        "pos": "-5319296.7406697655,-8719720.35850787",
        "weight": "181042.0"
      }
    },
    {
      "type": "Feature",
      "id": "1269",
      "geometry": {
        "type": "Point",
        "coordinates": [
          -40.361583,
          -42.856209
        ]
      },
      "properties": {
        "label": "Liquido",
        "level": 4,
        "pos": "-5167181.164281115,-8546761.080796558",
        "weight": "114913.0"
      }
    },
    {
      "type": "Feature",
      "id": "1983",
      "geometry": {
        "type": "Point",
        "coordinates": [
          -40.180485,
          -43.438281
        ]
      },
      "properties": {
        "label": "Sunrise Avenue",
        "level": 4,
        "pos": "-5115458.742900569,-8733205.615137279",
        "weight": "181985.0"
      }
    },
    {
      "type": "Feature",
      "id": "1850",
      "geometry": {
        "type": "Point",
        "coordinates": [
          -39.68814,
          -42.992704
        ]
      },
      "properties": {
        "label": "Silbermond",
        "level": 4,
        "pos": "-4974842.973473009,-8590323.162757836",
        "weight": "127642.0"
      }
    },
    {
      "type": "Feature",
      "id": "1664",
      "geometry": {
        "type": "Point",
        "coordinates": [
          -38.977775,
          -43.208227
        ]
      },
      "properties": {
        "label": "Prince & The Revolution",
        "level": 4,
        "pos": "-4771959.908161204,-8659304.026676746",
        "weight": "102950.0"
      }
    },
    {
      "type": "Feature",
      "id": "106",
      "geometry": {
        "type": "Point",
        "coordinates": [
          -50.163171,
          -37.674558
        ]
      },
      "properties": {
        "label": "Amy Macdonald",
        "level": 3,
        "pos": "-7966554.71934583,-6958497.677226467",
        "weight": "327841.0"
      }
    },
    {
      "type": "Feature",
      "id": "481",
      "geometry": {
        "type": "Point",
        "coordinates": [
          -50.447733,
          -37.065291
        ]
      },
      "properties": {
        "label": "Colbie Caillat",
        "level": 3,
        "pos": "-8047826.867158657,-6779337.216219728",
        "weight": "374979.0"
      }
    },
    {
      "type": "Feature",
      "id": "1786",
      "geometry": {
        "type": "Point",
        "coordinates": [
          -50.601578,
          -38.168556
        ]
      },
      "properties": {
        "label": "Sandi Thom",
        "level": 4,
        "pos": "-8091765.52567116,-7104844.726312912",
        "weight": "133781.0"
      }
    },
    {
      "type": "Feature",
      "id": "1848",
      "geometry": {
        "type": "Point",
        "coordinates": [
          -51.845542,
          -38.916072
        ]
      },
      "properties": {
        "label": "Sia",
        "level": 2,
        "pos": "-8447046.569742922,-7328196.957244894",
        "weight": "548364.0"
      }
    },
    {
      "type": "Feature",
      "id": "963",
      "geometry": {
        "type": "Point",
        "coordinates": [
          -51.289558,
          -39.275827
        ]
      },
      "properties": {
        "label": "Hole",
        "level": 3,
        "pos": "-8288255.537508227,-7436526.598889128",
        "weight": "360592.0"
      }
    },
    {
      "type": "Feature",
      "id": "2118",
      "geometry": {
        "type": "Point",
        "coordinates": [
          -50.811788,
          -39.686796
        ]
      },
      "properties": {
        "label": "The Donnas",
        "level": 4,
        "pos": "-8151802.241029777,-7560960.976289558",
        "weight": "182841.0"
      }
    },
    {
      "type": "Feature",
      "id": "1648",
      "geometry": {
        "type": "Point",
        "coordinates": [
          -52.200529,
          -39.935831
        ]
      },
      "properties": {
        "label": "Placebo",
        "level": 1,
        "pos": "-8548432.518459788,-7636724.722192818",
        "weight": "1310676.0"
      }
    },
    {
      "type": "Feature",
      "id": "2101",
      "geometry": {
        "type": "Point",
        "coordinates": [
          -39.818388,
          -38.660907
        ]
      },
      "properties": {
        "label": "The Cranberries",
        "level": 1,
        "pos": "-5012042.306030538,-7251694.127079402",
        "weight": "1000991.0"
      }
    },
    {
      "type": "Feature",
      "id": "1158",
      "geometry": {
        "type": "Point",
        "coordinates": [
          -39.061568,
          -38.476268
        ]
      },
      "properties": {
        "label": "Kate Bush",
        "level": 3,
        "pos": "-4795891.418796919,-7196505.972007717",
        "weight": "491069.0"
      }
    },
    {
      "type": "Feature",
      "id": "1258",
      "geometry": {
        "type": "Point",
        "coordinates": [
          -39.199862,
          -37.533427
        ]
      },
      "properties": {
        "label": "Lighthouse Family",
        "level": 4,
        "pos": "-4835388.781402116,-6916866.948627426",
        "weight": "167199.0"
      }
    },
    {
      "type": "Feature",
      "id": "2029",
      "geometry": {
        "type": "Point",
        "coordinates": [
          -38.573572,
          -37.774468
        ]
      },
      "properties": {
        "label": "Terence Trent D'Arby",
        "level": 4,
        "pos": "-4656517.737718549,-6988017.038720311",
        "weight": "103285.0"
      }
    },
    {
      "type": "Feature",
      "id": "644",
      "geometry": {
        "type": "Point",
        "coordinates": [
          -28.280708,
          -28.446377
        ]
      },
      "properties": {
        "label": "Don Henley",
        "level": 4,
        "pos": "-1716833.7893925854,-4380135.655894543",
        "weight": "207460.0"
      }
    },
    {
      "type": "Feature",
      "id": "512",
      "geometry": {
        "type": "Point",
        "coordinates": [
          -30.23656,
          -33.117335
        ]
      },
      "properties": {
        "label": "Crowded House",
        "level": 3,
        "pos": "-2275433.0296686655,-5651320.091875818",
        "weight": "345896.0"
      }
    },
    {
      "type": "Feature",
      "id": "745",
      "geometry": {
        "type": "Point",
        "coordinates": [
          -49.042451,
          -39.635487
        ]
      },
      "properties": {
        "label": "Esthero",
        "level": 4,
        "pos": "-7646472.471097543,-7545385.161330043",
        "weight": "180090.0"
      }
    },
    {
      "type": "Feature",
      "id": "1989",
      "geometry": {
        "type": "Point",
        "coordinates": [
          -49.380829,
          -39.074492
        ]
      },
      "properties": {
        "label": "Supreme Beings of Leisure",
        "level": 4,
        "pos": "-7743114.623703323,-7375832.358210913",
        "weight": "163284.0"
      }
    },
    {
      "type": "Feature",
      "id": "998",
      "geometry": {
        "type": "Point",
        "coordinates": [
          -49.860835,
          -39.552664
        ]
      },
      "properties": {
        "label": "I Monster",
        "level": 4,
        "pos": "-7880206.34656558,-7520266.996927762",
        "weight": "123089.0"
      }
    },
    {
      "type": "Feature",
      "id": "348",
      "geometry": {
        "type": "Point",
        "coordinates": [
          -49.614619,
          -38.477695
        ]
      },
      "properties": {
        "label": "Brazilian Girls",
        "level": 4,
        "pos": "-7809885.960474599,-7196932.039418007",
        "weight": "196183.0"
      }
    },
    {
      "type": "Feature",
      "id": "91",
      "geometry": {
        "type": "Point",
        "coordinates": [
          -49.787606,
          -40.564104
        ]
      },
      "properties": {
        "label": "Aly & AJ",
        "level": 4,
        "pos": "-7859291.693391265,-7829099.832196496",
        "weight": "139448.0"
      }
    },
    {
      "type": "Feature",
      "id": "534",
      "geometry": {
        "type": "Point",
        "coordinates": [
          -49.294106,
          -40.989981
        ]
      },
      "properties": {
        "label": "Daniel Bedingfield",
        "level": 4,
        "pos": "-7718346.264634962,-7960529.9678583015",
        "weight": "188172.0"
      }
    },
    {
      "type": "Feature",
      "id": "1003",
      "geometry": {
        "type": "Point",
        "coordinates": [
          -44.753269,
          -41.136974
        ]
      },
      "properties": {
        "label": "Infernal",
        "level": 4,
        "pos": "-6421464.5074551385,-8006090.199041538",
        "weight": "147992.0"
      }
    },
    {
      "type": "Feature",
      "id": "572",
      "geometry": {
        "type": "Point",
        "coordinates": [
          -38.647776,
          -44.030353
        ]
      },
      "properties": {
        "label": "Deep Blue Something",
        "level": 4,
        "pos": "-4677710.835957528,-8924702.541800339",
        "weight": "142101.0"
      }
    },
    {
      "type": "Feature",
      "id": "548",
      "geometry": {
        "type": "Point",
        "coordinates": [
          -39.714771,
          -46.392064
        ]
      },
      "properties": {
        "label": "Daughtry",
        "level": 4,
        "pos": "-4982449.000755394,-9708300.667452687",
        "weight": "206038.0"
      }
    },
    {
      "type": "Feature",
      "id": "1567",
      "geometry": {
        "type": "Point",
        "coordinates": [
          -40.972187,
          -46.614598
        ]
      },
      "properties": {
        "label": "OneRepublic",
        "level": 3,
        "pos": "-5341571.950189016,-9783855.581921848",
        "weight": "293660.0"
      }
    },
    {
      "type": "Feature",
      "id": "2093",
      "geometry": {
        "type": "Point",
        "coordinates": [
          -40.395835,
          -46.767482
        ]
      },
      "properties": {
        "label": "The Click Five",
        "level": 4,
        "pos": "-5176963.40544283,-9835943.00813323",
        "weight": "111724.0"
      }
    },
    {
      "type": "Feature",
      "id": "1028",
      "geometry": {
        "type": "Point",
        "coordinates": [
          -40.509993,
          -47.370135
        ]
      },
      "properties": {
        "label": "James Blunt",
        "level": 2,
        "pos": "-5209567.634726428,-10042720.219253218",
        "weight": "873851.0"
      }
    },
    {
      "type": "Feature",
      "id": "551",
      "geometry": {
        "type": "Point",
        "coordinates": [
          -47.719393,
          -45.909818
        ]
      },
      "properties": {
        "label": "Dave Matthews",
        "level": 4,
        "pos": "-7268601.669957084,-9545618.151902918",
        "weight": "184828.0"
      }
    },
    {
      "type": "Feature",
      "id": "549",
      "geometry": {
        "type": "Point",
        "coordinates": [
          -47.117447,
          -46.12731
        ]
      },
      "properties": {
        "label": "Dave Matthews & Tim Reynolds",
        "level": 4,
        "pos": "-7096683.490659854,-9618811.113519715",
        "weight": "110409.0"
      }
    },
    {
      "type": "Feature",
      "id": "1618",
      "geometry": {
        "type": "Point",
        "coordinates": [
          -48.249482,
          -47.769335
        ]
      },
      "properties": {
        "label": "Pearl Jam",
        "level": 1,
        "pos": "-7419997.18759369,-10180993.954560682",
        "weight": "1059832.0"
      }
    },
    {
      "type": "Feature",
      "id": "1914",
      "geometry": {
        "type": "Point",
        "coordinates": [
          -48.254171,
          -47.175238
        ]
      },
      "properties": {
        "label": "Soundgarden",
        "level": 2,
        "pos": "-7421336.428046543,-9975592.546804102",
        "weight": "650323.0"
      }
    },
    {
      "type": "Feature",
      "id": "2026",
      "geometry": {
        "type": "Point",
        "coordinates": [
          -47.908676,
          -46.68379
        ]
      },
      "properties": {
        "label": "Temple of the Dog",
        "level": 4,
        "pos": "-7322661.765173013,-9807410.943281673",
        "weight": "190349.0"
      }
    },
    {
      "type": "Feature",
      "id": "1323",
      "geometry": {
        "type": "Point",
        "coordinates": [
          -47.425395,
          -47.076707
        ]
      },
      "properties": {
        "label": "Mad Season",
        "level": 4,
        "pos": "-7184634.647501257,-9941749.75187841",
        "weight": "128831.0"
      }
    },
    {
      "type": "Feature",
      "id": "1347",
      "geometry": {
        "type": "Point",
        "coordinates": [
          -46.232239,
          -46.38685
        ]
      },
      "properties": {
        "label": "Mark Lanegan",
        "level": 4,
        "pos": "-6843864.2809769325,-9706534.264155813",
        "weight": "141577.0"
      }
    },
    {
      "type": "Feature",
      "id": "682",
      "geometry": {
        "type": "Point",
        "coordinates": [
          -48.940533,
          -49.933251
        ]
      },
      "properties": {
        "label": "Eddie Vedder",
        "level": 4,
        "pos": "-7617364.32266448,-10949680.371672789",
        "weight": "244381.0"
      }
    },
    {
      "type": "Feature",
      "id": "950",
      "geometry": {
        "type": "Point",
        "coordinates": [
          -49.822855,
          -49.09239
        ]
      },
      "properties": {
        "label": "Helmet",
        "level": 4,
        "pos": "-7869359.082279767,-10647017.120434549",
        "weight": "152262.0"
      }
    },
    {
      "type": "Feature",
      "id": "451",
      "geometry": {
        "type": "Point",
        "coordinates": [
          -49.450568,
          -49.559398
        ]
      },
      "properties": {
        "label": "Chris Cornell",
        "level": 3,
        "pos": "-7763032.29173018,-10814470.932682848",
        "weight": "343275.0"
      }
    },
    {
      "type": "Feature",
      "id": "119",
      "geometry": {
        "type": "Point",
        "coordinates": [
          -48.213232,
          -44.72924
        ]
      },
      "properties": {
        "label": "Angels & Airwaves",
        "level": 4,
        "pos": "-7409644.224328105,-9153226.168431899",
        "weight": "263925.0"
      }
    },
    {
      "type": "Feature",
      "id": "1187",
      "geometry": {
        "type": "Point",
        "coordinates": [
          -47.37577,
          -45.401229
        ]
      },
      "properties": {
        "label": "Kill Hannah",
        "level": 4,
        "pos": "-7170461.5966721,-9375573.031263188",
        "weight": "139913.0"
      }
    },
    {
      "type": "Feature",
      "id": "1931",
      "geometry": {
        "type": "Point",
        "coordinates": [
          -46.768786,
          -44.785026
        ]
      },
      "properties": {
        "label": "SR-71",
        "level": 4,
        "pos": "-6997104.3554751845,-9171585.453141904",
        "weight": "129757.0"
      }
    },
    {
      "type": "Feature",
      "id": "1215",
      "geometry": {
        "type": "Point",
        "coordinates": [
          -52.318402,
          -41.701733
        ]
      },
      "properties": {
        "label": "L7",
        "level": 4,
        "pos": "-8582097.56056392,-8182094.474206046",
        "weight": "129506.0"
      }
    },
    {
      "type": "Feature",
      "id": "1779",
      "geometry": {
        "type": "Point",
        "coordinates": [
          -51.883231,
          -42.51726
        ]
      },
      "properties": {
        "label": "Sahara Hotnights",
        "level": 4,
        "pos": "-8457810.709224818,-8439000.886677803",
        "weight": "112002.0"
      }
    },
    {
      "type": "Feature",
      "id": "2249",
      "geometry": {
        "type": "Point",
        "coordinates": [
          -53.888732,
          -44.66187
        ]
      },
      "properties": {
        "label": "The Sounds",
        "level": 3,
        "pos": "-9030589.990805572,-9131077.852521803",
        "weight": "283167.0"
      }
    },
    {
      "type": "Feature",
      "id": "1077",
      "geometry": {
        "type": "Point",
        "coordinates": [
          0.40672,
          11.676407
        ]
      },
      "properties": {
        "label": "Joan as Police Woman",
        "level": 4,
        "pos": "6476413.214954866,5306739.120099387",
        "weight": "100072.0"
      }
    },
    {
      "type": "Feature",
      "id": "1352",
      "geometry": {
        "type": "Point",
        "coordinates": [
          3.735997,
          10.537626
        ]
      },
      "properties": {
        "label": "Martha Wainwright",
        "level": 4,
        "pos": "7427268.393967809,5035525.707444343",
        "weight": "207931.0"
      }
    },
    {
      "type": "Feature",
      "id": "1233",
      "geometry": {
        "type": "Point",
        "coordinates": [
          3.397232,
          11.273059
        ]
      },
      "properties": {
        "label": "Laura Veirs",
        "level": 4,
        "pos": "7330515.692413424,5210555.582162627",
        "weight": "164244.0"
      }
    },
    {
      "type": "Feature",
      "id": "138",
      "geometry": {
        "type": "Point",
        "coordinates": [
          -3.406565,
          12.266863
        ]
      },
      "properties": {
        "label": "Antony and the Johnsons",
        "level": 3,
        "pos": "5387323.452041519,5447795.059009727",
        "weight": "334464.0"
      }
    },
    {
      "type": "Feature",
      "id": "1768",
      "geometry": {
        "type": "Point",
        "coordinates": [
          7.210058,
          10.018379
        ]
      },
      "properties": {
        "label": "Rufus Wainwright",
        "level": 2,
        "pos": "8419474.333161766,4912200.16162546",
        "weight": "589827.0"
      }
    },
    {
      "type": "Feature",
      "id": "1147",
      "geometry": {
        "type": "Point",
        "coordinates": [
          6.377951,
          10.718344
        ]
      },
      "properties": {
        "label": "Kaki King",
        "level": 4,
        "pos": "8181821.216948612,5078495.788598452",
        "weight": "105886.0"
      }
    },
    {
      "type": "Feature",
      "id": "320",
      "geometry": {
        "type": "Point",
        "coordinates": [
          -7.134816,
          12.922369
        ]
      },
      "properties": {
        "label": "Bon Iver",
        "level": 4,
        "pos": "4322519.666638315,5604762.441274574",
        "weight": "202669.0"
      }
    },
    {
      "type": "Feature",
      "id": "1750",
      "geometry": {
        "type": "Point",
        "coordinates": [
          9.305992,
          10.298792
        ]
      },
      "properties": {
        "label": "Rodrigo y Gabriela",
        "level": 4,
        "pos": "9018081.574004564,4978775.291302013",
        "weight": "133313.0"
      }
    },
    {
      "type": "Feature",
      "id": "1523",
      "geometry": {
        "type": "Point",
        "coordinates": [
          -13.02445,
          12.693435
        ]
      },
      "properties": {
        "label": "Nick Drake",
        "level": 2,
        "pos": "2640415.991932651,5549896.170695602",
        "weight": "657487.0"
      }
    },
    {
      "type": "Feature",
      "id": "1702",
      "geometry": {
        "type": "Point",
        "coordinates": [
          -7.925149,
          17.717275
        ]
      },
      "properties": {
        "label": "Ray LaMontagne",
        "level": 3,
        "pos": "4096797.2408054927,6766988.422044763",
        "weight": "343547.0"
      }
    },
    {
      "type": "Feature",
      "id": "1976",
      "geometry": {
        "type": "Point",
        "coordinates": [
          -7.178355,
          16.650918
        ]
      },
      "properties": {
        "label": "Sufjan Stevens",
        "level": 2,
        "pos": "4310084.676010225,6506136.333590264",
        "weight": "772295.0"
      }
    },
    {
      "type": "Feature",
      "id": "207",
      "geometry": {
        "type": "Point",
        "coordinates": [
          -2.926392,
          12.874852
        ]
      },
      "properties": {
        "label": "Band of Horses",
        "level": 3,
        "pos": "5524462.559944477,5593370.35906126",
        "weight": "408313.0"
      }
    },
    {
      "type": "Feature",
      "id": "2197",
      "geometry": {
        "type": "Point",
        "coordinates": [
          -6.465499,
          15.99197
        ]
      },
      "properties": {
        "label": "The National",
        "level": 3,
        "pos": "4513679.321215712,6345674.932023621",
        "weight": "409138.0"
      }
    },
    {
      "type": "Feature",
      "id": "797",
      "geometry": {
        "type": "Point",
        "coordinates": [
          -6.465436,
          16.506188
        ]
      },
      "properties": {
        "label": "Fleet Foxes",
        "level": 3,
        "pos": "4513697.1676707845,6470846.276060463",
        "weight": "368486.0"
      }
    },
    {
      "type": "Feature",
      "id": "905",
      "geometry": {
        "type": "Point",
        "coordinates": [
          -4.376702,
          12.422265
        ]
      },
      "properties": {
        "label": "Great Lake Swimmers",
        "level": 4,
        "pos": "5110248.125416986,5484971.647097634",
        "weight": "183333.0"
      }
    },
    {
      "type": "Feature",
      "id": "2117",
      "geometry": {
        "type": "Point",
        "coordinates": [
          -6.327542,
          17.23698
        ]
      },
      "properties": {
        "label": "The Dodos",
        "level": 4,
        "pos": "4553080.374037386,6649312.716574884",
        "weight": "100247.0"
      }
    },
    {
      "type": "Feature",
      "id": "759",
      "geometry": {
        "type": "Point",
        "coordinates": [
          -45.780736,
          11.633652
        ]
      },
      "properties": {
        "label": "Everything but the Girl",
        "level": 3,
        "pos": "-6714913.283188845,5296537.105828829",
        "weight": "444195.0"
      }
    },
    {
      "type": "Feature",
      "id": "919",
      "geometry": {
        "type": "Point",
        "coordinates": [
          -50.724463,
          12.596434
        ]
      },
      "properties": {
        "label": "Gus Gus",
        "level": 4,
        "pos": "-8126862.080507924,5526664.050201533",
        "weight": "250162.0"
      }
    },
    {
      "type": "Feature",
      "id": "1563",
      "geometry": {
        "type": "Point",
        "coordinates": [
          -44.06198,
          13.021455
        ]
      },
      "properties": {
        "label": "Olive",
        "level": 4,
        "pos": "-6224029.5090512615,5628524.8337839795",
        "weight": "134604.0"
      }
    },
    {
      "type": "Feature",
      "id": "909",
      "geometry": {
        "type": "Point",
        "coordinates": [
          -56.390338,
          14.626954
        ]
      },
      "properties": {
        "label": "Groove Armada",
        "level": 2,
        "pos": "-9745058.902283866,6014930.372512026",
        "weight": "691987.0"
      }
    },
    {
      "type": "Feature",
      "id": "2014",
      "geometry": {
        "type": "Point",
        "coordinates": [
          -49.346874,
          13.550217
        ]
      },
      "properties": {
        "label": "T\u00e9l\u00e9popmusik",
        "level": 3,
        "pos": "-7733416.9123229105,5755493.259552793",
        "weight": "477590.0"
      }
    },
    {
      "type": "Feature",
      "id": "889",
      "geometry": {
        "type": "Point",
        "coordinates": [
          -52.55854,
          16.204881
        ]
      },
      "properties": {
        "label": "Goldfrapp",
        "level": 1,
        "pos": "-8650681.975081591,6397462.348289725",
        "weight": "906439.0"
      }
    },
    {
      "type": "Feature",
      "id": "1704",
      "geometry": {
        "type": "Point",
        "coordinates": [
          -42.342548,
          9.4153
        ]
      },
      "properties": {
        "label": "R\u00f3is\u00edn Murphy",
        "level": 4,
        "pos": "-5732952.773557837,4769210.993249408",
        "weight": "218622.0"
      }
    },
    {
      "type": "Feature",
      "id": "2360",
      "geometry": {
        "type": "Point",
        "coordinates": [
          -52.759631,
          15.047736
        ]
      },
      "properties": {
        "label": "Tricky",
        "level": 3,
        "pos": "-8708114.151027156,6116657.700298501",
        "weight": "506353.0"
      }
    },
    {
      "type": "Feature",
      "id": "803",
      "geometry": {
        "type": "Point",
        "coordinates": [
          -53.184325,
          13.842281
        ]
      },
      "properties": {
        "label": "Flunk",
        "level": 3,
        "pos": "-8829408.606906643,5825745.123157607",
        "weight": "291834.0"
      }
    },
    {
      "type": "Feature",
      "id": "2030",
      "geometry": {
        "type": "Point",
        "coordinates": [
          -55.854566,
          15.186682
        ]
      },
      "properties": {
        "label": "Terranova",
        "level": 4,
        "pos": "-9592040.454596573,6150292.8013079865",
        "weight": "148792.0"
      }
    },
    {
      "type": "Feature",
      "id": "2348",
      "geometry": {
        "type": "Point",
        "coordinates": [
          -55.951819,
          14.832907
        ]
      },
      "properties": {
        "label": "Tosca",
        "level": 3,
        "pos": "-9619816.088387165,6064696.577133035",
        "weight": "395353.0"
      }
    },
    {
      "type": "Feature",
      "id": "208",
      "geometry": {
        "type": "Point",
        "coordinates": [
          -47.944241,
          12.174009
        ]
      },
      "properties": {
        "label": "Bang Gang",
        "level": 4,
        "pos": "-7332819.043509166,5425592.366578118",
        "weight": "107617.0"
      }
    },
    {
      "type": "Feature",
      "id": "1993",
      "geometry": {
        "type": "Point",
        "coordinates": [
          -55.896902,
          14.723461
        ]
      },
      "properties": {
        "label": "Swayzak",
        "level": 4,
        "pos": "-9604131.683100779,6038244.408273159",
        "weight": "116014.0"
      }
    },
    {
      "type": "Feature",
      "id": "244",
      "geometry": {
        "type": "Point",
        "coordinates": [
          -59.771963,
          16.966602
        ]
      },
      "properties": {
        "label": "Bent",
        "level": 3,
        "pos": "-10710865.092054047,6583203.269142196",
        "weight": "315504.0"
      }
    },
    {
      "type": "Feature",
      "id": "1705",
      "geometry": {
        "type": "Point",
        "coordinates": [
          -60.072951,
          17.120609
        ]
      },
      "properties": {
        "label": "R\u00f6yksopp",
        "level": 2,
        "pos": "-10796828.491195768,6620847.309976127",
        "weight": "846313.0"
      }
    },
    {
      "type": "Feature",
      "id": "213",
      "geometry": {
        "type": "Point",
        "coordinates": [
          -59.52051,
          16.852754
        ]
      },
      "properties": {
        "label": "Basement Jaxx",
        "level": 2,
        "pos": "-10639049.081413243,6555395.100009112",
        "weight": "580544.0"
      }
    },
    {
      "type": "Feature",
      "id": "774",
      "geometry": {
        "type": "Point",
        "coordinates": [
          -58.270746,
          15.473377
        ]
      },
      "properties": {
        "label": "FC/Kahuna",
        "level": 4,
        "pos": "-10282111.189159792,6219764.39747209",
        "weight": "113815.0"
      }
    },
    {
      "type": "Feature",
      "id": "1245",
      "geometry": {
        "type": "Point",
        "coordinates": [
          -59.708927,
          16.87433
        ]
      },
      "properties": {
        "label": "Lemon Jelly",
        "level": 4,
        "pos": "-10692861.505605265,6560663.707817634",
        "weight": "195296.0"
      }
    },
    {
      "type": "Feature",
      "id": "2301",
      "geometry": {
        "type": "Point",
        "coordinates": [
          -59.7946,
          16.330131
        ]
      },
      "properties": {
        "label": "Thievery Corporation",
        "level": 2,
        "pos": "-10717330.106284708,6427953.578521214",
        "weight": "739944.0"
      }
    },
    {
      "type": "Feature",
      "id": "1651",
      "geometry": {
        "type": "Point",
        "coordinates": [
          -59.415029,
          16.086211
        ]
      },
      "properties": {
        "label": "Planet Funk",
        "level": 4,
        "pos": "-10608923.289028186,6368590.883070006",
        "weight": "155496.0"
      }
    },
    {
      "type": "Feature",
      "id": "618",
      "geometry": {
        "type": "Point",
        "coordinates": [
          -60.598071,
          16.602226
        ]
      },
      "properties": {
        "label": "Dirty Vegas",
        "level": 4,
        "pos": "-10946804.768002687,6494260.680727026",
        "weight": "163185.0"
      }
    },
    {
      "type": "Feature",
      "id": "417",
      "geometry": {
        "type": "Point",
        "coordinates": [
          -58.995964,
          15.843959
        ]
      },
      "properties": {
        "label": "Cassius",
        "level": 4,
        "pos": "-10489236.403967032,6309706.124228844",
        "weight": "215609.0"
      }
    },
    {
      "type": "Feature",
      "id": "771",
      "geometry": {
        "type": "Point",
        "coordinates": [
          -58.930145,
          15.733701
        ]
      },
      "properties": {
        "label": "Fatboy Slim",
        "level": 2,
        "pos": "-10470438.342027267,6282929.089883446",
        "weight": "864764.0"
      }
    },
    {
      "type": "Feature",
      "id": "609",
      "geometry": {
        "type": "Point",
        "coordinates": [
          -60.652339,
          16.436032
        ]
      },
      "properties": {
        "label": "Dimitri From Paris",
        "level": 4,
        "pos": "-10962303.961429393,6453749.539464608",
        "weight": "126241.0"
      }
    },
    {
      "type": "Feature",
      "id": "1025",
      "geometry": {
        "type": "Point",
        "coordinates": [
          -50.561016,
          12.146653
        ]
      },
      "properties": {
        "label": "Jakatta",
        "level": 4,
        "pos": "-8080180.891459845,5419052.613642115",
        "weight": "134443.0"
      }
    },
    {
      "type": "Feature",
      "id": "1224",
      "geometry": {
        "type": "Point",
        "coordinates": [
          -45.793906,
          12.602087
        ]
      },
      "properties": {
        "label": "Lamb",
        "level": 2,
        "pos": "-6718674.787656761,5528017.581905148",
        "weight": "613913.0"
      }
    },
    {
      "type": "Feature",
      "id": "966",
      "geometry": {
        "type": "Point",
        "coordinates": [
          -46.052689,
          13.373163
        ]
      },
      "properties": {
        "label": "Hooverphonic",
        "level": 3,
        "pos": "-6792584.203769463,5712947.465202004",
        "weight": "505670.0"
      }
    },
    {
      "type": "Feature",
      "id": "1329",
      "geometry": {
        "type": "Point",
        "coordinates": [
          -46.507909,
          12.744789
        ]
      },
      "properties": {
        "label": "Mandalay",
        "level": 4,
        "pos": "-6922596.955337221,5562199.273930308",
        "weight": "237522.0"
      }
    },
    {
      "type": "Feature",
      "id": "53",
      "geometry": {
        "type": "Point",
        "coordinates": [
          -45.34893,
          13.339393
        ]
      },
      "properties": {
        "label": "Air",
        "level": 1,
        "pos": "-6591587.621300209,5704836.138971705",
        "weight": "1134369.0"
      }
    },
    {
      "type": "Feature",
      "id": "2489",
      "geometry": {
        "type": "Point",
        "coordinates": [
          -45.660388,
          14.063454
        ]
      },
      "properties": {
        "label": "Zero 7",
        "level": 2,
        "pos": "-6680541.452688969,5879004.035531918",
        "weight": "784822.0"
      }
    },
    {
      "type": "Feature",
      "id": "1359",
      "geometry": {
        "type": "Point",
        "coordinates": [
          -45.692859,
          11.774328
        ]
      },
      "properties": {
        "label": "Massive Attack",
        "level": 1,
        "pos": "-6689815.17610908,5330110.801591674",
        "weight": "1156891.0"
      }
    },
    {
      "type": "Feature",
      "id": "1657",
      "geometry": {
        "type": "Point",
        "coordinates": [
          -46.287636,
          17.014697
        ]
      },
      "properties": {
        "label": "Portishead",
        "level": 1,
        "pos": "-6859686.009052479,6594955.844602091",
        "weight": "1005250.0"
      }
    },
    {
      "type": "Feature",
      "id": "327",
      "geometry": {
        "type": "Point",
        "coordinates": [
          -49.922276,
          17.331376
        ]
      },
      "properties": {
        "label": "Bonobo",
        "level": 3,
        "pos": "-7897754.214035612,6672416.007626325",
        "weight": "471515.0"
      }
    },
    {
      "type": "Feature",
      "id": "2024",
      "geometry": {
        "type": "Point",
        "coordinates": [
          -51.249764,
          14.740413
        ]
      },
      "properties": {
        "label": "Telefon Tel Aviv",
        "level": 4,
        "pos": "-8276889.996450526,6042340.491814967",
        "weight": "145217.0"
      }
    },
    {
      "type": "Feature",
      "id": "1244",
      "geometry": {
        "type": "Point",
        "coordinates": [
          -52.058099,
          15.228637
        ]
      },
      "properties": {
        "label": "Lemongrass",
        "level": 4,
        "pos": "-8507753.842548296,6160453.467009813",
        "weight": "180462.0"
      }
    },
    {
      "type": "Feature",
      "id": "273",
      "geometry": {
        "type": "Point",
        "coordinates": [
          -55.637957,
          18.904426
        ]
      },