{
  "type": "FeatureCollection",
  "features": [
    {
      "type": "Feature",
      "id": "16",
      "geometry": {
        "type": "Point",
        "coordinates": [
          -43.683481,
          18.115602
        ]
      },
      "properties": {
        "label": "Cetuximab",
        "level": 1,
        "pos": "-657383.5590102716,346861.55629502836",
        "src_id": "2",
        "weight": "0.0009004002208662477"
      }
    },
    {
      "type": "Feature",
      "id": "188",
      "geometry": {
        "type": "Point",
        "coordinates": [
          -43.55837,
          18.266525
        ]
      },
      "properties": {
        "label": "Pegfilgrastim",
        "level": 1,
        "pos": "-655766.6358975528,348881.4046190497",
        "src_id": "19",
        "weight": "0.0007127660512942222"
      }
    },
    {
      "type": "Feature",
      "id": "3838",
      "geometry": {
        "type": "Point",
        "coordinates": [
          -43.459384,
          18.128206
        ]
      },
      "properties": {
        "label": "Pegvisomant",
        "level": 5,
        "pos": "-654487.3573204845,347030.1819740388",
        "src_id": "78",
        "weight": "6.364949288798413e-05"
      }
    },
    {
      "type": "Feature",
      "id": "4186",
      "geometry": {
        "type": "Point",
        "coordinates": [
          -43.339487,
          18.367946
        ]
      },
      "properties": {
        "label": "Epothilone D",
        "level": 5,
        "pos": "-652937.8220384287,350239.72513668676",
        "src_id": "1785",
        "weight": "7.019091916451604e-05"
      }
    },
    {
      "type": "Feature",
      "id": "4889",
      "geometry": {
        "type": "Point",
        "coordinates": [
          -43.832864,
          17.920264
        ]
      },
      "properties": {
        "label": "Fidarestat",
        "level": 5,
        "pos": "-659314.1657127797,344249.8787522478",
        "src_id": "1922",
        "weight": "3.8284508456870454e-05"
      }
    },
    {
      "type": "Feature",
      "id": "1942",
      "geometry": {
        "type": "Point",
        "coordinates": [
          -43.388087,
          18.471723
        ]
      },
      "properties": {
        "label": "Calcipotriol",
        "level": 4,
        "pos": "-653565.928669947,351630.4330058328",
        "src_id": "2182",
        "weight": "0.00019728947184712313"
      }
    },
    {
      "type": "Feature",
      "id": "88",
      "geometry": {
        "type": "Point",
        "coordinates": [
          -43.956654,
          17.785756
        ]
      },
      "properties": {
        "label": "Ixabepilone",
        "level": 1,
        "pos": "-660914.0177120329,342453.17883712106",
        "src_id": "4567",
        "weight": "0.0006938235833154117"
      }
    },
    {
      "type": "Feature",
      "id": "4880",
      "geometry": {
        "type": "Point",
        "coordinates": [
          -43.444921,
          18.050249
        ]
      },
      "properties": {
        "label": "Voglibose",
        "level": 5,
        "pos": "-654300.4402817676,345987.467495686",
        "src_id": "4600",
        "weight": "3.8284508456870454e-05"
      }
    },
    {
      "type": "Feature",
      "id": "3804",
      "geometry": {
        "type": "Point",
        "coordinates": [
          -43.847394,
          17.917775
        ]
      },
      "properties": {
        "label": "anecortave acetate",
        "level": 5,
        "pos": "-659501.9476954524,344216.6165046232",
        "src_id": "4945",
        "weight": "6.364949288798413e-05"
      }
    },
    {
      "type": "Feature",
      "id": "3133",
      "geometry": {
        "type": "Point",
        "coordinates": [
          -43.483525,
          18.001461
        ]
      },
      "properties": {
        "label": "Lasofoxifene",
        "level": 5,
        "pos": "-654799.3482455508,345335.1401837858",
        "src_id": "5477",
        "weight": "0.00010711331719654301"
      }
    },
    {
      "type": "Feature",
      "id": "4162",
      "geometry": {
        "type": "Point",
        "coordinates": [
          -43.702542,
          17.927445
        ]
      },
      "properties": {
        "label": "Asoprisnil",
        "level": 5,
        "pos": "-657629.905317761,344345.83615931263",
        "src_id": "5742",
        "weight": "5.725855029410761e-05"
      }
    },
    {
      "type": "Feature",
      "id": "4160",
      "geometry": {
        "type": "Point",
        "coordinates": [
          -43.62183,
          18.189985
        ]
      },
      "properties": {
        "label": "Dexmethylphenidate",
        "level": 5,
        "pos": "-656586.7852136551,347856.8300660903",
        "src_id": "5761",
        "weight": "4.2193686681635016e-05"
      }
    },
    {
      "type": "Feature",
      "id": "4869",
      "geometry": {
        "type": "Point",
        "coordinates": [
          -43.424758,
          18.185087
        ]
      },
      "properties": {
        "label": "Metreleptin",
        "level": 5,
        "pos": "-654039.85676158,347791.2786313296",
        "src_id": "7992",
        "weight": "3.8284508456870454e-05"
      }
    },
    {
      "type": "Feature",
      "id": "681",
      "geometry": {
        "type": "Point",
        "coordinates": [
          -43.55691,
          17.940711
        ]
      },
      "properties": {
        "label": "Landiolol",
        "level": 3,
        "pos": "-655747.7691090105,344523.11880432814",
        "src_id": "9872",
        "weight": "0.0002751991110612841"
      }
    },
    {
      "type": "Feature",
      "id": "5468",
      "geometry": {
        "type": "Point",
        "coordinates": [
          -43.758288,
          18.025342
        ]
      },
      "properties": {
        "label": "Colorectal cancer metastatic",
        "level": 5,
        "pos": "-658350.3629780661,345654.41718757554",
        "src_id": "173948",
        "weight": "3.878926399069265e-05"
      }
    },
    {
      "type": "Feature",
      "id": "766",
      "geometry": {
        "type": "Point",
        "coordinates": [
          -44.29918,
          19.085447
        ]
      },
      "properties": {
        "label": "Anakinra",
        "level": 3,
        "pos": "-665340.7760312126,359872.3000275494",
        "src_id": "26",
        "weight": "0.000323766872260533"
      }
    },
    {
      "type": "Feature",
      "id": "337",
      "geometry": {
        "type": "Point",
        "coordinates": [
          -46.224283,
          15.024779
        ]
      },
      "properties": {
        "label": "Ibritumomab tiuxetan",
        "level": 2,
        "pos": "-690220.5942355266,305855.1847956073",
        "src_id": "75",
        "weight": "0.0005175373024513582"
      }
    },
    {
      "type": "Feature",
      "id": "14",
      "geometry": {
        "type": "Point",
        "coordinates": [
          -44.467861,
          18.595628
        ]
      },
      "properties": {
        "label": "Tenofovir disoproxil",
        "level": 1,
        "pos": "-667520.7970612282,353291.97707729845",
        "src_id": "291",
        "weight": "0.000898181998956823"
      }
    },
    {
      "type": "Feature",
      "id": "198",
      "geometry": {
        "type": "Point",
        "coordinates": [
          -42.580399,
          24.831771
        ]
      },
      "properties": {
        "label": "Gefitinib",
        "level": 1,
        "pos": "-643127.4618263511,438691.72763205675",
        "src_id": "308",
        "weight": "0.0007349820562090321"
      }
    },
    {
      "type": "Feature",
      "id": "185",
      "geometry": {
        "type": "Point",
        "coordinates": [
          -45.007583,
          18.791677
        ]
      },
      "properties": {
        "label": "Emtricitabine",
        "level": 1,
        "pos": "-674496.104603596,355923.4440672407",
        "src_id": "865",
        "weight": "0.000621994158950581"
      }
    },
    {
      "type": "Feature",
      "id": "522",
      "geometry": {
        "type": "Point",
        "coordinates": [
          -44.290853,
          18.974983
        ]
      },
      "properties": {
        "label": "Deferasirox",
        "level": 3,
        "pos": "-665233.1692506901,358386.62448910286",
        "src_id": "1541",
        "weight": "0.00036334969077887356"
      }
    },
    {
      "type": "Feature",
      "id": "555",
      "geometry": {
        "type": "Point",
        "coordinates": [
          -43.422235,
          19.197195
        ]
      },
      "properties": {
        "label": "Tipranavir",
        "level": 2,
        "pos": "-654007.2545210854,361376.2520113771",
        "src_id": "918",
        "weight": "0.0003821876297655202"
      }
    },
    {
      "type": "Feature",
      "id": "69",
      "geometry": {
        "type": "Point",
        "coordinates": [
          -44.113833,
          19.205384
        ]
      },
      "properties": {
        "label": "Desloratadine",
        "level": 1,
        "pos": "-662945.3820417749,361486.5147726623",
        "src_id": "953",
        "weight": "0.00056635470892636"
      }
    },
    {
      "type": "Feature",
      "id": "481",
      "geometry": {
        "type": "Point",
        "coordinates": [
          -43.320612,
          18.851832
        ]
      },
      "properties": {
        "label": "Lumiracoxib",
        "level": 2,
        "pos": "-652693.8918496238,356731.47830461897",
        "src_id": "1266",
        "weight": "0.0004152972708915666"
      }
    },
    {
      "type": "Feature",
      "id": "996",
      "geometry": {
        "type": "Point",
        "coordinates": [
          -43.925192,
          19.153469
        ]
      },
      "properties": {
        "label": "Lopinavir",
        "level": 3,
        "pos": "-660507.4098009542,360787.6518144692",
        "src_id": "1533",
        "weight": "0.0003125638203620431"
      }
    },
    {
      "type": "Feature",
      "id": "5512",
      "geometry": {
        "type": "Point",
        "coordinates": [
          -44.131621,
          19.048815
        ]
      },
      "properties": {
        "label": "Acute febrile neutrophilic dermatosis",
        "level": 5,
        "pos": "-663175.2710813296,359379.51165155845",
        "src_id": "169736",
        "weight": "3.469675143756508e-05"
      }
    },
    {
      "type": "Feature",
      "id": "1040",
      "geometry": {
        "type": "Point",
        "coordinates": [
          -43.949108,
          17.538975
        ]
      },
      "properties": {
        "label": "Alvocidib",
        "level": 4,
        "pos": "-660816.4869328979,339160.303338612",
        "src_id": "3300",
        "weight": "0.00021696950997526917"
      }
    },
    {
      "type": "Feature",
      "id": "2216",
      "geometry": {
        "type": "Point",
        "coordinates": [
          -43.785545,
          17.593853
        ]
      },
      "properties": {
        "label": "Efaproxiral",
        "level": 5,
        "pos": "-658702.627019488,339892.1558178081",
        "src_id": "7479",
        "weight": "0.00012620280597064445"
      }
    },
    {
      "type": "Feature",
      "id": "2218",
      "geometry": {
        "type": "Point",
        "coordinates": [
          -43.679258,
          17.741965
        ]
      },
      "properties": {
        "label": "Icatibant",
        "level": 4,
        "pos": "-657328.9751347277,341868.5425485219",
        "src_id": "5471",
        "weight": "0.00014358990454673784"
      }
    },
    {
      "type": "Feature",
      "id": "2217",
      "geometry": {
        "type": "Point",
        "coordinates": [
          -43.813791,
          17.534861
        ]
      },
      "properties": {
        "label": "Priralfinamide",
        "level": 5,
        "pos": "-659067.6693059119,339105.4420003645",
        "src_id": "5722",
        "weight": "8.563486200515874e-05"
      }
    },
    {
      "type": "Feature",
      "id": "3802",
      "geometry": {
        "type": "Point",
        "coordinates": [
          -44.143295,
          17.560025
        ]
      },
      "properties": {
        "label": "Temsirolimus",
        "level": 5,
        "pos": "-663326.1380842198,339440.9985069346",
        "src_id": "5536",
        "weight": "8.922721498930719e-05"
      }
    },
    {
      "type": "Feature",
      "id": "6697",
      "geometry": {
        "type": "Point",
        "coordinates": [
          -44.027688,
          17.630723
        ]
      },
      "properties": {
        "label": "Perifosine",
        "level": 5,
        "pos": "-661832.0475778879,340383.99462857516",
        "src_id": "5717",
        "weight": "2.7895467146827463e-05"
      }
    },
    {
      "type": "Feature",
      "id": "6686",
      "geometry": {
        "type": "Point",
        "coordinates": [
          -43.694088,
          17.658963
        ]
      },
      "properties": {
        "label": "Glucarpidase",
        "level": 5,
        "pos": "-657520.641548447,340760.77524146775",
        "src_id": "7857",
        "weight": "2.7191434998454386e-05"
      }
    },
    {
      "type": "Feature",
      "id": "3134",
      "geometry": {
        "type": "Point",
        "coordinates": [
          -44.716829,
          19.488991
        ]
      },
      "properties": {
        "label": "Canakinumab",
        "level": 5,
        "pos": "-670738.4278712013,365308.21492496616",
        "src_id": "5452",
        "weight": "6.537748187895064e-05"
      }
    },
    {
      "type": "Feature",
      "id": "168",
      "geometry": {
        "type": "Point",
        "coordinates": [
          -50.656505,
          14.310536
        ]
      },
      "properties": {
        "label": "Adefovir Dipivoxil",
        "level": 1,
        "pos": "-747502.1000267061,296468.0531570471",
        "src_id": "704",
        "weight": "0.0006014760241258839"
      }
    },
    {
      "type": "Feature",
      "id": "2829",
      "geometry": {
        "type": "Point",
        "coordinates": [
          -47.092508,
          15.832119
        ]
      },
      "properties": {
        "label": "Blinatumomab",
        "level": 5,
        "pos": "-701441.4220474523,316503.81642336125",
        "src_id": "7998",
        "weight": "0.00010617024211823297"
      }
    },
    {
      "type": "Feature",
      "id": "562",
      "geometry": {
        "type": "Point",
        "coordinates": [
          -47.059982,
          14.890257
        ]
      },
      "properties": {
        "label": "Bortezomib",
        "level": 2,
        "pos": "-701021.0620757019,304084.83078249317",
        "src_id": "179",
        "weight": "0.0004365513263795808"
      }
    },
    {
      "type": "Feature",
      "id": "23",
      "geometry": {
        "type": "Point",
        "coordinates": [
          -47.466529,
          15.620507
        ]
      },
      "properties": {
        "label": "Vorinostat",
        "level": 1,
        "pos": "-706275.233340219,313708.6750307276",
        "src_id": "2413",
        "weight": "0.0008252764979183992"
      }
    },
    {
      "type": "Feature",
      "id": "3451",
      "geometry": {
        "type": "Point",
        "coordinates": [
          -47.21647,
          15.476304
        ]
      },
      "properties": {
        "label": "Dexlansoprazole",
        "level": 5,
        "pos": "-703043.4868922818,311805.59252531605",
        "src_id": "4994",
        "weight": "8.405904215628126e-05"
      }
    },
    {
      "type": "Feature",
      "id": "3476",
      "geometry": {
        "type": "Point",
        "coordinates": [
          -47.293059,
          15.213805
        ]
      },
      "properties": {
        "label": "Alosetron",
        "level": 5,
        "pos": "-704033.3151987375,308344.70059843943",
        "src_id": "955",
        "weight": "6.118883492431862e-05"
      }
    },
    {
      "type": "Feature",
      "id": "3619",
      "geometry": {
        "type": "Point",
        "coordinates": [
          -47.308057,
          15.306145
        ]
      },
      "properties": {
        "label": "Axitinib",
        "level": 5,
        "pos": "-704227.1583481635,309561.64856465784",
        "src_id": "5708",
        "weight": "5.348201391574681e-05"
      }
    },
    {
      "type": "Feature",
      "id": "3280",
      "geometry": {
        "type": "Point",
        "coordinates": [
          -47.135862,
          14.802176
        ]
      },
      "properties": {
        "label": "Lestaurtinib",
        "level": 5,
        "pos": "-702001.732454788,302926.26851629175",
        "src_id": "5622",
        "weight": "6.410151393650532e-05"
      }
    },
    {
      "type": "Feature",
      "id": "991",
      "geometry": {
        "type": "Point",
        "coordinates": [
          -48.056683,
          16.137187
        ]
      },
      "properties": {
        "label": "Nilotinib",
        "level": 3,
        "pos": "-713902.3112835718,320538.5704345505",
        "src_id": "4590",
        "weight": "0.00027587892540195604"
      }
    },
    {
      "type": "Feature",
      "id": "1571",
      "geometry": {
        "type": "Point",
        "coordinates": [
          -46.98188,
          14.732951
        ]
      },
      "properties": {
        "label": "Denosumab",
        "level": 4,
        "pos": "-700011.6779027224,302016.0520552426",
        "src_id": "5719",
        "weight": "0.00020828947374788905"
      }
    },
    {
      "type": "Feature",
      "id": "2215",
      "geometry": {
        "type": "Point",
        "coordinates": [
          -47.137625,
          15.725149
        ]
      },
      "properties": {
        "label": "Carfilzomib",
        "level": 4,
        "pos": "-702024.5117441472,315090.5068485737",
        "src_id": "7848",
        "weight": "0.00014028832481740295"
      }
    },
    {
      "type": "Feature",
      "id": "4341",
      "geometry": {
        "type": "Point",
        "coordinates": [
          -44.864607,
          18.63506
        ]
      },
      "properties": {
        "label": "Combretastatin",
        "level": 5,
        "pos": "-672648.2976601882,353821.00621471886",
        "src_id": "10241",
        "weight": "5.076049859942062e-05"
      }
    },
    {
      "type": "Feature",
      "id": "885",
      "geometry": {
        "type": "Point",
        "coordinates": [
          -44.818019,
          18.718051
        ]
      },
      "properties": {
        "label": "Agomelatine",
        "level": 4,
        "pos": "-672046.1986108425,354934.84288929694",
        "src_id": "5685",
        "weight": "0.00017440847541075438"
      }
    },
    {
      "type": "Feature",
      "id": "3970",
      "geometry": {
        "type": "Point",
        "coordinates": [
          -44.828472,
          18.726602
        ]
      },
      "properties": {
        "label": "Irofulven",
        "level": 5,
        "pos": "-672181.293340003,355049.63816439325",
        "src_id": "5246",
        "weight": "6.364583055279912e-05"
      }
    },
    {
      "type": "Feature",
      "id": "2729",
      "geometry": {
        "type": "Point",
        "coordinates": [
          -44.813216,
          18.399655
        ]
      },
      "properties": {
        "label": "Ritonavir",
        "level": 4,
        "pos": "-671984.1305104432,350664.56926186476",
        "src_id": "492",
        "weight": "0.00014897563545818933"
      }
    },
    {
      "type": "Feature",
      "id": "9",
      "geometry": {
        "type": "Point",
        "coordinates": [
          -41.922564,
          25.155137
        ]
      },
      "properties": {
        "label": "Enfuvirtide",
        "level": 1,
        "pos": "-634625.6841430726,443227.9200336148",
        "src_id": "102",
        "weight": "0.0009869729139148522"
      }
    },
    {
      "type": "Feature",
      "id": "443",
      "geometry": {
        "type": "Point",
        "coordinates": [
          -42.453579,
          25.08252
        ]
      },
      "properties": {
        "label": "Bosentan",
        "level": 2,
        "pos": "-641488.4608066791,442208.2018733305",
        "src_id": "546",
        "weight": "0.000509591564631485"
      }
    },
    {
      "type": "Feature",
      "id": "237",
      "geometry": {
        "type": "Point",
        "coordinates": [
          -40.851447,
          30.990054
        ]
      },
      "properties": {
        "label": "Alemtuzumab",
        "level": 1,
        "pos": "-620782.6943916781,527363.8967418738",
        "src_id": "82",
        "weight": "0.0006613346082369724"
      }
    },
    {
      "type": "Feature",
      "id": "24",
      "geometry": {
        "type": "Point",
        "coordinates": [
          -40.833039,
          24.145158
        ]
      },
      "properties": {
        "label": "Caspofungin",
        "level": 1,
        "pos": "-620544.7934838668,429098.8911264189",
        "src_id": "507",
        "weight": "0.0009094710211748729"
      }
    },
    {
      "type": "Feature",
      "id": "686",
      "geometry": {
        "type": "Point",
        "coordinates": [
          -42.897472,
          25.070233
        ]
      },
      "properties": {
        "label": "Rosuvastatin",
        "level": 2,
        "pos": "-647225.270679775,442035.7286442149",
        "src_id": "1082",
        "weight": "0.00037850105857161853"
      }
    },
    {
      "type": "Feature",
      "id": "2968",
      "geometry": {
        "type": "Point",
        "coordinates": [
          -42.442775,
          24.597135
        ]
      },
      "properties": {
        "label": "Ipilimumab",
        "level": 5,
        "pos": "-641348.8347620014,435407.66864601575",
        "src_id": "5462",
        "weight": "7.955838659570174e-05"
      }
    },
    {
      "type": "Feature",
      "id": "482",
      "geometry": {
        "type": "Point",
        "coordinates": [
          -42.969519,
          24.886551
        ]
      },
      "properties": {
        "label": "Mycophenolic acid",
        "level": 3,
        "pos": "-648156.3992890976,439459.35461986164",
        "src_id": "1010",
        "weight": "0.00028947506864701004"
      }
    },
    {
      "type": "Feature",
      "id": "41",
      "geometry": {
        "type": "Point",
        "coordinates": [
          -45.153811,
          16.362015
        ]
      },
      "properties": {
        "label": "Nesiritide",
        "level": 1,
        "pos": "-676385.9310826476,323516.055291351",
        "src_id": "4621",
        "weight": "0.0009181058235148686"
      }
    },
    {
      "type": "Feature",
      "id": "3798",
      "geometry": {
        "type": "Point",
        "coordinates": [
          -43.383381,
          19.462209
        ]
      },
      "properties": {
        "label": "Gadofosveset trisodium",
        "level": 5,
        "pos": "-653505.1029083725,364947.03497630864",
        "src_id": "5765",
        "weight": "0.00010929062005322611"
      }
    },
    {
      "type": "Feature",
      "id": "2206",
      "geometry": {
        "type": "Point",
        "coordinates": [
          -43.368649,
          19.535916
        ]
      },
      "properties": {
        "label": "Oblimersen",
        "level": 4,
        "pos": "-653314.7093599648,365941.18423959025",
        "src_id": "10889",
        "weight": "0.00016023512250860257"
      }
    },
    {
      "type": "Feature",
      "id": "2475",
      "geometry": {
        "type": "Point",
        "coordinates": [
          -43.079141,
          19.454131
        ]
      },
      "properties": {
        "label": "Vatalanib",
        "level": 4,
        "pos": "-649573.1408831979,364838.1024745774",
        "src_id": "4601",
        "weight": "0.00015613559046662794"
      }
    },
    {
      "type": "Feature",
      "id": "3971",
      "geometry": {
        "type": "Point",
        "coordinates": [
          -43.276704,
          19.103887
        ]
      },
      "properties": {
        "label": "Carbopol 974P",
        "level": 5,
        "pos": "-652126.4323213331,360120.4077692994",
        "src_id": "5014",
        "weight": "7.52084589975042e-05"
      }
    },
    {
      "type": "Feature",
      "id": "3281",
      "geometry": {
        "type": "Point",
        "coordinates": [
          -42.88319,
          19.641098
        ]
      },
      "properties": {
        "label": "Indisulam",
        "level": 5,
        "pos": "-647040.6887794895,367360.6583118405",
        "src_id": "5571",
        "weight": "7.59588291330841e-05"
      }
    },
    {
      "type": "Feature",
      "id": "2834",
      "geometry": {
        "type": "Point",
        "coordinates": [
          -43.208368,
          19.181384
        ]
      },
      "properties": {
        "label": "Laquinimod",
        "level": 5,
        "pos": "-651243.2604093096,361163.4032113992",
        "src_id": "5747",
        "weight": "7.767452811413415e-05"
      }
    },
    {
      "type": "Feature",
      "id": "4195",
      "geometry": {
        "type": "Point",
        "coordinates": [
          -43.390259,
          19.415139
        ]
      },
      "properties": {
        "label": "Ethiodized oil",
        "level": 5,
        "pos": "-653593.998855052,364312.3933894334",
        "src_id": "951",
        "weight": "4.6842538614208406e-05"
      }
    },
    {
      "type": "Feature",
      "id": "3969",
      "geometry": {
        "type": "Point",
        "coordinates": [
          -43.228908,
          19.324128
        ]
      },
      "properties": {
        "label": "Zosuquidar",
        "level": 5,
        "pos": "-651508.7066272603,363085.8238167387",
        "src_id": "5466",
        "weight": "5.3109954840801535e-05"
      }
    },
    {
      "type": "Feature",
      "id": "3965",
      "geometry": {
        "type": "Point",
        "coordinates": [
          -43.370661,
          19.548928
        ]
      },
      "properties": {
        "label": "Etilevodopa",
        "level": 5,
        "pos": "-653340.7195985095,366116.7407982636",
        "src_id": "5654",
        "weight": "5.167690236825986e-05"
      }
    },
    {
      "type": "Feature",
      "id": "3776",
      "geometry": {
        "type": "Point",
        "coordinates": [
          -43.293286,
          19.571453
        ]
      },
      "properties": {
        "label": "Dibotermin alfa",
        "level": 5,
        "pos": "-652340.7266867757,366420.6669598753",
        "src_id": "9311",
        "weight": "5.4710685114398e-05"
      }
    },
    {
      "type": "Feature",
      "id": "4143",
      "geometry": {
        "type": "Point",
        "coordinates": [
          -44.418217,
          19.651217
        ]
      },
      "properties": {
        "label": "Vinflunine",
        "level": 5,
        "pos": "-666879.1976685071,367497.2702944872",
        "src_id": "9313",
        "weight": "7.089870908312425e-05"
      }
    },
    {
      "type": "Feature",
      "id": "1657",
      "geometry": {
        "type": "Point",
        "coordinates": [
          -42.641359,
          17.88359
        ]
      },
      "properties": {
        "label": "Cilomilast",
        "level": 4,
        "pos": "-643915.2996191083,343759.8675230753",
        "src_id": "3624",
        "weight": "0.00018310520108736397"
      }
    },
    {
      "type": "Feature",
      "id": "417",
      "geometry": {
        "type": "Point",
        "coordinates": [
          -43.085602,
          19.00226
        ]
      },
      "properties": {
        "label": "Tocilizumab",
        "level": 2,
        "pos": "-649656.645711275,358753.4034430285",
        "src_id": "5528",
        "weight": "0.00037754604082365786"
      }
    },
    {
      "type": "Feature",
      "id": "554",
      "geometry": {
        "type": "Point",
        "coordinates": [
          -43.089668,
          18.522908
        ]
      },
      "properties": {
        "label": "Selegiline",
        "level": 4,
        "pos": "-649709.2005481913,352316.66636020254",
        "src_id": "1022",
        "weight": "0.00020469063752400504"
      }
    },
    {
      "type": "Feature",
      "id": "455",
      "geometry": {
        "type": "Point",
        "coordinates": [
          -43.296234,
          18.671884
        ]
      },
      "properties": {
        "label": "Lapatinib",
        "level": 3,
        "pos": "-652378.8324662241,354315.1568159808",
        "src_id": "1242",
        "weight": "0.0002963076067015373"
      }
    },
    {
      "type": "Feature",
      "id": "3147",
      "geometry": {
        "type": "Point",
        "coordinates": [
          -44.134977,
          17.306741
        ]
      },
      "properties": {
        "label": "Uracil",
        "level": 5,
        "pos": "-663218.651710915,336065.60993621184",
        "src_id": "3228",
        "weight": "0.00010616636334228975"
      }
    },
    {
      "type": "Feature",
      "id": "4775",
      "geometry": {
        "type": "Point",
        "coordinates": [
          -43.990881,
          17.369219
        ]
      },
      "properties": {
        "label": "Hepatectomy",
        "level": 5,
        "pos": "-661356.3722404746,336897.7868886405",
        "src_id": "177862",
        "weight": "5.087592416218743e-05"
      }
    },
    {
      "type": "Feature",
      "id": "3165",
      "geometry": {
        "type": "Point",
        "coordinates": [
          -50.907987,
          13.749133
        ]
      },
      "properties": {
        "label": "Trifluridine",
        "level": 5,
        "pos": "-750752.2317792649,289110.68024983694",
        "src_id": "421",
        "weight": "0.00010539862669240356"
      }
    },
    {
      "type": "Feature",
      "id": "1037",
      "geometry": {
        "type": "Point",
        "coordinates": [
          -53.288384,
          12.812536
        ]
      },
      "properties": {
        "label": "Clevudine",
        "level": 3,
        "pos": "-781516.192236824,276875.06687024806",
        "src_id": "5745",
        "weight": "0.00034396389402050745"
      }
    },
    {
      "type": "Feature",
      "id": "2343",
      "geometry": {
        "type": "Point",
        "coordinates": [
          -51.167349,
          14.071527
        ]
      },
      "properties": {
        "label": "Eribulin",
        "level": 5,
        "pos": "-754104.1863278004,293333.5603002093",
        "src_id": "7830",
        "weight": "8.719877008533177e-05"
      }
    },
    {
      "type": "Feature",
      "id": "1737",
      "geometry": {
        "type": "Point",
        "coordinates": [
          -51.501486,
          14.685956
        ]
      },
      "properties": {
        "label": "Benzoyl peroxide",
        "level": 4,
        "pos": "-758422.5444610311,301398.2853726451",
        "src_id": "8041",
        "weight": "0.00016531053464089097"
      }
    },
    {
      "type": "Feature",
      "id": "2328",
      "geometry": {
        "type": "Point",
        "coordinates": [
          -50.899166,
          14.692951
        ]
      },
      "properties": {
        "label": "Saracatinib",
        "level": 5,
        "pos": "-750638.2303578147,301490.23052781017",
        "src_id": "9474",
        "weight": "8.719877008533177e-05"
      }
    },
    {
      "type": "Feature",
      "id": "1937",
      "geometry": {
        "type": "Point",
        "coordinates": [
          -51.191193,
          14.462449
        ]
      },
      "properties": {
        "label": "Pexelizumab",
        "level": 4,
        "pos": "-754412.3531941434,298462.0570156087",
        "src_id": "4660",
        "weight": "0.0001766988960679665"
      }
    },
    {
      "type": "Feature",
      "id": "1503",
      "geometry": {
        "type": "Point",
        "coordinates": [
          -51.166295,
          14.16028
        ]
      },
      "properties": {
        "label": "Teriflunomide",
        "level": 5,
        "pos": "-754090.570733696,294497.13428426423",
        "src_id": "7839",
        "weight": "0.0001149584867272605"
      }
    },
    {
      "type": "Feature",
      "id": "1825",
      "geometry": {
        "type": "Point",
        "coordinates": [
          -51.215754,
          14.38126
        ]
      },
      "properties": {
        "label": "Vofopitant",
        "level": 5,
        "pos": "-754729.7650506222,297396.21127840376",
        "src_id": "10091",
        "weight": "9.578399852566864e-05"
      }
    },
    {
      "type": "Feature",
      "id": "1923",
      "geometry": {
        "type": "Point",
        "coordinates": [
          -50.980642,
          14.658763
        ]
      },
      "properties": {
        "label": "Gossypol",
        "level": 5,
        "pos": "-751691.2081624452,301040.8870393966",
        "src_id": "10670",
        "weight": "9.433131192987038e-05"
      }
    },
    {
      "type": "Feature",
      "id": "3495",
      "geometry": {
        "type": "Point",
        "coordinates": [
          -50.760567,
          13.890292
        ]
      },
      "properties": {
        "label": "Insulin Lispro",
        "level": 5,
        "pos": "-748846.9945456178,290958.91604010935",
        "src_id": "45",
        "weight": "7.617715259429533e-05"
      }
    },
    {
      "type": "Feature",
      "id": "3308",
      "geometry": {
        "type": "Point",
        "coordinates": [
          -51.120676,
          14.475851
        ]
      },
      "properties": {
        "label": "Daunorubicin",
        "level": 5,
        "pos": "-753500.9892776159,298638.0369054036",
        "src_id": "680",
        "weight": "6.18781162242107e-05"
      }
    },
    {
      "type": "Feature",
      "id": "2974",
      "geometry": {
        "type": "Point",
        "coordinates": [
          -50.8423,
          14.671174
        ]
      },
      "properties": {
        "label": "Acadesine",
        "level": 5,
        "pos": "-749903.286725547,301204.01173034485",
        "src_id": "4656",
        "weight": "8.031883749810454e-05"
      }
    },
    {
      "type": "Feature",
      "id": "3287",
      "geometry": {
        "type": "Point",
        "coordinates": [
          -50.729854,
          13.927361
        ]
      },
      "properties": {
        "label": "Apremilast",
        "level": 5,
        "pos": "-748450.05314258,291444.4741292579",
        "src_id": "5188",
        "weight": "6.18781162242107e-05"
      }
    },
    {
      "type": "Feature",
      "id": "3277",
      "geometry": {
        "type": "Point",
        "coordinates": [
          -51.068579,
          14.035753
        ]
      },
      "properties": {
        "label": "Tafluprost",
        "level": 5,
        "pos": "-752827.7003706876,292864.67993084114",
        "src_id": "7795",
        "weight": "6.18781162242107e-05"
      }
    },
    {
      "type": "Feature",
      "id": "3124",
      "geometry": {
        "type": "Point",
        "coordinates": [
          -51.183846,
          14.226857
        ]
      },
      "properties": {
        "label": "Linaclotide",
        "level": 5,
        "pos": "-754317.3999427333,295370.2599664836",
        "src_id": "7849",
        "weight": "6.58921408573717e-05"
      }
    },
    {
      "type": "Feature",
      "id": "3265",
      "geometry": {
        "type": "Point",
        "coordinates": [
          -50.944553,
          13.935648
        ]
      },
      "properties": {
        "label": "Biapenem",
        "level": 5,
        "pos": "-751224.8021615032,291553.02692292345",
        "src_id": "10655",
        "weight": "6.18781162242107e-05"
      }
    },
    {
      "type": "Feature",
      "id": "3807",
      "geometry": {
        "type": "Point",
        "coordinates": [
          -51.209698,
          14.293474
        ]
      },
      "properties": {
        "label": "Brasofensine",
        "level": 5,
        "pos": "-754651.5003550778,296244.1757664435",
        "src_id": "4579",
        "weight": "5.658585133969848e-05"
      }
    },
    {
      "type": "Feature",
      "id": "1153",
      "geometry": {
        "type": "Point",
        "coordinates": [
          -51.027301,
          13.956716
        ]
      },
      "properties": {
        "label": "Ruboxistaurin",
        "level": 4,
        "pos": "-752294.2295657514,291829.0182693011",
        "src_id": "9498",
        "weight": "0.00022316811992091517"
      }
    },
    {
      "type": "Feature",
      "id": "2708",
      "geometry": {
        "type": "Point",
        "coordinates": [
          -50.620593,
          13.958322
        ]
      },
      "properties": {
        "label": "Prucalopride",
        "level": 5,
        "pos": "-747037.9814499355,291850.0684402514",
        "src_id": "5630",
        "weight": "0.0001270341944709755"
      }
    },
    {
      "type": "Feature",
      "id": "4658",
      "geometry": {
        "type": "Point",
        "coordinates": [
          -51.053916,
          14.589043
        ]
      },
      "properties": {
        "label": "Raltitrexed",
        "level": 5,
        "pos": "-752638.19842059,300124.7704682139",
        "src_id": "284",
        "weight": "4.8342518246934725e-05"
      }
    },
    {
      "type": "Feature",
      "id": "12",
      "geometry": {
        "type": "Point",
        "coordinates": [
          -47.707447,
          14.785034
        ]
      },
      "properties": {
        "label": "Lenalidomide",
        "level": 1,
        "pos": "-709388.825058392,302700.8350739835",
        "src_id": "469",
        "weight": "0.0008625175209324962"
      }
    },
    {
      "type": "Feature",
      "id": "7616",
      "geometry": {
        "type": "Point",
        "coordinates": [
          -47.34533,
          14.703192
        ]
      },
      "properties": {
        "label": "Xaliproden",
        "level": 5,
        "pos": "-704708.8732628819,301624.83904075524",
        "src_id": "5576",
        "weight": "2.089563325965062e-05"
      }
    },
    {
      "type": "Feature",
      "id": "2219",
      "geometry": {
        "type": "Point",
        "coordinates": [
          -47.80965,
          15.843658
        ]
      },
      "properties": {
        "label": "Dronedarone",
        "level": 5,
        "pos": "-710709.6907567017,316656.32475981396",
        "src_id": "4577",
        "weight": "0.00012310676096015182"
      }
    },
    {
      "type": "Feature",
      "id": "3142",
      "geometry": {
        "type": "Point",
        "coordinates": [
          -47.802584,
          15.575422
        ]
      },
      "properties": {
        "label": "Olcegepant",
        "level": 5,
        "pos": "-710618.3736954483,313113.53982965194",
        "src_id": "4591",
        "weight": "6.80505666855994e-05"
      }
    },
    {
      "type": "Feature",
      "id": "3136",
      "geometry": {
        "type": "Point",
        "coordinates": [
          -47.70883,
          15.924293
        ]
      },
      "properties": {
        "label": "Prinomastat",
        "level": 5,
        "pos": "-709406.7001748256,317722.24208944314",
        "src_id": "4790",
        "weight": "6.80505666855994e-05"
      }
    },
    {
      "type": "Feature",
      "id": "3127",
      "geometry": {
        "type": "Point",
        "coordinates": [
          -47.848444,
          15.720234
        ]
      },
      "properties": {
        "label": "Resiquimod",
        "level": 5,
        "pos": "-711211.0492439537,315025.58550866717",
        "src_id": "5650",
        "weight": "6.80505666855994e-05"
      }
    },
    {
      "type": "Feature",
      "id": "307",
      "geometry": {
        "type": "Point",
        "coordinates": [
          -48.627639,
          16.752121
        ]
      },
      "properties": {
        "label": "Mecasermin",
        "level": 3,
        "pos": "-721281.2764859671,328690.57334928843",
        "src_id": "1260",
        "weight": "0.00034040666865160866"
      }
    },
    {
      "type": "Feature",
      "id": "2614",
      "geometry": {
        "type": "Point",
        "coordinates": [
          -50.054158,
          16.894855
        ]
      },
      "properties": {
        "label": "Amodiaquine",
        "level": 5,
        "pos": "-739717.4387412751,330586.4927088685",
        "src_id": "600",
        "weight": "9.904039465606246e-05"
      }
    },
    {
      "type": "Feature",
      "id": "229",
      "geometry": {
        "type": "Point",
        "coordinates": [
          -46.669483,
          14.100772
        ]
      },
      "properties": {
        "label": "Sunitinib",
        "level": 2,
        "pos": "-695974.2978530445,293716.906997561",
        "src_id": "1251",
        "weight": "0.000491307569962023"
      }
    },
    {
      "type": "Feature",
      "id": "2996",
      "geometry": {
        "type": "Point",
        "coordinates": [
          -44.888143,
          17.767542
        ]
      },
      "properties": {
        "label": "Efavirenz",
        "level": 5,
        "pos": "-672952.4714606265,342209.9889576128",
        "src_id": "612",
        "weight": "0.00012746930218234502"
      }
    },
    {
      "type": "Feature",
      "id": "553",
      "geometry": {
        "type": "Point",
        "coordinates": [
          -41.39617,
          24.993045
        ]
      },
      "properties": {
        "label": "Fosamprenavir",
        "level": 3,
        "pos": "-627822.6281015237,440952.59332458023",
        "src_id": "1283",
        "weight": "0.0003596013974985638"
      }
    },
    {
      "type": "Feature",
      "id": "1654",
      "geometry": {
        "type": "Point",
        "coordinates": [
          -41.693218,
          25.232269
        ]
      },
      "properties": {
        "label": "Trabectedin",
        "level": 4,
        "pos": "-631661.6390422933,444311.6928711782",
        "src_id": "4799",
        "weight": "0.00019468731020188618"
      }
    },
    {
      "type": "Feature",
      "id": "2126",
      "geometry": {
        "type": "Point",
        "coordinates": [
          -41.606796,
          24.91636
        ]
      },
      "properties": {
        "label": "Febuxostat",
        "level": 4,
        "pos": "-630544.7262374434,439877.19911680836",
        "src_id": "4576",
        "weight": "0.000144882495718191"
      }
    },
    {
      "type": "Feature",
      "id": "5571",
      "geometry": {
        "type": "Point",
        "coordinates": [
          -41.770637,
          24.862576
        ]
      },
      "properties": {
        "label": "Ganirelix",
        "level": 5,
        "pos": "-632662.1949107518,439123.34877734986",
        "src_id": "5841",
        "weight": "4.1012999775355595e-05"
      }
    },
    {
      "type": "Feature",
      "id": "4175",
      "geometry": {
        "type": "Point",
        "coordinates": [
          -42.096973,
          25.214977
        ]
      },
      "properties": {
        "label": "Galiximab",
        "level": 5,
        "pos": "-636879.7179837085,444068.6636695888",
        "src_id": "4623",
        "weight": "7.595765442945293e-05"
      }
    },
    {
      "type": "Feature",
      "id": "4173",
      "geometry": {
        "type": "Point",
        "coordinates": [
          -41.825882,
          25.385072
        ]
      },
      "properties": {
        "label": "Oregovomab",
        "level": 5,
        "pos": "-633376.1664231162,446460.7597448636",
        "src_id": "4675",
        "weight": "7.595765442945293e-05"
      }
    },
    {
      "type": "Feature",
      "id": "4169",
      "geometry": {
        "type": "Point",
        "coordinates": [
          -41.934729,
          25.340783
        ]
      },
      "properties": {
        "label": "Dalbavancin",
        "level": 5,
        "pos": "-634782.9031769483,445837.58165174956",
        "src_id": "5492",
        "weight": "7.302642668652741e-05"
      }
    },
    {
      "type": "Feature",
      "id": "5180",
      "geometry": {
        "type": "Point",
        "coordinates": [
          -41.008245,
          25.934861
        ]
      },
      "properties": {
        "label": "Idraparinux",
        "level": 5,
        "pos": "-622809.1346393505,454215.8078603701",
        "src_id": "5585",
        "weight": "4.8522871903998905e-05"
      }
    },
    {
      "type": "Feature",
      "id": "3439",
      "geometry": {
        "type": "Point",
        "coordinates": [
          -42.055277,
          25.304852
        ]
      },
      "properties": {
        "label": "Lixivaptan",
        "level": 5,
        "pos": "-636340.851858299,445332.185824832",
        "src_id": "5733",
        "weight": "9.565816770688629e-05"
      }
    },
    {
      "type": "Feature",
      "id": "357",
      "geometry": {
        "type": "Point",
        "coordinates": [
          -42.43748,
          25.207784
        ]
      },
      "properties": {
        "label": "Eszopiclone",
        "level": 3,
        "pos": "-641280.3945567235,443967.5797254668",
        "src_id": "391",
        "weight": "0.00031610762915881764"
      }
    },
    {
      "type": "Feature",
      "id": "189",
      "geometry": {
        "type": "Point",
        "coordinates": [
          -44.079694,
          33.865887
        ]
      },
      "properties": {
        "label": "Darbepoetin alfa",
        "level": 1,
        "pos": "-662504.1739758904,570691.4338802702",
        "src_id": "12",
        "weight": "0.000706342335926546"
      }
    },
    {
      "type": "Feature",
      "id": "1118",
      "geometry": {
        "type": "Point",
        "coordinates": [
          -40.565923,
          32.015122
        ]
      },
      "properties": {
        "label": "Natalizumab",
        "level": 4,
        "pos": "-617092.6124789715,542650.2370094098",
        "src_id": "101",
        "weight": "0.00021395365899305413"
      }
    },
    {
      "type": "Feature",
      "id": "1512",
      "geometry": {
        "type": "Point",
        "coordinates": [
          -43.633109,
          30.098737
        ]
      },
      "properties": {
        "label": "Imatinib",
        "level": 3,
        "pos": "-656732.5649245504,514205.2376055775",
        "src_id": "606",
        "weight": "0.0002858493461683868"
      }
    },
    {
      "type": "Feature",
      "id": "2607",
      "geometry": {
        "type": "Point",
        "coordinates": [
          -40.884148,
          30.689167
        ]
      },
      "properties": {
        "label": "Doxorubicin",
        "level": 5,
        "pos": "-621205.3084484164,522908.3224496476",
        "src_id": "983",
        "weight": "0.00011677194975186412"
      }
    },
    {
      "type": "Feature",
      "id": "2719",
      "geometry": {
        "type": "Point",
        "coordinates": [
          -40.403397,
          31.058662
        ]
      },
      "properties": {
        "label": "Everolimus",
        "level": 4,
        "pos": "-614992.143620987,528381.8257923315",
        "src_id": "1523",
        "weight": "0.00015887007414210755"
      }
    },
    {
      "type": "Feature",
      "id": "499",
      "geometry": {
        "type": "Point",
        "coordinates": [
          -40.61087,
          23.807949
        ]
      },
      "properties": {
        "label": "Tigecycline",
        "level": 3,
        "pos": "-617673.4988732787,424406.6012732095",
        "src_id": "547",
        "weight": "0.00033601580608490927"
      }
    },
    {
      "type": "Feature",
      "id": "3148",
      "geometry": {
        "type": "Point",
        "coordinates": [
          -40.840202,
          23.759887
        ]
      },
      "properties": {
        "label": "Brivudine",
        "level": 5,
        "pos": "-620637.3571545483,423738.7984110994",
        "src_id": "3128",
        "weight": "9.56607648647439e-05"
      }
    },
    {
      "type": "Feature",
      "id": "1288",
      "geometry": {
        "type": "Point",
        "coordinates": [
          -41.073528,
          24.05573
        ]
      },
      "properties": {
        "label": "Plerixafor",
        "level": 4,
        "pos": "-623652.8352620718,427853.2903371064",
        "src_id": "5862",
        "weight": "0.0002131409118357561"
      }
    },
    {
      "type": "Feature",
      "id": "479",
      "geometry": {
        "type": "Point",
        "coordinates": [
          -40.482526,
          24.302386
        ]
      },
      "properties": {
        "label": "Perospirone",
        "level": 3,
        "pos": "-616014.8037377628,431290.9551442843",
        "src_id": "7878",
        "weight": "0.00028915399506787104"
      }
    },
    {
      "type": "Feature",
      "id": "1680",
      "geometry": {
        "type": "Point",
        "coordinates": [
          -38.622212,
          24.300871
        ]
      },
      "properties": {
        "label": "Treprostinil",
        "level": 4,
        "pos": "-591972.3197944396,431269.81517146656",
        "src_id": "364",
        "weight": "0.00021838432841980027"
      }
    },
    {
      "type": "Feature",
      "id": "619",
      "geometry": {
        "type": "Point",
        "coordinates": [
          -40.275945,
          24.331989
        ]
      },
      "properties": {
        "label": "Levocetirizine",
        "level": 3,
        "pos": "-613344.9653911997,431703.98033412005",
        "src_id": "5533",
        "weight": "0.00035979333961725035"
      }
    },
    {
      "type": "Feature",
      "id": "2375",
      "geometry": {
        "type": "Point",
        "coordinates": [
          -40.954298,
          23.845035
        ]
      },
      "properties": {
        "label": "Voriconazole",
        "level": 4,
        "pos": "-622111.9208289452,424922.0459796447",
        "src_id": "569",
        "weight": "0.00014266235919633757"
      }
    },
    {
      "type": "Feature",
      "id": "794",
      "geometry": {
        "type": "Point",
        "coordinates": [
          -40.738381,
          23.769328
        ]
      },
      "properties": {
        "label": "Ivabradine",
        "level": 3,
        "pos": "-619321.4442298233,423869.9628434541",
        "src_id": "8028",
        "weight": "0.00028479937416438835"
      }
    },
    {
      "type": "Feature",
      "id": "2709",
      "geometry": {
        "type": "Point",
        "coordinates": [
          -41.047551,
          23.915865
        ]
      },
      "properties": {
        "label": "Azimilide",
        "level": 5,
        "pos": "-623317.1053800882,425906.9292040112",
        "src_id": "4668",
        "weight": "0.00013197275916149273"
      }
    },
    {
      "type": "Feature",
      "id": "486",
      "geometry": {
        "type": "Point",
        "coordinates": [
          -39.340901,
          23.306769
        ]
      },
      "properties": {
        "label": "Tositumomab",
        "level": 2,
        "pos": "-601260.5696355419,417455.04647806817",
        "src_id": "77",
        "weight": "0.00046677135864928924"
      }
    },
    {
      "type": "Feature",
      "id": "4363",
      "geometry": {
        "type": "Point",
        "coordinates": [
          -40.589862,
          24.419048
        ]
      },
      "properties": {
        "label": "Onercept",
        "level": 5,
        "pos": "-617402.000339105,432919.20849428995",
        "src_id": "5638",
        "weight": "5.6275080703136976e-05"
      }
    },
    {
      "type": "Feature",
      "id": "289",
      "geometry": {
        "type": "Point",
        "coordinates": [
          -40.747989,
          24.453927
        ]
      },
      "properties": {
        "label": "Linezolid",
        "level": 3,
        "pos": "-619445.6133101868,433406.29958269576",
        "src_id": "588",
        "weight": "0.0002991199412973316"
      }
    },
    {
      "type": "Feature",
      "id": "4584",
      "geometry": {
        "type": "Point",
        "coordinates": [
          -40.563953,
          23.912425
        ]
      },
      "properties": {
        "label": "Tucaresol",
        "level": 5,
        "pos": "-617067.1522675346,425859.0826341625",
        "src_id": "10654",
        "weight": "5.69769378511384e-05"
      }
    },
    {
      "type": "Feature",
      "id": "841",
      "geometry": {
        "type": "Point",
        "coordinates": [
          -43.346122,
          24.847695
        ]
      },
      "properties": {
        "label": "Ranitidine",
        "level": 4,
        "pos": "-653023.5717353073,438914.8311109815",
        "src_id": "849",
        "weight": "0.00020456681456367665"
      }
    },
    {
      "type": "Feature",
      "id": "7653",
      "geometry": {
        "type": "Point",
        "coordinates": [
          -43.243767,
          24.672889
        ]
      },
      "properties": {
        "label": "Uridine diphosphate glucose",
        "level": 5,
        "pos": "-651700.7520472672,436467.28414912015",
        "src_id": "1775",
        "weight": "2.139805404615509e-05"
      }
    },
    {
      "type": "Feature",
      "id": "1300",
      "geometry": {
        "type": "Point",
        "coordinates": [
          -45.41602,
          17.145047
        ]
      },
      "properties": {
        "label": "Methyl aminolevulinate",
        "level": 4,
        "pos": "-679774.6927046612,333913.23480912915",
        "src_id": "978",
        "weight": "0.00023516549743369898"
      }
    },
    {
      "type": "Feature",
      "id": "459",
      "geometry": {
        "type": "Point",
        "coordinates": [
          -45.652829,
          17.265007
        ]
      },
      "properties": {
        "label": "Valdecoxib",
        "level": 2,
        "pos": "-682835.1918930053,335509.88275140116",
        "src_id": "567",
        "weight": "0.000408027540975046"
      }
    },
    {
      "type": "Feature",
      "id": "837",
      "geometry": {
        "type": "Point",
        "coordinates": [
          -45.237545,
          17.051516
        ]
      },
      "properties": {
        "label": "Etoricoxib",
        "level": 3,
        "pos": "-677468.1043735292,332669.05175950873",
        "src_id": "1559",
        "weight": "0.0002880022408183708"
      }
    },
    {
      "type": "Feature",
      "id": "2965",
      "geometry": {
        "type": "Point",
        "coordinates": [
          -45.350347,
          17.054489
        ]
      },
      "properties": {
        "label": "Midostaurin",
        "level": 5,
        "pos": "-678925.9420684567,332708.5935204452",
        "src_id": "5686",
        "weight": "0.00013101316583535296"
      }
    },
    {
      "type": "Feature",
      "id": "3602",
      "geometry": {
        "type": "Point",
        "coordinates": [
          -46.765124,
          15.62554
        ]
      },
      "properties": {
        "label": "Bryostatin 1",
        "level": 5,
        "pos": "-697210.3474030382,313775.12524967286",
        "src_id": "9422",
        "weight": "0.00010616913451998706"
      }
    },
    {
      "type": "Feature",
      "id": "3288",
      "geometry": {
        "type": "Point",
        "coordinates": [
          -45.728645,
          16.882239
        ]
      },
      "properties": {
        "label": "Fenretinide",
        "level": 5,
        "pos": "-683815.0215103007,330418.8549902715",
        "src_id": "4769",
        "weight": "0.00010110725191504291"
      }
    },
    {
      "type": "Feature",
      "id": "4159",
      "geometry": {
        "type": "Point",
        "coordinates": [
          -45.628136,
          16.954588
        ]
      },
      "properties": {
        "label": "Fesoterodine",
        "level": 5,
        "pos": "-682516.0511061944,331380.3416274043",
        "src_id": "5762",
        "weight": "6.899790181572296e-05"
      }
    },
    {
      "type": "Feature",
      "id": "2330",
      "geometry": {
        "type": "Point",
        "coordinates": [
          -42.836093,
          19.338956
        ]
      },
      "properties": {
        "label": "Indium",
        "level": 5,
        "pos": "-646432.0174439503,363285.605864859",
        "src_id": "9331",
        "weight": "8.30289035092197e-05"
      }
    },
    {
      "type": "Feature",
      "id": "1747",
      "geometry": {
        "type": "Point",
        "coordinates": [
          -42.364667,
          19.233457
        ]
      },
      "properties": {
        "label": "Sitagliptin",
        "level": 5,
        "pos": "-640339.3691079958,361864.51096767804",
        "src_id": "1244",
        "weight": "0.00010744960007792432"
      }
    },
    {
      "type": "Feature",
      "id": "1569",
      "geometry": {
        "type": "Point",
        "coordinates": [
          -42.783194,
          19.514012
        ]
      },
      "properties": {
        "label": "Povidone-iodine",
        "level": 5,
        "pos": "-645748.3556168821,365645.69961266284",
        "src_id": "5865",
        "weight": "0.00010935596907397844"
      }
    },
    {
      "type": "Feature",
      "id": "4649",
      "geometry": {
        "type": "Point",
        "coordinates": [
          -41.863908,
          19.508446
        ]
      },
      "properties": {
        "label": "Methazolamide",
        "level": 5,
        "pos": "-633867.6079357755,365570.6120216037",
        "src_id": "689",
        "weight": "0.00010225636109064204"
      }
    },
    {
      "type": "Feature",
      "id": "2711",
      "geometry": {
        "type": "Point",
        "coordinates": [
          -43.004986,
          19.28208
        ]
      },
      "properties": {
        "label": "Propyl alcohol",
        "level": 5,
        "pos": "-648614.7696650408,362519.3590562933",
        "src_id": "2996",
        "weight": "9.663274733467889e-05"
      }
    },
    {
      "type": "Feature",
      "id": "3589",
      "geometry": {
        "type": "Point",
        "coordinates": [
          -42.482654,
          16.350472
        ]
      },
      "properties": {
        "label": "Acute lung injury",
        "level": 5,
        "pos": "-641864.214924669,323363.1121212669",
        "src_id": "169753",
        "weight": "0.00013151919473178736"
      }
    },
    {
      "type": "Feature",
      "id": "2026",
      "geometry": {
        "type": "Point",
        "coordinates": [
          -42.753095,
          18.973385
        ]
      },
      "properties": {
        "label": "Pegsunercept",
        "level": 4,
        "pos": "-645359.3607763243,358365.13500041934",
        "src_id": "5699",
        "weight": "0.00016790293270638412"
      }
    },
    {
      "type": "Feature",
      "id": "5159",
      "geometry": {
        "type": "Point",
        "coordinates": [
          -42.895193,
          18.231306
        ]
      },
      "properties": {
        "label": "Toloxatone",
        "level": 5,
        "pos": "-647195.820006827,348409.9024613811",
        "src_id": "8185",
        "weight": "4.911064002937014e-05"
      }
    },
    {
      "type": "Feature",
      "id": "3489",
      "geometry": {
        "type": "Point",
        "coordinates": [
          -43.180794,
          18.351104
        ]
      },
      "properties": {
        "label": "Flucloxacillin",
        "level": 5,
        "pos": "-650886.885099037,350014.1081111517",
        "src_id": "292",
        "weight": "0.00011785633578144581"
      }
    },
    {
      "type": "Feature",
      "id": "8826",
      "geometry": {
        "type": "Point",
        "coordinates": [
          -43.076994,
          18.492668
        ]
      },
      "properties": {
        "label": "Entinostat",
        "level": 5,
        "pos": "-649545.4012219528,351911.2228653332",
        "src_id": "9510",
        "weight": "2.040285430751143e-05"
      }
    },
    {
      "type": "Feature",
      "id": "407",
      "geometry": {
        "type": "Point",
        "coordinates": [
          -48.156337,
          38.868029
        ]
      },
      "properties": {
        "label": "Insulin Human",
        "level": 2,
        "pos": "-715190.233763642,649725.6091900789",
        "src_id": "30",
        "weight": "0.0003755983713084617"
      }
    },
    {
      "type": "Feature",
      "id": "20",
      "geometry": {
        "type": "Point",
        "coordinates": [
          -48.328016,
          38.578168
        ]
      },
      "properties": {
        "label": "Fondaparinux sodium",
        "level": 1,
        "pos": "-717408.9831274577,645001.80487487",
        "src_id": "556",
        "weight": "0.0009445776130235717"
      }
    },
    {
      "type": "Feature",
      "id": "27",
      "geometry": {
        "type": "Point",
        "coordinates": [
          -47.535742,
          37.708546
        ]
      },
      "properties": {
        "label": "Botulinum Toxin Type B",
        "level": 1,
        "pos": "-707169.7266212299,630942.8517809286",
        "src_id": "41",
        "weight": "0.0008753208006636704"
      }
    },
    {
      "type": "Feature",
      "id": "1651",
      "geometry": {
        "type": "Point",
        "coordinates": [
          -48.41855,
          39.332465
        ]
      },
      "properties": {
        "label": "Sitaxentan",
        "level": 4,
        "pos": "-718579.0267860042,657334.774728276",
        "src_id": "5524",
        "weight": "0.0002218637773311306"
      }
    },
    {
      "type": "Feature",
      "id": "683",
      "geometry": {
        "type": "Point",
        "coordinates": [
          -48.660624,
          38.801749
        ]
      },
      "properties": {
        "label": "Lanthanum carbonate",
        "level": 3,
        "pos": "-721707.5656324705,648643.7585461405",
        "src_id": "5847",
        "weight": "0.00035325964038599003"
      }
    },
    {
      "type": "Feature",
      "id": "623",
      "geometry": {
        "type": "Point",
        "coordinates": [
          -50.3906,
          40.076517
        ]
      },
      "properties": {
        "label": "Zoledronic acid",
        "level": 3,
        "pos": "-744065.5824174281,669631.2585733397",
        "src_id": "388",
        "weight": "0.0003388866376235478"
      }
    },
    {
      "type": "Feature",
      "id": "2972",
      "geometry": {
        "type": "Point",
        "coordinates": [
          -48.611425,
          38.566331
        ]
      },
      "properties": {
        "label": "Pleconaril",
        "level": 5,
        "pos": "-721071.7263120514,644809.3093733725",
        "src_id": "4795",
        "weight": "0.0001208015442418031"
      }
    },
    {
      "type": "Feature",
      "id": "2479",
      "geometry": {
        "type": "Point",
        "coordinates": [
          -47.872004,
          37.62843
        ]
      },
      "properties": {
        "label": "Seocalcitol",
        "level": 5,
        "pos": "-711515.5406047837,629655.9962980675",
        "src_id": "4013",
        "weight": "8.16624955389833e-05"
      }
    },
    {
      "type": "Feature",
      "id": "2474",
      "geometry": {
        "type": "Point",
        "coordinates": [
          -47.667523,
          37.994767
        ]
      },
      "properties": {
        "label": "Pradefovir Mesylate",
        "level": 5,
        "pos": "-708872.8483641541,635551.6519247215",
        "src_id": "5100",
        "weight": "8.16624955389833e-05"
      }
    },
    {
      "type": "Feature",
      "id": "2471",
      "geometry": {
        "type": "Point",
        "coordinates": [
          -47.851559,
          37.887919
        ]
      },
      "properties": {
        "label": "Oglufanide",
        "level": 5,
        "pos": "-711251.3131890276,633829.0685273026",
        "src_id": "5243",
        "weight": "8.16624955389833e-05"
      }
    },
    {
      "type": "Feature",
      "id": "3282",
      "geometry": {
        "type": "Point",
        "coordinates": [
          -47.782542,
          37.938701
        ]
      },
      "properties": {
        "label": "Ferumoxytol",
        "level": 5,
        "pos": "-710359.3439402874,634647.4610863407",
        "src_id": "5488",
        "weight": "7.037473083143289e-05"
      }
    },
    {
      "type": "Feature",
      "id": "2467",
      "geometry": {
        "type": "Point",
        "coordinates": [
          -47.927182,
          37.556906
        ]
      },
      "properties": {
        "label": "Maribavir",
        "level": 5,
        "pos": "-712228.6559063226,628508.3109987776",
        "src_id": "5499",
        "weight": "8.16624955389833e-05"
      }
    },
    {
      "type": "Feature",
      "id": "2466",
      "geometry": {
        "type": "Point",
        "coordinates": [
          -47.12702,
          37.835737
        ]
      },
      "properties": {
        "label": "Alvimopan",
        "level": 5,
        "pos": "-701887.4568205153,632988.6980831841",
        "src_id": "5529",
        "weight": "8.16624955389833e-05"
      }
    },
    {
      "type": "Feature",
      "id": "3613",
      "geometry": {
        "type": "Point",
        "coordinates": [
          -47.281828,
          38.022769
        ]
      },
      "properties": {
        "label": "Radium Ra 223 Dichloride",
        "level": 5,
        "pos": "-703888.1710830914,636003.5075015762",
        "src_id": "7872",
        "weight": "5.831583634822659e-05"
      }
    },
    {
      "type": "Feature",
      "id": "3603",
      "geometry": {
        "type": "Point",
        "coordinates": [
          -47.646391,
          38.024168
        ]
      },
      "properties": {
        "label": "Ortataxel",
        "level": 5,
        "pos": "-708599.7479780178,636026.0958144031",
        "src_id": "9341",
        "weight": "5.831583634822659e-05"
      }
    },
    {
      "type": "Feature",
      "id": "2447",
      "geometry": {
        "type": "Point",
        "coordinates": [
          -47.911926,
          37.72851
        ]
      },
      "properties": {
        "label": "Amithiozone",
        "level": 5,
        "pos": "-712031.487170575,631263.740771475",
        "src_id": "10462",
        "weight": "8.16624955389833e-05"
      }
    },
    {
      "type": "Feature",
      "id": "2444",
      "geometry": {
        "type": "Point",
        "coordinates": [
          -47.531937,
          37.420669
        ]
      },
      "properties": {
        "label": "Valopicitabine",
        "level": 5,
        "pos": "-707120.5478283616,626325.2878241247",
        "src_id": "10955",
        "weight": "8.16624955389833e-05"
      }
    },
    {
      "type": "Feature",
      "id": "2515",
      "geometry": {
        "type": "Point",
        "coordinates": [
          -47.532005,
          38.099844
        ]
      },
      "properties": {
        "label": "Denileukin diftitox",
        "level": 5,
        "pos": "-707121.4278689157,637248.1505041337",
        "src_id": "4",
        "weight": "0.00010887272487402219"
      }
    },
    {
      "type": "Feature",
      "id": "35",
      "geometry": {
        "type": "Point",
        "coordinates": [
          -45.888662,
          36.237419
        ]
      },
      "properties": {
        "label": "Efalizumab",
        "level": 1,
        "pos": "-685883.0578632116,607529.307480538",
        "src_id": "90",
        "weight": "0.0008208062750429622"
      }
    },
    {
      "type": "Feature",
      "id": "30",
      "geometry": {
        "type": "Point",
        "coordinates": [
          -48.040877,
          37.685525
        ]
      },
      "properties": {
        "label": "Drotrecogin alfa",
        "level": 1,
        "pos": "-713698.0393869125,630572.928415363",
        "src_id": "54",
        "weight": "0.0008046867119308513"
      }
    },
    {
      "type": "Feature",
      "id": "1859",
      "geometry": {
        "type": "Point",
        "coordinates": [
          -47.867805,
          37.533284
        ]
      },
      "properties": {
        "label": "Reteplase",
        "level": 5,
        "pos": "-711461.2700635277,628129.517310699",
        "src_id": "15",
        "weight": "0.00013286477871890474"
      }
    },
    {
      "type": "Feature",
      "id": "3461",
      "geometry": {
        "type": "Point",
        "coordinates": [
          -47.095578,
          37.797511
        ]
      },
      "properties": {
        "label": "Licofelone",
        "level": 5,
        "pos": "-701481.1002650238,632373.4846387133",
        "src_id": "4449",
        "weight": "0.00010585766416984541"
      }
    },
    {
      "type": "Feature",
      "id": "4177",
      "geometry": {
        "type": "Point",
        "coordinates": [
          -47.707947,
          37.422805
        ]
      },
      "properties": {
        "label": "Binodenoson",
        "level": 5,
        "pos": "-709395.2901943752,626359.4944302563",
        "src_id": "4575",
        "weight": "6.872145845082848e-05"
      }
    },
    {
      "type": "Feature",
      "id": "4376",
      "geometry": {
        "type": "Point",
        "coordinates": [
          -47.614225,
          38.406787
        ]
      },
      "properties": {
        "label": "Ospemifene",
        "level": 5,
        "pos": "-708184.0365656804,642217.8153252767",
        "src_id": "4652",
        "weight": "6.744207700579085e-05"
      }
    },
    {
      "type": "Feature",
      "id": "2973",
      "geometry": {
        "type": "Point",
        "coordinates": [
          -47.873603,
          37.491585
        ]
      },
      "properties": {
        "label": "Troxacitabine",
        "level": 5,
        "pos": "-711536.2030744227,627461.1339762441",
        "src_id": "4672",
        "weight": "0.0001109239513871265"
      }
    },
    {
      "type": "Feature",
      "id": "4372",
      "geometry": {
        "type": "Point",
        "coordinates": [
          -47.368034,
          38.047114
        ]
      },
      "properties": {
        "label": "gallium maltolate",
        "level": 5,
        "pos": "-705002.2942293462,636396.5038647574",
        "src_id": "5046",
        "weight": "4.56523460700111e-05"
      }
    },
    {
      "type": "Feature",
      "id": "4370",
      "geometry": {
        "type": "Point",
        "coordinates": [
          -47.452704,
          37.43024
        ]
      },
      "properties": {
        "label": "Ciluprevir",
        "level": 5,
        "pos": "-706096.5522812374,626478.5339091084",
        "src_id": "5317",
        "weight": "6.744207700579085e-05"
      }
    },
    {
      "type": "Feature",
      "id": "4366",
      "geometry": {
        "type": "Point",
        "coordinates": [
          -47.911061,
          37.785198
        ]
      },
      "properties": {
        "label": "Exisulind",
        "level": 5,
        "pos": "-712020.3089030001,632175.3657898105",
        "src_id": "5508",
        "weight": "4.56523460700111e-05"
      }
    },
    {
      "type": "Feature",
      "id": "3445",
      "geometry": {
        "type": "Point",
        "coordinates": [
          -47.096292,
          37.904223
        ]
      },
      "properties": {
        "label": "Arzoxifene",
        "level": 5,
        "pos": "-701490.3299238331,634091.7450011773",
        "src_id": "5511",
        "weight": "9.211146646824456e-05"
      }
    },
    {
      "type": "Feature",
      "id": "4364",
      "geometry": {
        "type": "Point",
        "coordinates": [
          -47.355472,
          37.481879
        ]
      },
      "properties": {
        "label": "Repifermin",
        "level": 5,
        "pos": "-704839.9377049826,627305.6249057625",
        "src_id": "5599",
        "weight": "4.56523460700111e-05"
      }
    },
    {
      "type": "Feature",
      "id": "5170",
      "geometry": {
        "type": "Point",
        "coordinates": [
          -47.187047,
          37.558623
        ]
      },
      "properties": {
        "label": "Belimumab",
        "level": 5,
        "pos": "-702663.2304423235,628535.8618179602",
        "src_id": "7838",
        "weight": "4.558010801513183e-05"
      }
    },
    {
      "type": "Feature",
      "id": "3942",
      "geometry": {
        "type": "Point",
        "coordinates": [
          -47.628969,
          37.393765
        ]
      },
      "properties": {
        "label": "Estradiol acetate",
        "level": 5,
        "pos": "-708374.5824000401,625894.6676383903",
        "src_id": "10984",
        "weight": "7.124088616407036e-05"
      }
    },
    {
      "type": "Feature",
      "id": "1853",
      "geometry": {
        "type": "Point",
        "coordinates": [
          -47.280833,
          37.497232
        ]
      },
      "properties": {
        "label": "Dexrazoxane",
        "level": 5,
        "pos": "-703875.3203348817,627551.6333806237",
        "src_id": "370",
        "weight": "0.00013286477871890474"
      }
    },
    {
      "type": "Feature",
      "id": "4410",
      "geometry": {
        "type": "Point",
        "coordinates": [
          -47.829733,
          37.85343
        ]
      },
      "properties": {
        "label": "Cerivastatin",
        "level": 5,
        "pos": "-710969.2435202753,633273.5834411338",
        "src_id": "428",
        "weight": "6.614719465853967e-05"
      }
    },
    {
      "type": "Feature",
      "id": "2506",
      "geometry": {
        "type": "Point",
        "coordinates": [
          -47.109366,
          37.627579
        ]
      },
      "properties": {
        "label": "Zanamivir",
        "level": 5,
        "pos": "-701659.2947117258,629642.3330712564",
        "src_id": "545",
        "weight": "0.00010887272487402219"
      }
    },
    {
      "type": "Feature",
      "id": "1668",
      "geometry": {
        "type": "Point",
        "coordinates": [
          -48.750855,
          37.971699
        ]
      },
      "properties": {
        "label": "Imiquimod",
        "level": 4,
        "pos": "-722873.6988230067,635179.5488982152",
        "src_id": "710",
        "weight": "0.00019216934582489922"
      }
    },
    {
      "type": "Feature",
      "id": "3460",
      "geometry": {
        "type": "Point",
        "coordinates": [
          -47.905808,
          37.610637
        ]
      },
      "properties": {
        "label": "Picoplatin",
        "level": 5,
        "pos": "-711952.4241926288,629370.3876333612",
        "src_id": "4596",
        "weight": "5.958015995395834e-05"
      }
    },
    {
      "type": "Feature",
      "id": "4174",
      "geometry": {
        "type": "Point",
        "coordinates": [
          -47.585082,
          38.02274
        ]
      },
      "properties": {
        "label": "Oritavancin",
        "level": 5,
        "pos": "-707807.3909755973,636003.036825359",
        "src_id": "4631",
        "weight": "4.977588286309458e-05"
      }
    },
    {
      "type": "Feature",
      "id": "4622",
      "geometry": {
        "type": "Point",
        "coordinates": [
          -47.698309,
          37.972201
        ]
      },
      "properties": {
        "label": "Ceftobiprole",
        "level": 5,
        "pos": "-709270.7216548555,635187.6369485477",
        "src_id": "4636",
        "weight": "4.0730303238654576e-05"
      }
    },
    {
      "type": "Feature",
      "id": "3139",
      "geometry": {
        "type": "Point",
        "coordinates": [
          -47.556767,
          37.403014
        ]
      },
      "properties": {
        "label": "Clevidipine",
        "level": 5,
        "pos": "-707441.4587716956,626042.6892215477",
        "src_id": "4638",
        "weight": "7.562462039432911e-05"
      }
    },
    {
      "type": "Feature",
      "id": "3972",
      "geometry": {
        "type": "Point",
        "coordinates": [
          -47.162808,
          37.755603
        ]
      },
      "properties": {
        "label": "Asimadoline",
        "level": 5,
        "pos": "-702349.9716857575,631699.3465677821",
        "src_id": "4794",
        "weight": "8.074672010420793e-05"
      }
    },
    {
      "type": "Feature",
      "id": "3452",
      "geometry": {
        "type": "Point",
        "coordinates": [
          -47.103222,
          37.689093
        ]
      },
      "properties": {
        "label": "Paclitaxel docosahexaenoic acid",
        "level": 5,
        "pos": "-701579.893104699,630630.2598913619",
        "src_id": "4953",
        "weight": "5.958015995395834e-05"
      }
    },
    {
      "type": "Feature",
      "id": "2470",
      "geometry": {
        "type": "Point",
        "coordinates": [
          -47.298559,
          38.082026
        ]
      },
      "properties": {
        "label": "Rimonabant",
        "level": 4,
        "pos": "-704104.3955729123,636960.2982096577",
        "src_id": "5443",
        "weight": "0.00014976742561385376"
      }
    },
    {
      "type": "Feature",
      "id": "2967",
      "geometry": {
        "type": "Point",
        "coordinates": [
          -47.211594,
          37.593898
        ]
      },
      "properties": {
        "label": "Pixantrone",
        "level": 5,
        "pos": "-702980.4827629657,629101.7604933223",
        "src_id": "5468",
        "weight": "0.00011045840659043938"
      }
    },
    {
      "type": "Feature",
      "id": "4171",
      "geometry": {
        "type": "Point",
        "coordinates": [
          -47.686452,
          37.401922
        ]
      },
      "properties": {
        "label": "Bimosiamose",
        "level": 5,
        "pos": "-709117.4932958493,626025.2054525396",
        "src_id": "5472",
        "weight": "4.977588286309458e-05"
      }
    },
    {
      "type": "Feature",
      "id": "1652",
      "geometry": {
        "type": "Point",
        "coordinates": [
          -47.922346,
          37.851097
        ]
      },
      "properties": {
        "label": "Lanoteplase",
        "level": 4,
        "pos": "-712166.1645683551,633236.0107870607",
        "src_id": "5507",
        "weight": "0.00019216934582489922"
      }
    },
    {
      "type": "Feature",
      "id": "1836",
      "geometry": {
        "type": "Point",
        "coordinates": [
          -47.233657,
          37.949963
        ]
      },
      "properties": {
        "label": "Tanomastat",
        "level": 5,
        "pos": "-703265.6228052079,634829.0233844714",
        "src_id": "5530",
        "weight": "0.00013286477871890474"
      }
    },
    {
      "type": "Feature",
      "id": "1834",
      "geometry": {
        "type": "Point",
        "coordinates": [
          -47.32748,
          37.501632
        ]
      },
      "properties": {
        "label": "Semaxanib",
        "level": 5,
        "pos": "-704478.1756649326,627622.1468948632",
        "src_id": "5601",
        "weight": "0.00013286477871890474"
      }
    },
    {
      "type": "Feature",
      "id": "1833",
      "geometry": {
        "type": "Point",
        "coordinates": [
          -47.569999,
          37.37213
        ]
      },
      "properties": {
        "label": "Ravuconazole",
        "level": 5,
        "pos": "-707612.4623912803,625548.4777796617",
        "src_id": "5604",
        "weight": "0.00013286477871890474"
      }
    },
    {
      "type": "Feature",
      "id": "4167",
      "geometry": {
        "type": "Point",
        "coordinates": [
          -47.792351,
          37.468817
        ]
      },
      "properties": {
        "label": "Diethylnorspermine",
        "level": 5,
        "pos": "-710486.1170061338,627096.3501513193",
        "src_id": "5608",
        "weight": "4.977588286309458e-05"
      }
    },
    {
      "type": "Feature",
      "id": "3442",
      "geometry": {
        "type": "Point",
        "coordinates": [
          -47.841236,
          37.443991
        ]
      },
      "properties": {
        "label": "Meclinertant",
        "level": 5,
        "pos": "-711117.9010468343,626698.7239767015",
        "src_id": "5615",
        "weight": "5.958015995395834e-05"
      }
    },
    {
      "type": "Feature",
      "id": "2464",
      "geometry": {
        "type": "Point",
        "coordinates": [
          -47.227776,
          37.507318
        ]
      },
      "properties": {
        "label": "Enrasentan",
        "level": 5,
        "pos": "-703189.6094023895,627713.2692423492",
        "src_id": "5618",
        "weight": "0.00010887272487402219"
      }
    },
    {
      "type": "Feature",
      "id": "4165",
      "geometry": {
        "type": "Point",
        "coordinates": [
          -47.385546,
          37.434854
        ]
      },
      "properties": {
        "label": "Cariporide",
        "level": 5,
        "pos": "-705228.617955639,626552.3999814828",
        "src_id": "5621",
        "weight": "4.977588286309458e-05"
      }
    },
    {
      "type": "Feature",
      "id": "3441",
      "geometry": {
        "type": "Point",
        "coordinates": [
          -47.344017,
          37.449998
        ]
      },
      "properties": {
        "label": "Bivatuzumab",
        "level": 5,
        "pos": "-704691.9024162099,626794.9161470123",
        "src_id": "5661",
        "weight": "5.958015995395834e-05"
      }
    },
    {
      "type": "Feature",
      "id": "3440",
      "geometry": {
        "type": "Point",
        "coordinates": [
          -47.15766,
          37.940277
        ]
      },
      "properties": {
        "label": "Rostaporfin",
        "level": 5,
        "pos": "-702283.4412662663,634672.8572085723",
        "src_id": "5729",
        "weight": "5.958015995395834e-05"
      }
    },
    {
      "type": "Feature",
      "id": "4608",
      "geometry": {
        "type": "Point",
        "coordinates": [
          -47.482048,
          37.411628
        ]
      },
      "properties": {
        "label": "Fospropofol",
        "level": 5,
        "pos": "-706475.803064143,626180.5729734252",
        "src_id": "5776",
        "weight": "4.0730303238654576e-05"
      }
    },
    {
      "type": "Feature",
      "id": "2459",
      "geometry": {
        "type": "Point",
        "coordinates": [
          -47.943978,
          37.681582
        ]
      },
      "properties": {
        "label": "Benidipine",
        "level": 5,
        "pos": "-712445.7167027834,630509.5805580037",
        "src_id": "8171",
        "weight": "0.00010887272487402219"
      }
    },
    {
      "type": "Feature",
      "id": "2458",
      "geometry": {
        "type": "Point",
        "coordinates": [
          -47.451267,
          38.025012
        ]
      },
      "properties": {
        "label": "Manidipine",
        "level": 5,
        "pos": "-706077.9826379158,636039.705472058",
        "src_id": "8178",
        "weight": "0.00010887272487402219"
      }
    },
    {
      "type": "Feature",
      "id": "4591",
      "geometry": {
        "type": "Point",
        "coordinates": [
          -47.763732,
          37.455088
        ]
      },
      "properties": {
        "label": "Incyclinide",
        "level": 5,
        "pos": "-710116.2384066597,626876.4363710311",
        "src_id": "9319",
        "weight": "4.0730303238654576e-05"
      }
    },
    {
      "type": "Feature",
      "id": "3415",
      "geometry": {
        "type": "Point",
        "coordinates": [
          -47.427268,
          38.044693
        ]
      },
      "properties": {
        "label": "Mafosfamide",
        "level": 5,
        "pos": "-705767.8270079496,636357.4076144235",
        "src_id": "9747",
        "weight": "5.958015995395834e-05"
      }
    },
    {
      "type": "Feature",
      "id": "3414",
      "geometry": {
        "type": "Point",
        "coordinates": [
          -47.213508,
          38.00376
        ]
      },
      "properties": {
        "label": "Exatecan",
        "level": 5,
        "pos": "-703005.2109892326,635696.75645204",
        "src_id": "9845",
        "weight": "5.958015995395834e-05"
      }
    },
    {
      "type": "Feature",
      "id": "4139",
      "geometry": {
        "type": "Point",
        "coordinates": [
          -47.065615,
          37.71274
        ]
      },
      "properties": {
        "label": "Bizelesin",
        "level": 5,
        "pos": "-701093.8577272452,631010.2649505179",
        "src_id": "10008",
        "weight": "4.977588286309458e-05"
      }
    },
    {
      "type": "Feature",
      "id": "2449",
      "geometry": {
        "type": "Point",
        "coordinates": [
          -47.165385,
          37.968111
        ]
      },
      "properties": {
        "label": "Mizolastine",
        "level": 5,
        "pos": "-702383.2840429797,635121.6790011182",
        "src_id": "10171",
        "weight": "0.00010887272487402219"
      }
    },
    {
      "type": "Feature",
      "id": "5526",
      "geometry": {
        "type": "Point",
        "coordinates": [
          -47.163165,
          37.667153
        ]
      },
      "properties": {
        "label": "Soblidotin",
        "level": 5,
        "pos": "-702354.5943109986,630277.7995099109",
        "src_id": "10317",
        "weight": "4.471534591345922e-05"
      }
    },
    {
      "type": "Feature",
      "id": "4585",
      "geometry": {
        "type": "Point",
        "coordinates": [
          -47.115867,
          37.873484
        ]
      },
      "properties": {
        "label": "Bucindolol",
        "level": 5,
        "pos": "-701743.3075570741,633596.5448319562",
        "src_id": "10390",
        "weight": "4.0730303238654576e-05"
      }
    },
    {
      "type": "Feature",
      "id": "4135",
      "geometry": {
        "type": "Point",
        "coordinates": [
          -47.184735,
          37.619487
        ]
      },
      "properties": {
        "label": "Urocortin-2",
        "level": 5,
        "pos": "-702633.3563082425,629512.4401070394",
        "src_id": "10660",
        "weight": "6.154163057981962e-05"
      }
    },
    {
      "type": "Feature",
      "id": "796",
      "geometry": {
        "type": "Point",
        "coordinates": [
          -48.682532,
          39.861763
        ]
      },
      "properties": {
        "label": "Rasagiline",
        "level": 3,
        "pos": "-721990.7127761578,666068.5040132507",
        "src_id": "1324",
        "weight": "0.0002456430329940848"
      }
    },
    {
      "type": "Feature",
      "id": "1217",
      "geometry": {
        "type": "Point",
        "coordinates": [
          -48.321578,
          39.832032
        ]
      },
      "properties": {
        "label": "Sarcosine",
        "level": 4,
        "pos": "-717325.7757594575,665576.1374048592",
        "src_id": "10167",
        "weight": "0.0001851414011191848"
      }
    },
    {
      "type": "Feature",
      "id": "649",
      "geometry": {
        "type": "Point",
        "coordinates": [
          -48.96912,
          38.803268
        ]
      },
      "properties": {
        "label": "Decitabine",
        "level": 3,
        "pos": "-725694.5429482808,648668.5376528784",
        "src_id": "1245",
        "weight": "0.00032697572951203397"
      }
    },
    {
      "type": "Feature",
      "id": "3598",
      "geometry": {
        "type": "Point",
        "coordinates": [
          -51.15688,
          40.150502
        ]
      },
      "properties": {
        "label": "9-aminocamptothecin",
        "level": 5,
        "pos": "-753968.8944814058,670861.268631866",
        "src_id": "10164",
        "weight": "9.564187014400054e-05"
      }
    },
    {
      "type": "Feature",
      "id": "1858",
      "geometry": {
        "type": "Point",
        "coordinates": [
          -41.427146,
          25.22781
        ]
      },
      "properties": {
        "label": "Palifermin",
        "level": 4,
        "pos": "-628222.9594855942,444249.02329910273",
        "src_id": "38",
        "weight": "0.00019282435424275543"
      }
    },
    {
      "type": "Feature",
      "id": "1676",
      "geometry": {
        "type": "Point",
        "coordinates": [
          -40.925739,
          25.456168
        ]
      },
      "properties": {
        "label": "Betamethasone",
        "level": 4,
        "pos": "-621742.8316398254,447461.6019874973",
        "src_id": "432",
        "weight": "0.00015172292434306427"
      }
    },
    {
      "type": "Feature",
      "id": "2024",
      "geometry": {
        "type": "Point",
        "coordinates": [
          -41.224773,
          25.474568
        ]
      },
      "properties": {
        "label": "Hyaluronic acid",
        "level": 5,
        "pos": "-625607.511117007,447720.71991954604",
        "src_id": "7794",
        "weight": "9.711474726090308e-05"
      }
    },
    {
      "type": "Feature",
      "id": "7584",
      "geometry": {
        "type": "Point",
        "coordinates": [
          -40.603955,
          25.59122
        ]
      },
      "properties": {
        "label": "Canrenoic acid",
        "level": 5,
        "pos": "-617584.1342801406,449364.4036685553",
        "src_id": "7965",
        "weight": "2.5719799876193376e-05"
      }
    },
    {
      "type": "Feature",
      "id": "8655",
      "geometry": {
        "type": "Point",
        "coordinates": [
          -40.595741,
          25.465932
        ]
      },
      "properties": {
        "label": "Blood cortisol decreased",
        "level": 5,
        "pos": "-617477.9758100279,447599.08721194544",
        "src_id": "172062",
        "weight": "2.088104194272854e-05"
      }
    },
    {
      "type": "Feature",
      "id": "4771",
      "geometry": {
        "type": "Point",
        "coordinates": [
          -40.769795,
          25.325335
        ]
      },
      "properties": {
        "label": "Human herpesvirus 6 infection",
        "level": 5,
        "pos": "-619727.4250160198,445620.27960983064",
        "src_id": "178340",
        "weight": "3.919453877613592e-05"
      }
    },
    {
      "type": "Feature",
      "id": "5337",
      "geometry": {
        "type": "Point",
        "coordinates": [
          -40.705382,
          25.634101
        ]
      },
      "properties": {
        "label": "Neurolysis",
        "level": 5,
        "pos": "-618894.9612920377,449969.0113147254",
        "src_id": "181748",
        "weight": "3.17662003884292e-05"
      }
    },
    {
      "type": "Feature",
      "id": "7034",
      "geometry": {
        "type": "Point",
        "coordinates": [
          -40.643435,
          25.368395
        ]
      },
      "properties": {
        "label": "Peripheral nerve injection",
        "level": 5,
        "pos": "-618094.3726084576,446226.0674342691",
        "src_id": "183185",
        "weight": "2.3002357022963762e-05"
      }
    },
    {
      "type": "Feature",
      "id": "5049",
      "geometry": {
        "type": "Point",
        "coordinates": [
          -40.981847,
          25.640546
        ]
      },
      "properties": {
        "label": "Glial scar",
        "level": 5,
        "pos": "-622467.9662378851,450059.90993003646",
        "src_id": "177383",
        "weight": "3.209005533993901e-05"
      }
    },
    {
      "type": "Feature",
      "id": "990",
      "geometry": {
        "type": "Point",
        "coordinates": [
          -40.698043,
          25.086347
        ]
      },
      "properties": {
        "label": "Etravirine",
        "level": 3,
        "pos": "-618800.1199332726,442261.92247793963",
        "src_id": "5590",
        "weight": "0.0002506527660860265"
      }
    },
    {
      "type": "Feature",
      "id": "4871",
      "geometry": {
        "type": "Point",
        "coordinates": [
          -41.120205,
          25.117595
        ]
      },
      "properties": {
        "label": "Dolutegravir",
        "level": 5,
        "pos": "-624256.086261892,442700.65825859434",
        "src_id": "7884",
        "weight": "4.378570578141377e-05"
      }
    },
    {
      "type": "Feature",
      "id": "416",
      "geometry": {
        "type": "Point",
        "coordinates": [
          -41.453823,
          25.484708
        ]
      },
      "properties": {
        "label": "Dalfampridine",
        "level": 3,
        "pos": "-628567.7233417527,447863.5269974034",
        "src_id": "5714",
        "weight": "0.0002595885213081529"
      }
    },
    {
      "type": "Feature",
      "id": "308",
      "geometry": {
        "type": "Point",
        "coordinates": [
          -39.675604,
          26.56093
        ]
      },
      "properties": {
        "label": "Eculizumab",
        "level": 2,
        "pos": "-605586.2344448414,463091.0710205194",
        "src_id": "1241",
        "weight": "0.00038446616519720187"
      }
    },
    {
      "type": "Feature",
      "id": "208",
      "geometry": {
        "type": "Point",
        "coordinates": [
          -26.31199,
          36.693162
        ]
      },
      "properties": {
        "label": "Omalizumab",
        "level": 1,
        "pos": "-432876.458743862,614734.4746902066",
        "src_id": "42",
        "weight": "0.00064804226923971"
      }
    },
    {
      "type": "Feature",
      "id": "694",
      "geometry": {
        "type": "Point",
        "coordinates": [
          -25.943,
          36.494541
        ]
      },
      "properties": {
        "label": "Adalimumab",
        "level": 2,
        "pos": "-428107.67623032595,611589.1216459129",
        "src_id": "50",
        "weight": "0.00040065310237782725"
      }
    },
    {
      "type": "Feature",
      "id": "5",
      "geometry": {
        "type": "Point",
        "coordinates": [
          -34.335412,
          34.14113
        ]
      },
      "properties": {
        "label": "Dutasteride",
        "level": 1,
        "pos": "-536570.2211861665,574912.810887504",
        "src_id": "1110",
        "weight": "0.001106923563389464"
      }
    },
    {
      "type": "Feature",
      "id": "1102",
      "geometry": {
        "type": "Point",
        "coordinates": [
          -25.943409,
          37.74462
        ]
      },
      "properties": {
        "label": "Omapatrilat",
        "level": 3,
        "pos": "-428112.9589729993,631522.7444829064",
        "src_id": "872",
        "weight": "0.00025283515184876585"
      }
    },
    {
      "type": "Feature",
      "id": "18",
      "geometry": {
        "type": "Point",
        "coordinates": [
          -19.615115,
          38.06463
        ]
      },
      "properties": {
        "label": "Tipifarnib",
        "level": 1,
        "pos": "-346326.84231401543,636679.3298154902",
        "src_id": "4671",
        "weight": "0.0009015215260815727"
      }
    },
    {
      "type": "Feature",
      "id": "3138",
      "geometry": {
        "type": "Point",
        "coordinates": [
          -26.055288,
          36.920186
        ]
      },
      "properties": {
        "label": "Pirfenidone",
        "level": 5,
        "pos": "-429558.8843097283,618339.5703125518",
        "src_id": "4662",
        "weight": "9.009354396841681e-05"
      }
    },
    {
      "type": "Feature",
      "id": "523",
      "geometry": {
        "type": "Point",
        "coordinates": [
          -25.588471,
          36.43975
        ]
      },
      "properties": {
        "label": "Atazanavir",
        "level": 2,
        "pos": "-423525.79470907786,610722.878807994",
        "src_id": "1056",
        "weight": "0.0003809490300105128"
      }
    },
    {
      "type": "Feature",
      "id": "1756",
      "geometry": {
        "type": "Point",
        "coordinates": [
          -34.064711,
          33.66938
        ]
      },
      "properties": {
        "label": "Prilocaine",
        "level": 4,
        "pos": "-533071.7158640643,567685.9250209593",
        "src_id": "736",
        "weight": "0.00016327828205853266"
      }
    },
    {
      "type": "Feature",
      "id": "558",
      "geometry": {
        "type": "Point",
        "coordinates": [
          -34.074359,
          35.313547
        ]
      },
      "properties": {
        "label": "Alendronic acid",
        "level": 2,
        "pos": "-533196.4090273739,593050.6981826982",
        "src_id": "617",
        "weight": "0.0003859560282069588"
      }
    },
    {
      "type": "Feature",
      "id": "457",
      "geometry": {
        "type": "Point",
        "coordinates": [
          -33.169571,
          34.079823
        ]
      },
      "properties": {
        "label": "Telmisartan",
        "level": 3,
        "pos": "-521503.0320154765,573971.3614317415",
        "src_id": "952",
        "weight": "0.00026442207812866196"
      }
    },
    {
      "type": "Feature",
      "id": "4897",
      "geometry": {
        "type": "Point",
        "coordinates": [
          -34.63919,
          34.23082
        ]
      },
      "properties": {
        "label": "Abatacept",
        "level": 5,
        "pos": "-540496.2106314974,576291.3544731842",
        "src_id": "1264",
        "weight": "4.733181090985326e-05"
      }
    },
    {
      "type": "Feature",
      "id": "2115",
      "geometry": {
        "type": "Point",
        "coordinates": [
          -26.050423,
          38.537528
        ]
      },
      "properties": {
        "label": "Ebastine",
        "level": 4,
        "pos": "-429495.9957517223,644341.0354585854",
        "src_id": "9412",
        "weight": "0.00014451108764409969"
      }
    },
    {
      "type": "Feature",
      "id": "1961",
      "geometry": {
        "type": "Point",
        "coordinates": [
          -25.609819,
          37.875226
        ]
      },
      "properties": {
        "label": "Streptokinase",
        "level": 4,
        "pos": "-423801.6913774618,633624.5966739217",
        "src_id": "81",
        "weight": "0.0001613060311539931"
      }
    },
    {
      "type": "Feature",
      "id": "1744",
      "geometry": {
        "type": "Point",
        "coordinates": [
          -25.556788,
          38.53248
        ]
      },
      "properties": {
        "label": "Probucol",
        "level": 4,
        "pos": "-423116.3232340185,644258.9939263891",
        "src_id": "1531",
        "weight": "0.00017618808449468222"
      }
    },
    {
      "type": "Feature",
      "id": "10",
      "geometry": {
        "type": "Point",
        "coordinates": [
          -19.750884,
          39.399639
        ]
      },
      "properties": {
        "label": "Tegaserod",
        "level": 1,
        "pos": "-348081.49552849366,658439.4956572165",
        "src_id": "1063",
        "weight": "0.0009480343869626797"
      }
    },
    {
      "type": "Feature",
      "id": "1938",
      "geometry": {
        "type": "Point",
        "coordinates": [
          -19.411988,
          37.834568
        ]
      },
      "properties": {
        "label": "Dapoxetine",
        "level": 4,
        "pos": "-343701.6473926841,632969.8948370608",
        "src_id": "4606",
        "weight": "0.00015370545084014795"
      }
    },
    {
      "type": "Feature",
      "id": "1765",
      "geometry": {
        "type": "Point",
        "coordinates": [
          -13.914552,
          38.486245
        ]
      },
      "properties": {
        "label": "Basiliximab",
        "level": 4,
        "pos": "-272653.44497710915,643507.7524869962",
        "src_id": "72",
        "weight": "0.00018724241037868157"
      }
    },
    {
      "type": "Feature",
      "id": "1051",
      "geometry": {
        "type": "Point",
        "coordinates": [
          -18.38481,
          37.369032
        ]
      },
      "properties": {
        "label": "Travoprost",
        "level": 3,
        "pos": "-330426.51545802585,625498.9220016205",
        "src_id": "278",
        "weight": "0.0002616381937103423"
      }
    },
    {
      "type": "Feature",
      "id": "223",
      "geometry": {
        "type": "Point",
        "coordinates": [
          -19.885188,
          38.3917
        ]
      },
      "properties": {
        "label": "Vardenafil",
        "level": 2,
        "pos": "-349817.2297857259,641973.0615303585",
        "src_id": "848",
        "weight": "0.000534441828436814"
      }
    },