{
  "type": "FeatureCollection",
  "features": [
    {
      "type": "Feature",
      "id": "585",
      "geometry": {
        "type": "Point",
        "coordinates": [
          -57.145926,
          -20.268847
        ]
      },
      "properties": {
        "label": "Leuprolide",
        "level": 3,
        "pos": "-158570.3124423622,-45973.23364799594",
        "src_id": "7",
        "weight": "0.0006584414647170115"
      }
    },
    {
      "type": "Feature",
      "id": "1329",
      "geometry": {
        "type": "Point",
        "coordinates": [
          -57.833635,
          -20.938713
        ]
      },
      "properties": {
        "label": "Endometriosis",
        "level": 3,
        "pos": "-160667.63558646175,-47997.94404659945",
        "src_id": "175911",
        "weight": "0.0002599773433505542"
      }
    },
    {
      "type": "Feature",
      "id": "255",
      "geometry": {
        "type": "Point",
        "coordinates": [
          -56.277425,
          -19.595604
        ]
      },
      "properties": {
        "label": "Hysterectomy",
        "level": 2,
        "pos": "-155921.61292831137,-43947.10046184335",
        "src_id": "178681",
        "weight": "0.0011353409318438"
      }
    },
    {
      "type": "Feature",
      "id": "449",
      "geometry": {
        "type": "Point",
        "coordinates": [
          -58.474779,
          -19.709688
        ]
      },
      "properties": {
        "label": "Conjugated estrogens",
        "level": 2,
        "pos": "-162622.95631924464,-44289.826406648506",
        "src_id": "277",
        "weight": "0.001068117755430358"
      }
    },
    {
      "type": "Feature",
      "id": "212",
      "geometry": {
        "type": "Point",
        "coordinates": [
          -53.793065,
          -19.610495
        ]
      },
      "properties": {
        "label": "Blood oestrogen",
        "level": 1,
        "pos": "-148344.96862618456,-43991.82189243404",
        "src_id": "172274",
        "weight": "0.0021712169292174874"
      }
    },
    {
      "type": "Feature",
      "id": "940",
      "geometry": {
        "type": "Point",
        "coordinates": [
          -56.468241,
          -20.52989
        ]
      },
      "properties": {
        "label": "Uterine cancer",
        "level": 4,
        "pos": "-156503.5498639095,-46761.1891110408",
        "src_id": "188072",
        "weight": "0.00012437147882129473"
      }
    },
    {
      "type": "Feature",
      "id": "938",
      "geometry": {
        "type": "Point",
        "coordinates": [
          -56.744229,
          -18.749267
        ]
      },
      "properties": {
        "label": "Uterine leiomyoma",
        "level": 4,
        "pos": "-157345.2443327675,-41411.99683506647",
        "src_id": "188107",
        "weight": "0.00012437147882129473"
      }
    },
    {
      "type": "Feature",
      "id": "644",
      "geometry": {
        "type": "Point",
        "coordinates": [
          -60.421883,
          -20.442863
        ]
      },
      "properties": {
        "label": "Desipramine",
        "level": 3,
        "pos": "-168561.1091540556,-46498.35117301837",
        "src_id": "1135",
        "weight": "0.0006982761272047948"
      }
    },
    {
      "type": "Feature",
      "id": "345",
      "geometry": {
        "type": "Point",
        "coordinates": [
          -58.946817,
          -18.689493
        ]
      },
      "properties": {
        "label": "Anxiety disorder",
        "level": 3,
        "pos": "-164062.54693268109,-41233.441039380414",
        "src_id": "170662",
        "weight": "0.0004677927249547078"
      }
    },
    {
      "type": "Feature",
      "id": "176",
      "geometry": {
        "type": "Point",
        "coordinates": [
          -58.848799,
          -20.63037
        ]
      },
      "properties": {
        "label": "Major depression",
        "level": 3,
        "pos": "-163763.62167473917,-47064.84750704517",
        "src_id": "180375",
        "weight": "0.0008838239782891799"
      }
    },
    {
      "type": "Feature",
      "id": "1152",
      "geometry": {
        "type": "Point",
        "coordinates": [
          -59.43304,
          -19.145324
        ]
      },
      "properties": {
        "label": "Muscle atrophy",
        "level": 3,
        "pos": "-165545.40228591667,-42596.719954943845",
        "src_id": "181237",
        "weight": "0.0003359920783409681"
      }
    },
    {
      "type": "Feature",
      "id": "198",
      "geometry": {
        "type": "Point",
        "coordinates": [
          -51.71278,
          -17.20017
        ]
      },
      "properties": {
        "label": "Contraception",
        "level": 1,
        "pos": "-142000.64932145146,-36804.23124466579",
        "src_id": "174350",
        "weight": "0.0018304575581175751"
      }
    },
    {
      "type": "Feature",
      "id": "357",
      "geometry": {
        "type": "Point",
        "coordinates": [
          -54.617153,
          -21.410328
        ]
      },
      "properties": {
        "label": "Progesterone",
        "level": 2,
        "pos": "-150858.21670306602,-49428.84704286001",
        "src_id": "385",
        "weight": "0.0013202501695271868"
      }
    },
    {
      "type": "Feature",
      "id": "447",
      "geometry": {
        "type": "Point",
        "coordinates": [
          -53.364431,
          -21.646736
        ]
      },
      "properties": {
        "label": "Testosterone",
        "level": 3,
        "pos": "-147037.74927646053,-50147.85655298326",
        "src_id": "611",
        "weight": "0.0008531687468393902"
      }
    },
    {
      "type": "Feature",
      "id": "808",
      "geometry": {
        "type": "Point",
        "coordinates": [
          -54.927206,
          -19.84948
        ]
      },
      "properties": {
        "label": "Hormone therapy",
        "level": 3,
        "pos": "-151803.8046532882,-44710.125213848754",
        "src_id": "178307",
        "weight": "0.0002088627179047649"
      }
    },
    {
      "type": "Feature",
      "id": "537",
      "geometry": {
        "type": "Point",
        "coordinates": [
          -54.463753,
          -18.741616
        ]
      },
      "properties": {
        "label": "Progesterone",
        "level": 3,
        "pos": "-150390.38742168868,-41389.14177849646",
        "src_id": "184202",
        "weight": "0.0006757876192637437"
      }
    },
    {
      "type": "Feature",
      "id": "1680",
      "geometry": {
        "type": "Point",
        "coordinates": [
          -52.730884,
          -19.661478
        ]
      },
      "properties": {
        "label": "Estradiol",
        "level": 4,
        "pos": "-145105.60162340637,-44144.96871581562",
        "src_id": "769",
        "weight": "0.00013775190284675933"
      }
    },
    {
      "type": "Feature",
      "id": "1251",
      "geometry": {
        "type": "Point",
        "coordinates": [
          -52.910677,
          -20.290554
        ]
      },
      "properties": {
        "label": "Hormone level abnormal",
        "level": 4,
        "pos": "-145653.91692255661,-46038.69861399116",
        "src_id": "178304",
        "weight": "0.00012148060608347584"
      }
    },
    {
      "type": "Feature",
      "id": "1250",
      "geometry": {
        "type": "Point",
        "coordinates": [
          -54.616146,
          -20.449811
        ]
      },
      "properties": {
        "label": "Hormone replacement therapy",
        "level": 4,
        "pos": "-150855.15133783335,-46519.33296807442",
        "src_id": "178305",
        "weight": "0.000129520088408597"
      }
    },
    {
      "type": "Feature",
      "id": "525",
      "geometry": {
        "type": "Point",
        "coordinates": [
          -50.207787,
          -11.276751
        ]
      },
      "properties": {
        "label": "Levonorgestrel",
        "level": 2,
        "pos": "-137410.81804704116,-19505.821945265212",
        "src_id": "357",
        "weight": "0.0011290407653778945"
      }
    },
    {
      "type": "Feature",
      "id": "244",
      "geometry": {
        "type": "Point",
        "coordinates": [
          -50.088858,
          -10.137116
        ]
      },
      "properties": {
        "label": "Drug interaction",
        "level": 3,
        "pos": "-137048.1187738163,-16224.366913105865",
        "src_id": "175376",
        "weight": "0.0005621002657141702"
      }
    },
    {
      "type": "Feature",
      "id": "442",
      "geometry": {
        "type": "Point",
        "coordinates": [
          -52.230067,
          -9.756959
        ]
      },
      "properties": {
        "label": "Ethinyl Estradiol",
        "level": 1,
        "pos": "-143578.23651586546,-15132.406621587852",
        "src_id": "963",
        "weight": "0.0021814291257429477"
      }
    },
    {
      "type": "Feature",
      "id": "552",
      "geometry": {
        "type": "Point",
        "coordinates": [
          -47.406354,
          -13.489736
        ]
      },
      "properties": {
        "label": "Intra-uterine contraceptive device",
        "level": 3,
        "pos": "-128867.19062922384,-25916.38363716966",
        "src_id": "179325",
        "weight": "0.0008788658331042069"
      }
    },
    {
      "type": "Feature",
      "id": "890",
      "geometry": {
        "type": "Point",
        "coordinates": [
          -53.403454,
          -9.552482
        ]
      },
      "properties": {
        "label": "Etonogestrel",
        "level": 3,
        "pos": "-147156.75712672042,-14545.59202389121",
        "src_id": "285",
        "weight": "0.0009237021138867754"
      }
    },
    {
      "type": "Feature",
      "id": "1685",
      "geometry": {
        "type": "Point",
        "coordinates": [
          -51.956207,
          -8.909663
        ]
      },
      "properties": {
        "label": "Norethisterone",
        "level": 4,
        "pos": "-142743.03941256535,-12703.046605479276",
        "src_id": "703",
        "weight": "0.00015578880808298537"
      }
    },
    {
      "type": "Feature",
      "id": "1663",
      "geometry": {
        "type": "Point",
        "coordinates": [
          -52.594627,
          -8.55381
        ]
      },
      "properties": {
        "label": "Norgestimate",
        "level": 3,
        "pos": "-144690.05179193986,-11684.461814558785",
        "src_id": "943",
        "weight": "0.00022904267718234513"
      }
    },
    {
      "type": "Feature",
      "id": "1631",
      "geometry": {
        "type": "Point",
        "coordinates": [
          -53.071622,
          -10.181454
        ]
      },
      "properties": {
        "label": "Drospirenone",
        "level": 3,
        "pos": "-146144.76257624454,-16351.812319858787",
        "src_id": "1340",
        "weight": "0.00020551182983081476"
      }
    },
    {
      "type": "Feature",
      "id": "1603",
      "geometry": {
        "type": "Point",
        "coordinates": [
          -53.192088,
          -8.872776
        ]
      },
      "properties": {
        "label": "Norelgestromin",
        "level": 3,
        "pos": "-146512.15370790946,-12597.418242886566",
        "src_id": "5773",
        "weight": "0.00020551182983081476"
      }
    },
    {
      "type": "Feature",
      "id": "707",
      "geometry": {
        "type": "Point",
        "coordinates": [
          -36.524875,
          -11.260171
        ]
      },
      "properties": {
        "label": "Blood copper",
        "level": 3,
        "pos": "-95681.5615505129,-19457.98683359482",
        "src_id": "172045",
        "weight": "0.00030810695721414345"
      }
    },
    {
      "type": "Feature",
      "id": "1720",
      "geometry": {
        "type": "Point",
        "coordinates": [
          -50.846934,
          -17.392267
        ]
      },
      "properties": {
        "label": "Desogestrel",
        "level": 4,
        "pos": "-139360.0487594998,-37373.447077589786",
        "src_id": "295",
        "weight": "0.00010908686070036155"
      }
    },
    {
      "type": "Feature",
      "id": "603",
      "geometry": {
        "type": "Point",
        "coordinates": [
          -52.342572,
          -16.031864
        ]
      },
      "properties": {
        "label": "Oral contraception",
        "level": 3,
        "pos": "-143921.35371719813,-33354.74388363351",
        "src_id": "182298",
        "weight": "0.0005019140859270386"
      }
    },
    {
      "type": "Feature",
      "id": "792",
      "geometry": {
        "type": "Point",
        "coordinates": [
          -52.68751,
          -17.195754
        ]
      },
      "properties": {
        "label": "Menorrhagia",
        "level": 4,
        "pos": "-144973.3231198334,-36791.1535796561",
        "src_id": "180772",
        "weight": "0.0001269442468637593"
      }
    },
    {
      "type": "Feature",
      "id": "1390",
      "geometry": {
        "type": "Point",
        "coordinates": [
          -51.71599,
          -16.077305
        ]
      },
      "properties": {
        "label": "Condom",
        "level": 4,
        "pos": "-142010.44292861348,-33488.523303607784",
        "src_id": "174062",
        "weight": "0.000121199782896699"
      }
    },
    {
      "type": "Feature",
      "id": "1162",
      "geometry": {
        "type": "Point",
        "coordinates": [
          -51.083794,
          -18.134014
        ]
      },
      "properties": {
        "label": "Metrorrhagia",
        "level": 4,
        "pos": "-140082.41152819322,-39577.0837513028",
        "src_id": "180938",
        "weight": "0.00010488678614569281"
      }
    },
    {
      "type": "Feature",
      "id": "1018",
      "geometry": {
        "type": "Point",
        "coordinates": [
          -52.73899,
          -16.605361
        ]
      },
      "properties": {
        "label": "Sexually active",
        "level": 4,
        "pos": "-145130.32425733595,-35045.40228382242",
        "src_id": "185816",
        "weight": "0.00010885481238242405"
      }
    },
    {
      "type": "Feature",
      "id": "208",
      "geometry": {
        "type": "Point",
        "coordinates": [
          -56.40779,
          -24.446546
        ]
      },
      "properties": {
        "label": "Hot flush",
        "level": 2,
        "pos": "-156319.1872807978,-58757.33248103863",
        "src_id": "178313",
        "weight": "0.0010001309388685995"
      }
    },
    {
      "type": "Feature",
      "id": "207",
      "geometry": {
        "type": "Point",
        "coordinates": [
          -55.56315,
          -23.155123
        ]
      },
      "properties": {
        "label": "Menopause",
        "level": 2,
        "pos": "-153743.25526736723,-54763.893428422045",
        "src_id": "180770",
        "weight": "0.0010851334198662646"
      }
    },
    {
      "type": "Feature",
      "id": "1128",
      "geometry": {
        "type": "Point",
        "coordinates": [
          -56.736809,
          -25.368503
        ]
      },
      "properties": {
        "label": "Night sweats",
        "level": 4,
        "pos": "-157322.60933279656,-61633.272000462515",
        "src_id": "181827",
        "weight": "0.00017577403850366118"
      }
    },
    {
      "type": "Feature",
      "id": "287",
      "geometry": {
        "type": "Point",
        "coordinates": [
          -55.268537,
          -24.223519
        ]
      },
      "properties": {
        "label": "Puberty",
        "level": 3,
        "pos": "-152844.77344175626,-58064.81013910131",
        "src_id": "184462",
        "weight": "0.0005654851745662174"
      }
    },
    {
      "type": "Feature",
      "id": "730",
      "geometry": {
        "type": "Point",
        "coordinates": [
          -55.607973,
          -21.561878
        ]
      },
      "properties": {
        "label": "Medroxyprogesterone acetate",
        "level": 3,
        "pos": "-153879.95623846698,-49889.63798385861",
        "src_id": "590",
        "weight": "0.0003232570747656465"
      }
    },
    {
      "type": "Feature",
      "id": "912",
      "geometry": {
        "type": "Point",
        "coordinates": [
          -54.600309,
          -22.246686
        ]
      },
      "properties": {
        "label": "Chasteberry",
        "level": 4,
        "pos": "-150806.85382185306,-51977.86583283478",
        "src_id": "239745",
        "weight": "0.00010532209084926177"
      }
    },
    {
      "type": "Feature",
      "id": "516",
      "geometry": {
        "type": "Point",
        "coordinates": [
          -52.298706,
          -22.908322
        ]
      },
      "properties": {
        "label": "Blood prolactin",
        "level": 3,
        "pos": "-143787.56672198605,-54005.15998316203",
        "src_id": "172344",
        "weight": "0.00046006765531527604"
      }
    },
    {
      "type": "Feature",
      "id": "793",
      "geometry": {
        "type": "Point",
        "coordinates": [
          -53.059192,
          -22.618745
        ]
      },
      "properties": {
        "label": "Loss of libido",
        "level": 3,
        "pos": "-146106.84684951417,-53116.67809212608",
        "src_id": "180131",
        "weight": "0.0002709272095231822"
      }
    },
    {
      "type": "Feature",
      "id": "1506",
      "geometry": {
        "type": "Point",
        "coordinates": [
          -55.084154,
          -18.149122
        ]
      },
      "properties": {
        "label": "Anovulatory cycle",
        "level": 3,
        "pos": "-152282.44714587243,-39622.0636539281",
        "src_id": "170456",
        "weight": "0.00029677689892802523"
      }
    },
    {
      "type": "Feature",
      "id": "194",
      "geometry": {
        "type": "Point",
        "coordinates": [
          11.948891,
          46.756343
        ]
      },
      "properties": {
        "label": "Injection",
        "level": 3,
        "pos": "52150.59645332596,162616.95492391617",
        "src_id": "179084",
        "weight": "0.0008277662262499366"
      }
    },
    {
      "type": "Feature",
      "id": "190",
      "geometry": {
        "type": "Point",
        "coordinates": [
          10.713161,
          46.121286
        ]
      },
      "properties": {
        "label": "Stillbirth",
        "level": 1,
        "pos": "48381.94829895646,160009.68977880367",
        "src_id": "186413",
        "weight": "0.0034063847659718486"
      }
    },
    {
      "type": "Feature",
      "id": "581",
      "geometry": {
        "type": "Point",
        "coordinates": [
          12.386791,
          46.152678
        ]
      },
      "properties": {
        "label": "Magnesium sulfate",
        "level": 3,
        "pos": "53486.082221635166,160137.85639908514",
        "src_id": "640",
        "weight": "0.0004426070892477223"
      }
    },
    {
      "type": "Feature",
      "id": "497",
      "geometry": {
        "type": "Point",
        "coordinates": [
          13.189317,
          40.987574
        ]
      },
      "properties": {
        "label": "Neural tube defect",
        "level": 2,
        "pos": "55933.57026497302,139949.52931357385",
        "src_id": "181701",
        "weight": "0.0011576820181728527"
      }
    },
    {
      "type": "Feature",
      "id": "346",
      "geometry": {
        "type": "Point",
        "coordinates": [
          10.051703,
          46.011973
        ]
      },
      "properties": {
        "label": "Analgesic therapy",
        "level": 2,
        "pos": "46364.68029678854,159563.94420366216",
        "src_id": "170274",
        "weight": "0.0010486869847266909"
      }
    },
    {
      "type": "Feature",
      "id": "288",
      "geometry": {
        "type": "Point",
        "coordinates": [
          2.833615,
          49.347807
        ]
      },
      "properties": {
        "label": "Polycystic ovaries",
        "level": 2,
        "pos": "24351.416387210676,173588.4624404593",
        "src_id": "183761",
        "weight": "0.0013361734439398534"
      }
    },
    {
      "type": "Feature",
      "id": "518",
      "geometry": {
        "type": "Point",
        "coordinates": [
          11.924233,
          43.627605
        ]
      },
      "properties": {
        "label": "Abortion spontaneous",
        "level": 3,
        "pos": "52075.40053326871,150051.66095270994",
        "src_id": "169564",
        "weight": "0.0006772161106557812"
      }
    },
    {
      "type": "Feature",
      "id": "337",
      "geometry": {
        "type": "Point",
        "coordinates": [
          10.991588,
          45.073409
        ]
      },
      "properties": {
        "label": "Low birth weight baby",
        "level": 1,
        "pos": "49231.078843171366,155772.44062118238",
        "src_id": "180135",
        "weight": "0.002508593207715703"
      }
    },
    {
      "type": "Feature",
      "id": "568",
      "geometry": {
        "type": "Point",
        "coordinates": [
          11.26775,
          47.121587
        ]
      },
      "properties": {
        "label": "Barbiturates",
        "level": 2,
        "pos": "50073.29857733719,164130.4116823235",
        "src_id": "171262",
        "weight": "0.0010074895812820898"
      }
    },
    {
      "type": "Feature",
      "id": "277",
      "geometry": {
        "type": "Point",
        "coordinates": [
          9.760573,
          46.508842
        ]
      },
      "properties": {
        "label": "Caesarean section",
        "level": 2,
        "pos": "45476.80752734226,161597.20382743896",
        "src_id": "172875",
        "weight": "0.0010275045471049699"
      }
    },
    {
      "type": "Feature",
      "id": "487",
      "geometry": {
        "type": "Point",
        "coordinates": [
          9.148507,
          45.421282
        ]
      },
      "properties": {
        "label": "Tongue biting",
        "level": 3,
        "pos": "43610.17406490577,157170.37239579938",
        "src_id": "187108",
        "weight": "0.00036746028514383726"
      }
    },
    {
      "type": "Feature",
      "id": "254",
      "geometry": {
        "type": "Point",
        "coordinates": [
          -11.33327,
          51.502361
        ]
      },
      "properties": {
        "label": "Infertility",
        "level": 2,
        "pos": "-18853.832870426904,183158.73292686246",
        "src_id": "178985",
        "weight": "0.0014035514738785077"
      }
    },
    {
      "type": "Feature",
      "id": "1168",
      "geometry": {
        "type": "Point",
        "coordinates": [
          3.535112,
          50.409001
        ]
      },
      "properties": {
        "label": "Menstruation irregular",
        "level": 4,
        "pos": "26490.79610950111,178247.7486660255",
        "src_id": "180777",
        "weight": "0.00014257867261577246"
      }
    },
    {
      "type": "Feature",
      "id": "947",
      "geometry": {
        "type": "Point",
        "coordinates": [
          4.051671,
          49.74886
        ]
      },
      "properties": {
        "label": "Ultrasound scan",
        "level": 4,
        "pos": "28066.168110214527,175337.320620048",
        "src_id": "187624",
        "weight": "0.00014949116048392896"
      }
    },
    {
      "type": "Feature",
      "id": "1252",
      "geometry": {
        "type": "Point",
        "coordinates": [
          12.272634,
          42.890671
        ]
      },
      "properties": {
        "label": "Homosexuality",
        "level": 4,
        "pos": "53137.93006666798,147188.71288843965",
        "src_id": "178300",
        "weight": "0.00013526459609122153"
      }
    },
    {
      "type": "Feature",
      "id": "313",
      "geometry": {
        "type": "Point",
        "coordinates": [
          11.572242,
          44.337464
        ]
      },
      "properties": {
        "label": "Vitamin K",
        "level": 2,
        "pos": "51001.92285858462,152842.80821195597",
        "src_id": "188659",
        "weight": "0.001421921043236346"
      }
    },
    {
      "type": "Feature",
      "id": "391",
      "geometry": {
        "type": "Point",
        "coordinates": [
          10.664127,
          44.321474
        ]
      },
      "properties": {
        "label": "Partner stress",
        "level": 3,
        "pos": "48232.412662055685,152779.56620006944",
        "src_id": "182929",
        "weight": "0.0009766919876047092"
      }
    },
    {
      "type": "Feature",
      "id": "359",
      "geometry": {
        "type": "Point",
        "coordinates": [
          11.110733,
          44.061072
        ]
      },
      "properties": {
        "label": "Vaginal haemorrhage",
        "level": 1,
        "pos": "49594.43712291661,151752.07066844098",
        "src_id": "188214",
        "weight": "0.001968775307078424"
      }
    },
    {
      "type": "Feature",
      "id": "686",
      "geometry": {
        "type": "Point",
        "coordinates": [
          9.660424,
          44.685924
        ]
      },
      "properties": {
        "label": "Failure to thrive",
        "level": 3,
        "pos": "45171.37763097086,154225.3093327582",
        "src_id": "176539",
        "weight": "0.0005367226195986223"
      }
    },
    {
      "type": "Feature",
      "id": "668",
      "geometry": {
        "type": "Point",
        "coordinates": [
          9.787766,
          45.063516
        ]
      },
      "properties": {
        "label": "Prenatal care",
        "level": 3,
        "pos": "45559.73926987735,155732.80756324428",
        "src_id": "184050",
        "weight": "0.0005651335333149384"
      }
    },
    {
      "type": "Feature",
      "id": "767",
      "geometry": {
        "type": "Point",
        "coordinates": [
          10.232352,
          44.546702
        ]
      },
      "properties": {
        "label": "Premature baby",
        "level": 3,
        "pos": "46915.61106763365,153671.96158183375",
        "src_id": "184036",
        "weight": "0.00042518220758303135"
      }
    },
    {
      "type": "Feature",
      "id": "1740",
      "geometry": {
        "type": "Point",
        "coordinates": [
          -22.980969,
          24.572674
        ]
      },
      "properties": {
        "label": "Somatotropin",
        "level": 4,
        "pos": "-54376.22677203227,84362.39181104329",
        "src_id": "51",
        "weight": "9.837796128699548e-05"
      }
    },
    {
      "type": "Feature",
      "id": "2",
      "geometry": {
        "type": "Point",
        "coordinates": [
          -24.574238,
          24.875301
        ]
      },
      "properties": {
        "label": "Epilepsy",
        "level": 1,
        "pos": "-59235.28244174883,85304.98553472951",
        "src_id": "176107",
        "weight": "0.0145529562651861"
      }
    },
    {
      "type": "Feature",
      "id": "1",
      "geometry": {
        "type": "Point",
        "coordinates": [
          -22.428013,
          28.01291
        ]
      },
      "properties": {
        "label": "Convulsion",
        "level": 1,
        "pos": "-52689.86376539749,95221.1339063109",
        "src_id": "174366",
        "weight": "0.021183283532887193"
      }
    },
    {
      "type": "Feature",
      "id": "1736",
      "geometry": {
        "type": "Point",
        "coordinates": [
          -23.049355,
          23.519368
        ]
      },
      "properties": {
        "label": "Serine",
        "level": 4,
        "pos": "-54584.786254339575,81099.11874324059",
        "src_id": "125",
        "weight": "9.871294472007634e-05"
      }
    },
    {
      "type": "Feature",
      "id": "1705",
      "geometry": {
        "type": "Point",
        "coordinates": [
          -23.034023,
          24.327468
        ]
      },
      "properties": {
        "label": "Prochlorperazine",
        "level": 4,
        "pos": "-54538.027608677694,83600.30854692616",
        "src_id": "422",
        "weight": "9.837796128699548e-05"
      }
    },
    {
      "type": "Feature",
      "id": "1696",
      "geometry": {
        "type": "Point",
        "coordinates": [
          -23.1916,
          25.021555
        ]
      },
      "properties": {
        "label": "Cephalexin",
        "level": 4,
        "pos": "-55018.599489460845,85761.35505569774",
        "src_id": "554",
        "weight": "9.837796128699548e-05"
      }
    },
    {
      "type": "Feature",
      "id": "1689",
      "geometry": {
        "type": "Point",
        "coordinates": [
          -23.938304,
          25.809218
        ]
      },
      "properties": {
        "label": "Tamoxifen",
        "level": 4,
        "pos": "-57295.852615197175,88228.62905121349",
        "src_id": "661",
        "weight": "9.837796128699548e-05"
      }
    },
    {
      "type": "Feature",
      "id": "1651",
      "geometry": {
        "type": "Point",
        "coordinates": [
          -22.726426,
          24.510706
        ]
      },
      "properties": {
        "label": "Atorvastatin",
        "level": 4,
        "pos": "-53599.93916672944,84169.66211830956",
        "src_id": "1060",
        "weight": "9.837796128699548e-05"
      }
    },
    {
      "type": "Feature",
      "id": "1643",
      "geometry": {
        "type": "Point",
        "coordinates": [
          -25.899776,
          23.521404
        ]
      },
      "properties": {
        "label": "Zopiclone",
        "level": 4,
        "pos": "-63277.81657498921,81105.4045374019",
        "src_id": "1182",
        "weight": "9.871294472007634e-05"
      }
    },
    {
      "type": "Feature",
      "id": "1632",
      "geometry": {
        "type": "Point",
        "coordinates": [
          -25.755075,
          26.076688
        ]
      },
      "properties": {
        "label": "Ginkgo biloba",
        "level": 4,
        "pos": "-62836.52284055616,89070.15910598294",
        "src_id": "1332",
        "weight": "9.837796128699548e-05"
      }
    },
    {
      "type": "Feature",
      "id": "1624",
      "geometry": {
        "type": "Point",
        "coordinates": [
          -23.420751,
          23.310588
        ]
      },
      "properties": {
        "label": "Amyl Nitrite",
        "level": 4,
        "pos": "-55717.453383507,80455.42849878938",
        "src_id": "1544",
        "weight": "9.837796128699548e-05"
      }
    },
    {
      "type": "Feature",
      "id": "1623",
      "geometry": {
        "type": "Point",
        "coordinates": [
          -26.610917,
          24.633364
        ]
      },
      "properties": {
        "label": "Isopropyl Alcohol",
        "level": 4,
        "pos": "-65446.60598734812,84551.23872497902",
        "src_id": "2207",
        "weight": "9.837796128699548e-05"
      }
    },
    {
      "type": "Feature",
      "id": "1621",
      "geometry": {
        "type": "Point",
        "coordinates": [
          -24.847213,
          26.29063
        ]
      },
      "properties": {
        "label": "Pregnenolone",
        "level": 4,
        "pos": "-60067.77878513578,89744.6556646294",
        "src_id": "2634",
        "weight": "9.871294472007634e-05"
      }
    },
    {
      "type": "Feature",
      "id": "1617",
      "geometry": {
        "type": "Point",
        "coordinates": [
          -24.377995,
          26.112548
        ]
      },
      "properties": {
        "label": "Formaldehyde",
        "level": 4,
        "pos": "-58636.79365139364,89183.13279323633",
        "src_id": "3618",
        "weight": "9.871294472007634e-05"
      }
    },
    {
      "type": "Feature",
      "id": "1592",
      "geometry": {
        "type": "Point",
        "coordinates": [
          -25.691971,
          23.304729
        ]
      },
      "properties": {
        "label": "Sulfur",
        "level": 4,
        "pos": "-62644.069653290026,80437.38328947303",
        "src_id": "8292",
        "weight": "9.837796128699548e-05"
      }
    },
    {
      "type": "Feature",
      "id": "1581",
      "geometry": {
        "type": "Point",
        "coordinates": [
          -24.738423,
          26.1509
        ]
      },
      "properties": {
        "label": "Mustard seed",
        "level": 4,
        "pos": "-59735.99597002903,89303.99396134473",
        "src_id": "8615",
        "weight": "9.90479281531572e-05"
      }
    },
    {
      "type": "Feature",
      "id": "1570",
      "geometry": {
        "type": "Point",
        "coordinates": [
          -26.249403,
          25.6461
        ]
      },
      "properties": {
        "label": "Raspberry",
        "level": 4,
        "pos": "-64344.08655044339,87716.35074685267",
        "src_id": "8686",
        "weight": "9.837796128699548e-05"
      }
    },
    {
      "type": "Feature",
      "id": "1569",
      "geometry": {
        "type": "Point",
        "coordinates": [
          -22.858794,
          24.75456
        ]
      },
      "properties": {
        "label": "Beet",
        "level": 4,
        "pos": "-54003.63472307344,84928.63885806953",
        "src_id": "8690",
        "weight": "9.90479281531572e-05"
      }
    },
    {
      "type": "Feature",
      "id": "1565",
      "geometry": {
        "type": "Point",
        "coordinates": [
          -25.86857,
          23.169795
        ]
      },
      "properties": {
        "label": "Hops",
        "level": 4,
        "pos": "-63182.64800156618,80021.91564506423",
        "src_id": "8731",
        "weight": "9.90479281531572e-05"
      }
    },
    {
      "type": "Feature",
      "id": "1561",
      "geometry": {
        "type": "Point",
        "coordinates": [
          -25.306489,
          22.904272
        ]
      },
      "properties": {
        "label": "Red currant",
        "level": 4,
        "pos": "-61468.454276715165,79205.60470980407",
        "src_id": "8879",
        "weight": "9.837796128699548e-05"
      }
    },
    {
      "type": "Feature",
      "id": "209",
      "geometry": {
        "type": "Point",
        "coordinates": [
          -26.747053,
          23.466145
        ]
      },
      "properties": {
        "label": "Disability",
        "level": 2,
        "pos": "-65861.79034714117,80934.92934701283",
        "src_id": "175257",
        "weight": "0.0014952621091935154"
      }
    },
    {
      "type": "Feature",
      "id": "1512",
      "geometry": {
        "type": "Point",
        "coordinates": [
          -24.599916,
          23.045334
        ]
      },
      "properties": {
        "label": "Androgens",
        "level": 4,
        "pos": "-59313.588085426156,79639.07568358535",
        "src_id": "170311",
        "weight": "9.871294472007634e-05"
      }
    },
    {
      "type": "Feature",
      "id": "1511",
      "geometry": {
        "type": "Point",
        "coordinates": [
          -26.44002,
          25.576276
        ]
      },
      "properties": {
        "label": "Angina pectoris",
        "level": 4,
        "pos": "-64925.420128623104,87497.28026566232",
        "src_id": "170329",
        "weight": "9.837796128699548e-05"
      }
    },
    {
      "type": "Feature",
      "id": "1502",
      "geometry": {
        "type": "Point",
        "coordinates": [
          -24.189238,
          25.985655
        ]
      },
      "properties": {
        "label": "Antisocial behaviour",
        "level": 4,
        "pos": "-58061.12981562415,88783.53009914767",
        "src_id": "170646",
        "weight": "9.837796128699548e-05"
      }
    },
    {
      "type": "Feature",
      "id": "1485",
      "geometry": {
        "type": "Point",
        "coordinates": [
          -24.34311,
          26.012474
        ]
      },
      "properties": {
        "label": "Autoimmune thyroiditis",
        "level": 4,
        "pos": "-58530.398629323085,88867.9527797947",
        "src_id": "171148",
        "weight": "9.837796128699548e-05"
      }
    },
    {
      "type": "Feature",
      "id": "1480",
      "geometry": {
        "type": "Point",
        "coordinates": [
          -22.899657,
          24.124543
        ]
      },
      "properties": {
        "label": "Azotaemia",
        "level": 4,
        "pos": "-54128.249000862364,82970.74696595124",
        "src_id": "171178",
        "weight": "9.837796128699548e-05"
      }
    },
    {
      "type": "Feature",
      "id": "1464",
      "geometry": {
        "type": "Point",
        "coordinates": [
          -23.82155,
          22.943415
        ]
      },
      "properties": {
        "label": "Bladder cancer",
        "level": 4,
        "pos": "-56939.78126700056,79325.84018072432",
        "src_id": "171782",
        "weight": "9.837796128699548e-05"
      }
    },
    {
      "type": "Feature",
      "id": "1457",
      "geometry": {
        "type": "Point",
        "coordinates": [
          -25.905082,
          26.170871
        ]
      },
      "properties": {
        "label": "Blood disorder",
        "level": 4,
        "pos": "-63293.99811803113,89366.94275992499",
        "src_id": "172101",
        "weight": "9.837796128699548e-05"
      }
    },
    {
      "type": "Feature",
      "id": "1454",
      "geometry": {
        "type": "Point",
        "coordinates": [
          -26.420005,
          24.104093
        ]
      },
      "properties": {
        "label": "Blood lead normal",
        "level": 4,
        "pos": "-64864.38316891152,82907.36379307692",
        "src_id": "172252",
        "weight": "9.938291158623806e-05"
      }
    },
    {
      "type": "Feature",
      "id": "1431",
      "geometry": {
        "type": "Point",
        "coordinates": [
          -26.545734,
          25.698055
        ]
      },
      "properties": {
        "label": "Bundle branch block left",
        "level": 4,
        "pos": "-65247.82483450343,87879.4432220492",
        "src_id": "172807",
        "weight": "9.837796128699548e-05"
      }
    },
    {
      "type": "Feature",
      "id": "1427",
      "geometry": {
        "type": "Point",
        "coordinates": [
          -25.467162,
          22.96059
        ]
      },
      "properties": {
        "label": "Calcinosis",
        "level": 4,
        "pos": "-61958.456505956936,79378.61452271137",
        "src_id": "172883",
        "weight": "9.837796128699548e-05"
      }
    },
    {
      "type": "Feature",
      "id": "1415",
      "geometry": {
        "type": "Point",
        "coordinates": [
          -24.976781,
          22.844809
        ]
      },
      "properties": {
        "label": "Chemical poisoning",
        "level": 4,
        "pos": "-60462.9283525816,79023.00828759496",
        "src_id": "173507",
        "weight": "9.837796128699548e-05"
      }
    },
    {
      "type": "Feature",
      "id": "1408",
      "geometry": {
        "type": "Point",
        "coordinates": [
          -23.150279,
          23.361486
        ]
      },
      "properties": {
        "label": "Chronic paroxysmal hemicrania",
        "level": 4,
        "pos": "-54892.5812325038,80612.26003470462",
        "src_id": "173727",
        "weight": "9.837796128699548e-05"
      }
    },
    {
      "type": "Feature",
      "id": "1407",
      "geometry": {
        "type": "Point",
        "coordinates": [
          -23.308909,
          23.513444
        ]
      },
      "properties": {
        "label": "Chronic sinusitis",
        "level": 4,
        "pos": "-55376.36250308069,81080.84096248326",
        "src_id": "173733",
        "weight": "9.837796128699548e-05"
      }
    },
    {
      "type": "Feature",
      "id": "1405",
      "geometry": {
        "type": "Point",
        "coordinates": [
          -26.225618,
          26.115928
        ]
      },
      "properties": {
        "label": "Circumstantiality",
        "level": 4,
        "pos": "-64271.54808143402,89193.7772738374",
        "src_id": "173763",
        "weight": "9.837796128699548e-05"
      }
    },
    {
      "type": "Feature",
      "id": "1401",
      "geometry": {
        "type": "Point",
        "coordinates": [
          -25.642964,
          22.973132
        ]
      },
      "properties": {
        "label": "Cluttering",
        "level": 4,
        "pos": "-62494.612573000515,79417.14889444057",
        "src_id": "173815",
        "weight": "9.837796128699548e-05"
      }
    },
    {
      "type": "Feature",
      "id": "1392",
      "geometry": {
        "type": "Point",
        "coordinates": [
          -26.640742,
          25.477066
        ]
      },
      "properties": {
        "label": "Compulsions",
        "level": 4,
        "pos": "-65537.57483803414,87186.22661825146",
        "src_id": "174031",
        "weight": "9.871294472007634e-05"
      }
    },
    {
      "type": "Feature",
      "id": "1368",
      "geometry": {
        "type": "Point",
        "coordinates": [
          -24.48042,
          26.183004
        ]
      },
      "properties": {
        "label": "Dermoid cyst",
        "level": 4,
        "pos": "-58949.15829255903,89405.18718595707",
        "src_id": "175060",
        "weight": "9.837796128699548e-05"
      }
    },
    {
      "type": "Feature",
      "id": "1367",
      "geometry": {
        "type": "Point",
        "coordinates": [
          -26.308907,
          25.991685
        ]
      },
      "properties": {
        "label": "Diabetic neuropathy",
        "level": 4,
        "pos": "-64525.556464183166,88802.5066706844",
        "src_id": "175170",
        "weight": "9.837796128699548e-05"
      }
    },
    {
      "type": "Feature",
      "id": "1359",
      "geometry": {
        "type": "Point",
        "coordinates": [
          -25.26557,
          22.826548
        ]
      },
      "properties": {
        "label": "Divorced parents",
        "level": 4,
        "pos": "-61343.66289608784,78966.95253701507",
        "src_id": "175316",
        "weight": "9.837796128699548e-05"
      }
    },
    {
      "type": "Feature",
      "id": "1343",
      "geometry": {
        "type": "Point",
        "coordinates": [
          -26.835107,
          24.762369
        ]
      },
      "properties": {
        "label": "Ear piercing",
        "level": 4,
        "pos": "-66130.3282349706,84952.97330180196",
        "src_id": "175543",
        "weight": "9.837796128699548e-05"
      }
    },
    {
      "type": "Feature",
      "id": "1341",
      "geometry": {
        "type": "Point",
        "coordinates": [
          -23.343892,
          25.145686
        ]
      },
      "properties": {
        "label": "Early retirement",
        "level": 4,
        "pos": "-55483.051969560656,86149.11980496465",
        "src_id": "175554",
        "weight": "9.871294472007634e-05"
      }
    },
    {
      "type": "Feature",
      "id": "1336",
      "geometry": {
        "type": "Point",
        "coordinates": [
          -25.863803,
          22.970164
        ]
      },
      "properties": {
        "label": "Elder abuse",
        "level": 4,
        "pos": "-63168.11211549692,79408.03295754883",
        "src_id": "175647",
        "weight": "9.837796128699548e-05"
      }
    },
    {
      "type": "Feature",
      "id": "1330",
      "geometry": {
        "type": "Point",
        "coordinates": [
          -22.873642,
          23.692495
        ]
      },
      "properties": {
        "label": "Endocarditis",
        "level": 4,
        "pos": "-54048.9056258358,81633.66046152766",
        "src_id": "175857",
        "weight": "9.837796128699548e-05"
      }
    },
    {
      "type": "Feature",
      "id": "1327",
      "geometry": {
        "type": "Point",
        "coordinates": [
          -25.283362,
          26.293691
        ]
      },
      "properties": {
        "label": "Ephelides",
        "level": 4,
        "pos": "-61397.91964032354,89754.32092502224",
        "src_id": "176056",
        "weight": "9.871294472007634e-05"
      }
    },
    {
      "type": "Feature",
      "id": "1326",
      "geometry": {
        "type": "Point",
        "coordinates": [
          -26.628246,
          24.448014
        ]
      },
      "properties": {
        "label": "Epidermal naevus",
        "level": 4,
        "pos": "-65499.45567605826,83974.7671370383",
        "src_id": "176065",
        "weight": "9.837796128699548e-05"
      }
    },
    {
      "type": "Feature",
      "id": "1317",
      "geometry": {
        "type": "Point",
        "coordinates": [
          -22.807413,
          24.205912
        ]
      },
      "properties": {
        "label": "Facial pain",
        "level": 4,
        "pos": "-53846.93384922569,83223.0680551611",
        "src_id": "176491",
        "weight": "9.837796128699548e-05"
      }
    },
    {
      "type": "Feature",
      "id": "1307",
      "geometry": {
        "type": "Point",
        "coordinates": [
          -25.090037,
          22.819338
        ]
      },
      "properties": {
        "label": "Foetal monitoring",
        "level": 4,
        "pos": "-60808.327413384046,78944.81679488794",
        "src_id": "176809",
        "weight": "9.837796128699548e-05"
      }
    },
    {
      "type": "Feature",
      "id": "1305",
      "geometry": {
        "type": "Point",
        "coordinates": [
          -25.084368,
          26.236381
        ]
      },
      "properties": {
        "label": "Foot deformity",
        "level": 4,
        "pos": "-60791.03763396872,89573.51007858987",
        "src_id": "176849",
        "weight": "9.837796128699548e-05"
      }
    },
    {
      "type": "Feature",
      "id": "1293",
      "geometry": {
        "type": "Point",
        "coordinates": [
          -23.082807,
          23.9627
        ]
      },
      "properties": {
        "label": "Gene sequencing",
        "level": 4,
        "pos": "-54686.80619183452,82469.36230439944",
        "src_id": "177266",
        "weight": "9.871294472007634e-05"
      }
    },
    {
      "type": "Feature",
      "id": "1241",
      "geometry": {
        "type": "Point",
        "coordinates": [
          -23.707363,
          25.607144
        ]
      },
      "properties": {
        "label": "Hypervigilance",
        "level": 4,
        "pos": "-56591.53719901738,87594.10978204326",
        "src_id": "178551",
        "weight": "9.871294472007634e-05"
      }
    },
    {
      "type": "Feature",
      "id": "1232",
      "geometry": {
        "type": "Point",
        "coordinates": [
          -26.847413,
          24.537635
        ]
      },
      "properties": {
        "label": "Immune system disorder",
        "level": 4,
        "pos": "-66167.85639292994,84253.39552283417",
        "src_id": "178763",
        "weight": "9.837796128699548e-05"
      }
    },
    {
      "type": "Feature",
      "id": "1229",
      "geometry": {
        "type": "Point",
        "coordinates": [
          -26.01434,
          26.048846
        ]
      },
      "properties": {
        "label": "Impatience",
        "level": 4,
        "pos": "-63627.2128469334,88982.47283039447",
        "src_id": "178801",
        "weight": "9.837796128699548e-05"
      }
    },
    {
      "type": "Feature",
      "id": "1224",
      "geometry": {
        "type": "Point",
        "coordinates": [
          -26.646976,
          24.828738
        ]
      },
      "properties": {
        "label": "Influenza immunisation",
        "level": 4,
        "pos": "-65556.58148221383,85159.80742603334",
        "src_id": "179013",
        "weight": "9.837796128699548e-05"
      }
    },
    {
      "type": "Feature",
      "id": "1216",
      "geometry": {
        "type": "Point",
        "coordinates": [
          -26.264539,
          23.590406
        ]
      },
      "properties": {
        "label": "Ischaemia",
        "level": 4,
        "pos": "-64390.252865739014,81318.37178713077",
        "src_id": "179440",
        "weight": "9.871294472007634e-05"
      }
    },
    {
      "type": "Feature",
      "id": "1214",
      "geometry": {
        "type": "Point",
        "coordinates": [
          -26.674798,
          24.248079
        ]
      },
      "properties": {
        "label": "Jaw fracture",
        "level": 4,
        "pos": "-65641.43055433611,83353.88829252963",
        "src_id": "179478",
        "weight": "9.871294472007634e-05"
      }
    },
    {
      "type": "Feature",
      "id": "1190",
      "geometry": {
        "type": "Point",
        "coordinates": [
          -23.081073,
          23.725097
        ]
      },
      "properties": {
        "label": "Logorrhoea",
        "level": 4,
        "pos": "-54681.52429655364,81734.39997691104",
        "src_id": "180113",
        "weight": "9.938291158623806e-05"
      }
    },
    {
      "type": "Feature",
      "id": "1186",
      "geometry": {
        "type": "Point",
        "coordinates": [
          -24.032267,
          22.937481
        ]
      },
      "properties": {
        "label": "Lung infection",
        "level": 4,
        "pos": "-57582.41011493275,79307.60937216823",
        "src_id": "180195",
        "weight": "9.837796128699548e-05"
      }
    },
    {
      "type": "Feature",
      "id": "1175",
      "geometry": {
        "type": "Point",
        "coordinates": [
          -23.125195,
          24.854645
        ]
      },
      "properties": {
        "label": "Medication error",
        "level": 4,
        "pos": "-54816.083435775385,85240.57830689351",
        "src_id": "180661",
        "weight": "9.871294472007634e-05"
      }
    },
    {
      "type": "Feature",
      "id": "1174",
      "geometry": {
        "type": "Point",
        "coordinates": [
          -24.315449,
          22.768016
        ]
      },
      "properties": {
        "label": "Melanodermia",
        "level": 4,
        "pos": "-58446.041030602704,78787.31803341702",
        "src_id": "180686",
        "weight": "9.938291158623806e-05"
      }
    },
    {
      "type": "Feature",
      "id": "1170",
      "geometry": {
        "type": "Point",
        "coordinates": [
          -26.793083,
          24.97624
        ]
      },
      "properties": {
        "label": "Meningitis viral",
        "level": 4,
        "pos": "-66002.16525766317,85619.89640191436",
        "src_id": "180740",
        "weight": "9.90479281531572e-05"
      }
    },
    {
      "type": "Feature",
      "id": "1167",
      "geometry": {
        "type": "Point",
        "coordinates": [
          -26.623616,
          25.421162
        ]
      },
      "properties": {
        "label": "Mental disability",
        "level": 4,
        "pos": "-65485.33631054564,87011.06772631287",
        "src_id": "180779",
        "weight": "9.871294472007634e-05"
      }
    },
    {
      "type": "Feature",
      "id": "1157",
      "geometry": {
        "type": "Point",
        "coordinates": [
          -26.398679,
          25.878753
        ]
      },
      "properties": {
        "label": "Moderate mental retardation",
        "level": 4,
        "pos": "-64799.34424952306,88447.21899225384",
        "src_id": "181067",
        "weight": "9.837796128699548e-05"
      }
    },
    {
      "type": "Feature",
      "id": "1155",
      "geometry": {
        "type": "Point",
        "coordinates": [
          -23.412501,
          25.330223
        ]
      },
      "properties": {
        "label": "Morose",
        "level": 4,
        "pos": "-55692.29310367623,86726.31472223412",
        "src_id": "181127",
        "weight": "9.871294472007634e-05"
      }
    },
    {
      "type": "Feature",
      "id": "1154",
      "geometry": {
        "type": "Point",
        "coordinates": [
          -23.752629,
          23.212076
        ]
      },
      "properties": {
        "label": "Multiple allergies",
        "level": 4,
        "pos": "-56729.58975031648,80152.05800692773",
        "src_id": "181196",
        "weight": "9.837796128699548e-05"
      }
    },
    {
      "type": "Feature",
      "id": "1142",
      "geometry": {
        "type": "Point",
        "coordinates": [
          -24.319862,
          22.96059
        ]
      },
      "properties": {
        "label": "Neck surgery",
        "level": 4,
        "pos": "-58459.49546080188,79378.61170832807",
        "src_id": "181555",
        "weight": "9.837796128699548e-05"
      }
    },
    {
      "type": "Feature",
      "id": "1139",
      "geometry": {
        "type": "Point",
        "coordinates": [
          -25.757616,
          26.399518
        ]
      },
      "properties": {
        "label": "Neonatal asphyxia",
        "level": 4,
        "pos": "-62844.268396319196,90088.43342265117",
        "src_id": "181597",
        "weight": "9.837796128699548e-05"
      }
    },
    {
      "type": "Feature",
      "id": "1123",
      "geometry": {
        "type": "Point",
        "coordinates": [
          -25.154692,
          26.31032
        ]
      },
      "properties": {
        "label": "Obsessive-compulsive disorder",
        "level": 4,
        "pos": "-61005.51337816362,89806.80411593762",
        "src_id": "181988",
        "weight": "9.837796128699548e-05"
      }
    },
    {
      "type": "Feature",
      "id": "1114",
      "geometry": {
        "type": "Point",
        "coordinates": [
          -23.495046,
          25.370374
        ]
      },
      "properties": {
        "label": "Open fracture",
        "level": 4,
        "pos": "-55944.0329241198,86852.00770303405",
        "src_id": "182234",
        "weight": "9.837796128699548e-05"
      }
    },
    {
      "type": "Feature",
      "id": "1101",
      "geometry": {
        "type": "Point",
        "coordinates": [
          -23.648499,
          22.898593
        ]
      },
      "properties": {
        "label": "Oxygen saturation",
        "level": 4,
        "pos": "-56412.01652339603,79188.16297554954",
        "src_id": "182603",
        "weight": "9.837796128699548e-05"
      }
    },
    {
      "type": "Feature",
      "id": "1098",
      "geometry": {
        "type": "Point",
        "coordinates": [
          -26.527467,
          24.33466
        ]
      },
      "properties": {
        "label": "Paraplegia",
        "level": 4,
        "pos": "-65192.10681994086,83622.63527027256",
        "src_id": "182836",
        "weight": "9.90479281531572e-05"
      }
    },
    {
      "type": "Feature",
      "id": "1095",
      "geometry": {
        "type": "Point",
        "coordinates": [
          -24.873881,
          22.778921
        ]
      },
      "properties": {
        "label": "Parosmia",
        "level": 4,
        "pos": "-60149.1061400434,78820.78275380003",
        "src_id": "182907",
        "weight": "9.837796128699548e-05"
      }
    },
    {
      "type": "Feature",
      "id": "1091",
      "geometry": {
        "type": "Point",
        "coordinates": [
          -26.485709,
          23.905948
        ]
      },
      "properties": {
        "label": "Peripheral coldness",
        "level": 4,
        "pos": "-65064.762320063084,82293.68789938609",
        "src_id": "183178",
        "weight": "9.90479281531572e-05"
      }
    },
    {
      "type": "Feature",
      "id": "1089",
      "geometry": {
        "type": "Point",
        "coordinates": [
          -24.162645,
          22.930492
        ]
      },
      "properties": {
        "label": "Peroneal nerve palsy",
        "level": 4,
        "pos": "-57980.03426276458,79286.141960387",
        "src_id": "183290",
        "weight": "9.871294472007634e-05"
      }
    },
    {
      "type": "Feature",
      "id": "1084",
      "geometry": {
        "type": "Point",
        "coordinates": [
          -26.117956,
          23.366136
        ]
      },
      "properties": {
        "label": "Physical disability",
        "level": 4,
        "pos": "-63943.20781474553,80626.58727431782",
        "src_id": "183463",
        "weight": "9.871294472007634e-05"
      }
    },
    {
      "type": "Feature",
      "id": "1077",
      "geometry": {
        "type": "Point",
        "coordinates": [
          -25.552645,
          26.125785
        ]
      },
      "properties": {
        "label": "Pleurisy",
        "level": 4,
        "pos": "-62219.15664219031,89224.84249404924",
        "src_id": "183656",
        "weight": "9.837796128699548e-05"
      }
    },
    {
      "type": "Feature",
      "id": "1076",
      "geometry": {
        "type": "Point",
        "coordinates": [
          -26.616665,
          24.089974
        ]
      },
      "properties": {
        "label": "Pneumonia aspiration",
        "level": 4,
        "pos": "-65464.13929634357,82863.60321519653",
        "src_id": "183688",
        "weight": "9.871294472007634e-05"
      }
    },
    {
      "type": "Feature",
      "id": "1075",
      "geometry": {
        "type": "Point",
        "coordinates": [
          -25.928149,
          23.27752
        ]
      },
      "properties": {
        "label": "Pneumonia viral",
        "level": 4,
        "pos": "-63364.352116468595,80353.566731487",
        "src_id": "183717",
        "weight": "9.837796128699548e-05"
      }
    },
    {
      "type": "Feature",
      "id": "1058",
      "geometry": {
        "type": "Point",
        "coordinates": [
          -23.466591,
          23.56172
        ]
      },
      "properties": {
        "label": "Psoriasis",
        "level": 4,
        "pos": "-55857.25107732924,81229.8177665694",
        "src_id": "184425",
        "weight": "9.960623387495865e-05"
      }
    },
    {
      "type": "Feature",
      "id": "1052",
      "geometry": {
        "type": "Point",
        "coordinates": [
          -26.617245,
          25.231708
        ]
      },
      "properties": {
        "label": "Rabies",
        "level": 4,
        "pos": "-65465.908256502385,86418.07363242001",
        "src_id": "184679",
        "weight": "9.90479281531572e-05"
      }
    },
    {
      "type": "Feature",
      "id": "1045",
      "geometry": {
        "type": "Point",
        "coordinates": [
          -25.440933,
          26.365007
        ]
      },
      "properties": {
        "label": "Renal failure chronic",
        "level": 4,
        "pos": "-61878.467462231434,89979.43681064788",
        "src_id": "185037",
        "weight": "9.837796128699548e-05"
      }
    },
    {
      "type": "Feature",
      "id": "1024",
      "geometry": {
        "type": "Point",
        "coordinates": [
          -23.253484,
          25.153336
        ]
      },
      "properties": {
        "label": "Self-medication",
        "level": 4,
        "pos": "-55207.328231229476,86173.02662912844",
        "src_id": "185698",
        "weight": "9.871294472007634e-05"
      }
    },
    {
      "type": "Feature",
      "id": "1022",
      "geometry": {
        "type": "Point",
        "coordinates": [
          -24.747729,
          22.807502
        ]
      },
      "properties": {
        "label": "Sense of oppression",
        "level": 4,
        "pos": "-59764.376143459485,78908.48583997755",
        "src_id": "185736",
        "weight": "9.960623387495865e-05"
      }
    },
    {
      "type": "Feature",
      "id": "1016",
      "geometry": {
        "type": "Point",
        "coordinates": [
          -24.438204,
          22.758235
        ]
      },
      "properties": {
        "label": "Shoplifting",
        "level": 4,
        "pos": "-58820.406435097975,78757.31458043114",
        "src_id": "185830",
        "weight": "9.837796128699548e-05"
      }
    },
    {
      "type": "Feature",
      "id": "1010",
      "geometry": {
        "type": "Point",
        "coordinates": [
          -26.522922,
          25.245146
        ]
      },
      "properties": {
        "label": "Sjogren's syndrome",
        "level": 4,
        "pos": "-65178.24521129675,86460.09853215015",
        "src_id": "185913",
        "weight": "9.837796128699548e-05"
      }
    },
    {
      "type": "Feature",
      "id": "1004",
      "geometry": {
        "type": "Point",
        "coordinates": [
          -23.634485,
          25.504743
        ]
      },
      "properties": {
        "label": "Skin test",
        "level": 4,
        "pos": "-56369.27583793047,87272.98267255187",
        "src_id": "185978",
        "weight": "9.837796128699548e-05"
      }
    },
    {
      "type": "Feature",
      "id": "1003",
      "geometry": {
        "type": "Point",
        "coordinates": [
          -24.047071,
          25.89319
        ]
      },
      "properties": {
        "label": "Skin wrinkling",
        "level": 4,
        "pos": "-57627.5616318528,88492.62332515427",
        "src_id": "185989",
        "weight": "9.871294472007634e-05"
      }
    },
    {
      "type": "Feature",
      "id": "995",
      "geometry": {
        "type": "Point",
        "coordinates": [
          -22.916534,
          23.91949
        ]
      },
      "properties": {
        "label": "Status migrainosus",
        "level": 4,
        "pos": "-54179.72152654444,82335.5977035587",
        "src_id": "186375",
        "weight": "9.837796128699548e-05"
      }
    },
    {
      "type": "Feature",
      "id": "994",
      "geometry": {
        "type": "Point",
        "coordinates": [
          -23.821478,
          25.672834
        ]
      },
      "properties": {
        "label": "Sterilisation",
        "level": 4,
        "pos": "-56939.56202003227,87800.25657662611",
        "src_id": "186395",
        "weight": "0.00010027620074112037"
      }
    },
    {
      "type": "Feature",
      "id": "988",
      "geometry": {
        "type": "Point",
        "coordinates": [
          -25.512913,
          23.16275
        ]
      },
      "properties": {
        "label": "Sturge-Weber syndrome",
        "level": 4,
        "pos": "-62097.989137930665,80000.24103744367",
        "src_id": "186484",
        "weight": "9.871294472007634e-05"
      }
    },
    {
      "type": "Feature",
      "id": "960",
      "geometry": {
        "type": "Point",
        "coordinates": [
          -23.983085,
          23.072229
        ]
      },
      "properties": {
        "label": "Toxicologic test",
        "level": 4,
        "pos": "-57432.41980251805,79721.77944125774",
        "src_id": "187231",
        "weight": "9.871294472007634e-05"
      }
    },
    {
      "type": "Feature",
      "id": "952",
      "geometry": {
        "type": "Point",
        "coordinates": [
          -23.517697,
          23.158333
        ]
      },
      "properties": {
        "label": "Trismus",
        "level": 4,
        "pos": "-56013.111041684686,79986.65093874553",
        "src_id": "187436",
        "weight": "9.837796128699548e-05"
      }
    },
    {
      "type": "Feature",
      "id": "949",
      "geometry": {
        "type": "Point",
        "coordinates": [
          -26.319426,
          23.936791
        ]
      },
      "properties": {
        "label": "Tuberculosis",
        "level": 4,
        "pos": "-64557.63935367436,82389.14682755963",
        "src_id": "187483",
        "weight": "9.938291158623806e-05"
      }
    },
    {
      "type": "Feature",
      "id": "944",
      "geometry": {
        "type": "Point",
        "coordinates": [
          -26.172443,
          23.501526
        ]
      },
      "properties": {
        "label": "Urinary hesitation",
        "level": 4,
        "pos": "-64109.38169584593,81044.0744445375",
        "src_id": "187833",
        "weight": "9.837796128699548e-05"
      }
    },
    {
      "type": "Feature",
      "id": "937",
      "geometry": {
        "type": "Point",
        "coordinates": [
          -23.490672,
          22.990798
        ]
      },
      "properties": {
        "label": "Vaginismus",
        "level": 4,
        "pos": "-55930.68615754975,79471.43790176108",
        "src_id": "188244",
        "weight": "9.837796128699548e-05"
      }
    },
    {
      "type": "Feature",
      "id": "925",
      "geometry": {
        "type": "Point",
        "coordinates": [
          -26.685326,
          25.08394
        ]
      },
      "properties": {
        "label": "Visual acuity reduced",
        "level": 4,
        "pos": "-65673.53831064742,85956.19217057977",
        "src_id": "188582",
        "weight": "9.90479281531572e-05"
      }
    },
    {
      "type": "Feature",
      "id": "914",
      "geometry": {
        "type": "Point",
        "coordinates": [
          -26.394986,
          23.786107
        ]
      },
      "properties": {
        "label": "Wrist fracture",
        "level": 4,
        "pos": "-64788.082103290166,81922.99135165119",
        "src_id": "188907",
        "weight": "9.837796128699548e-05"
      }
    },
    {
      "type": "Feature",
      "id": "900",
      "geometry": {
        "type": "Point",
        "coordinates": [
          -24.632552,
          22.691418
        ]
      },
      "properties": {
        "label": "Passer",
        "level": 4,
        "pos": "-59413.11952928495,78552.36322544825",
        "src_id": "240589",
        "weight": "9.837796128699548e-05"
      }
    },
    {
      "type": "Feature",
      "id": "1738",
      "geometry": {
        "type": "Point",
        "coordinates": [
          -22.240026,
          29.999115
        ]
      },
      "properties": {
        "label": "Pancrelipase",
        "level": 4,
        "pos": "-52116.54585115003,101646.97279957928",
        "src_id": "80",
        "weight": "9.872537638831299e-05"
      }
    },
    {
      "type": "Feature",
      "id": "20",
      "geometry": {
        "type": "Point",
        "coordinates": [
          -22.242511,
          31.553986
        ]
      },
      "properties": {
        "label": "Anxiety",
        "level": 1,
        "pos": "-52124.125467080245,106767.36244934163",
        "src_id": "170661",
        "weight": "0.007191629624041699"
      }
    },
    {
      "type": "Feature",
      "id": "1734",
      "geometry": {
        "type": "Point",
        "coordinates": [
          -20.425088,
          26.922125
        ]
      },
      "properties": {
        "label": "Glutamic Acid",
        "level": 4,
        "pos": "-46581.46919367575,91742.90800030857",
        "src_id": "134",
        "weight": "9.872537638831299e-05"
      }
    },
    {
      "type": "Feature",
      "id": "1732",
      "geometry": {
        "type": "Point",
        "coordinates": [
          -22.728147,
          26.151005
        ]
      },
      "properties": {
        "label": "Creatine",
        "level": 4,
        "pos": "-53605.19067126914,89304.31890398586",
        "src_id": "140",
        "weight": "9.849138611099358e-05"
      }
    },
    {
      "type": "Feature",
      "id": "1731",
      "geometry": {
        "type": "Point",
        "coordinates": [
          -22.683884,
          26.030058
        ]
      },
      "properties": {
        "label": "Phentermine",
        "level": 4,
        "pos": "-53470.19628032622,88923.31169883962",
        "src_id": "182",
        "weight": "9.849138611099358e-05"
      }
    },
    {
      "type": "Feature",
      "id": "1729",
      "geometry": {
        "type": "Point",
        "coordinates": [
          -20.302146,
          27.685936
        ]
      },
      "properties": {
        "label": "Erythromycin",
        "level": 4,
        "pos": "-46206.52665107904,94174.8706008777",
        "src_id": "190",
        "weight": "9.849138611099358e-05"
      }
    },
    {
      "type": "Feature",
      "id": "1728",
      "geometry": {
        "type": "Point",
        "coordinates": [
          -20.629775,
          27.677707
        ]
      },
      "properties": {
        "label": "Azithromycin",
        "level": 4,
        "pos": "-47205.71426257659,94148.57629084784",
        "src_id": "198",
        "weight": "9.849138611099358e-05"
      }
    },
    {
      "type": "Feature",
      "id": "1726",
      "geometry": {
        "type": "Point",
        "coordinates": [
          -21.781521,
          29.627895
        ]
      },
      "properties": {
        "label": "Pantoprazole",
        "level": 4,
        "pos": "-50718.23028159578,100436.4997519484",
        "src_id": "204",
        "weight": "9.849138611099358e-05"
      }
    },
    {
      "type": "Feature",
      "id": "1724",
      "geometry": {
        "type": "Point",
        "coordinates": [
          -23.291065,
          29.807959
        ]
      },
      "properties": {
        "label": "Temazepam",
        "level": 4,
        "pos": "-55321.93792206726,101023.09246551171",
        "src_id": "222",
        "weight": "9.884237152697269e-05"
      }
    },
    {
      "type": "Feature",
      "id": "1723",
      "geometry": {
        "type": "Point",
        "coordinates": [
          -20.272931,
          27.3328
        ]
      },
      "properties": {
        "label": "Cabergoline",
        "level": 4,
        "pos": "-46117.43376067836,93048.41296703272",
        "src_id": "239",
        "weight": "9.849138611099358e-05"
      }
    },
    {
      "type": "Feature",
      "id": "53",
      "geometry": {
        "type": "Point",
        "coordinates": [
          -18.478182,
          28.143145
        ]
      },
      "properties": {
        "label": "Levetiracetam",
        "level": 1,
        "pos": "-40643.91571447582,95638.74056289085",
        "src_id": "1186",
        "weight": "0.006882236948488494"
      }
    },
    {
      "type": "Feature",
      "id": "59",
      "geometry": {
        "type": "Point",
        "coordinates": [
          -20.702443,
          25.404276
        ]
      },
      "properties": {
        "label": "Grand mal convulsion",
        "level": 1,
        "pos": "-47427.332042738286,86958.17594856913",
        "src_id": "177516",
        "weight": "0.007439468297569785"
      }
    },
    {
      "type": "Feature",
      "id": "117",
      "geometry": {
        "type": "Point",
        "coordinates": [
          -24.215932,
          30.175586
        ]
      },
      "properties": {
        "label": "Surgery",
        "level": 1,
        "pos": "-58142.53969667087,102223.99297079694",
        "src_id": "186589",
        "weight": "0.004030986189366922"
      }
    },
    {
      "type": "Feature",
      "id": "9",
      "geometry": {
        "type": "Point",
        "coordinates": [
          -26.3057,
          28.747469
        ]
      },
      "properties": {
        "label": "Electroencephalogram",
        "level": 1,
        "pos": "-64515.7755102167,97583.2712486377",
        "src_id": "175720",
        "weight": "0.008190389638790598"
      }
    },
    {
      "type": "Feature",
      "id": "1718",
      "geometry": {
        "type": "Point",
        "coordinates": [
          -20.682015,
          28.910069
        ]
      },
      "properties": {
        "label": "Methadone",
        "level": 4,
        "pos": "-47365.0323860373,98108.38012975802",
        "src_id": "323",
        "weight": "9.849138611099358e-05"
      }
    },
    {
      "type": "Feature",
      "id": "1711",
      "geometry": {
        "type": "Point",
        "coordinates": [
          -21.192538,
          26.421035
        ]
      },
      "properties": {
        "label": "Clozapine",
        "level": 4,
        "pos": "-48921.99453728357,90156.39961474482",
        "src_id": "353",
        "weight": "9.849138611099358e-05"
      }
    },
    {
      "type": "Feature",
      "id": "1710",
      "geometry": {
        "type": "Point",
        "coordinates": [
          -20.506603,
          27.169566
        ]
      },
      "properties": {
        "label": "Amlodipine",
        "level": 4,
        "pos": "-46830.071287731684,92528.93085548612",
        "src_id": "371",
        "weight": "9.849138611099358e-05"
      }
    },
    {
      "type": "Feature",
      "id": "1709",
      "geometry": {
        "type": "Point",
        "coordinates": [
          -21.558409,
          29.919992
        ]
      },
      "properties": {
        "label": "Phenylpropanolamine",
        "level": 4,
        "pos": "-50037.797540506384,101388.59225604605",
        "src_id": "386",
        "weight": "9.872537638831299e-05"
      }
    },
    {
      "type": "Feature",
      "id": "1695",
      "geometry": {
        "type": "Point",
        "coordinates": [
          -24.125557,
          27.880131
        ]
      },
      "properties": {
        "label": "Atropine",
        "level": 4,
        "pos": "-57866.923183572195,94795.87835543568",
        "src_id": "559",
        "weight": "9.849138611099358e-05"
      }
    },
    {
      "type": "Feature",
      "id": "1692",
      "geometry": {
        "type": "Point",
        "coordinates": [
          -21.35289,
          29.637708
        ]
      },
      "properties": {
        "label": "Fluticasone propionate",
        "level": 4,
        "pos": "-49411.016769033784,100468.43861374464",
        "src_id": "575",
        "weight": "9.849138611099358e-05"
      }
    },
    {
      "type": "Feature",
      "id": "1688",
      "geometry": {
        "type": "Point",
        "coordinates": [
          -22.526241,
          26.24469
        ]
      },
      "properties": {
        "label": "Mycophenolate mofetil",
        "level": 4,
        "pos": "-52989.431577614836,89599.72058398288",
        "src_id": "674",
        "weight": "9.849138611099358e-05"
      }
    },
    {
      "type": "Feature",
      "id": "1684",
      "geometry": {
        "type": "Point",
        "coordinates": [
          -23.975262,
          26.961291
        ]
      },
      "properties": {
        "label": "Procaine",
        "level": 4,
        "pos": "-57408.559791061525,91867.20922076756",
        "src_id": "707",
        "weight": "9.849138611099358e-05"
      }
    },
    {
      "type": "Feature",
      "id": "1683",
      "geometry": {
        "type": "Point",
        "coordinates": [
          -22.599959,
          29.858238
        ]
      },
      "properties": {
        "label": "Lisinopril",
        "level": 4,
        "pos": "-53214.2534386601,101187.07235442648",
        "src_id": "708",
        "weight": "9.907636180429212e-05"
      }
    },
    {
      "type": "Feature",
      "id": "1682",
      "geometry": {
        "type": "Point",
        "coordinates": [
          -20.832992,
          29.21511
        ]
      },
      "properties": {
        "label": "Nitroglycerin",
        "level": 4,
        "pos": "-47825.46992101805,99095.71766664475",
        "src_id": "713",
        "weight": "9.849138611099358e-05"
      }
    },
    {
      "type": "Feature",
      "id": "1677",
      "geometry": {
        "type": "Point",
        "coordinates": [
          -22.960574,
          26.075901
        ]
      },
      "properties": {
        "label": "Propofol",
        "level": 4,
        "pos": "-54314.02764054428,89067.67990880608",
        "src_id": "804",
        "weight": "9.849138611099358e-05"
      }
    },
    {
      "type": "Feature",
      "id": "1654",
      "geometry": {
        "type": "Point",
        "coordinates": [
          -24.39542,
          28.676805
        ]
      },
      "properties": {
        "label": "Selegiline",
        "level": 4,
        "pos": "-58689.92714959267,97355.3238950043",
        "src_id": "1022",
        "weight": "9.849138611099358e-05"
      }
    },
    {
      "type": "Feature",
      "id": "1650",
      "geometry": {
        "type": "Point",
        "coordinates": [
          -22.180641,
          29.98087
        ]
      },
      "properties": {
        "label": "Orlistat",
        "level": 4,
        "pos": "-51935.44474854451,101587.3660189999",
        "src_id": "1067",
        "weight": "9.872537638831299e-05"
      }
    },
    {
      "type": "Feature",
      "id": "1646",
      "geometry": {
        "type": "Point",
        "coordinates": [
          -23.883742,
          29.416977
        ]
      },
      "properties": {
        "label": "Diphenylpyraline",
        "level": 4,
        "pos": "-57129.45136501499,99750.73032641097",
        "src_id": "1130",
        "weight": "9.849138611099358e-05"
      }
    },
    {
      "type": "Feature",
      "id": "1645",
      "geometry": {
        "type": "Point",
        "coordinates": [
          -20.578416,
          26.773495
        ]
      },
      "properties": {
        "label": "Naloxone",
        "level": 4,
        "pos": "-47049.077210502604,91271.60440614654",
        "src_id": "1167",
        "weight": "9.849138611099358e-05"
      }
    },
    {
      "type": "Feature",
      "id": "1642",
      "geometry": {
        "type": "Point",
        "coordinates": [
          -24.212066,
          28.923751
        ]
      },
      "properties": {
        "label": "Clarithromycin",
        "level": 4,
        "pos": "-58130.752489996026,98152.60420335512",
        "src_id": "1195",
        "weight": "9.849138611099358e-05"
      }
    },
    {
      "type": "Feature",
      "id": "1627",
      "geometry": {
        "type": "Point",
        "coordinates": [
          -22.309321,
          29.952062
        ]
      },
      "properties": {
        "label": "Methamphetamine",
        "level": 4,
        "pos": "-52327.87951250536,101493.28854189772",
        "src_id": "1511",
        "weight": "9.849138611099358e-05"
      }
    },
    {
      "type": "Feature",
      "id": "1622",
      "geometry": {
        "type": "Point",
        "coordinates": [
          -21.272962,
          26.213507
        ]
      },
      "properties": {
        "label": "gamma-Aminobutyric acid",
        "level": 4,
        "pos": "-49167.256965252825,89501.37188458802",
        "src_id": "2399",
        "weight": "9.849138611099358e-05"
      }
    },
    {
      "type": "Feature",
      "id": "1618",
      "geometry": {
        "type": "Point",
        "coordinates": [
          -23.677479,
          26.649155
        ]
      },
      "properties": {
        "label": "Butyric Acid",
        "level": 4,
        "pos": "-56500.39736275119,90877.79410010036",
        "src_id": "3363",
        "weight": "9.849138611099358e-05"
      }
    },
    {
      "type": "Feature",
      "id": "1616",
      "geometry": {
        "type": "Point",
        "coordinates": [
          -22.504475,
          29.944166
        ]
      },
      "properties": {
        "label": "Urea",
        "level": 4,
        "pos": "-52923.048467296445,101467.5089144295",
        "src_id": "3677",
        "weight": "9.849138611099358e-05"
      }
    },
    {
      "type": "Feature",
      "id": "1605",
      "geometry": {
        "type": "Point",
        "coordinates": [
          -24.411454,
          27.843043
        ]
      },
      "properties": {
        "label": "Nitrous oxide",
        "level": 4,
        "pos": "-58738.83336152653,94677.18821760664",
        "src_id": "5750",
        "weight": "9.849138611099358e-05"
      }
    },
    {
      "type": "Feature",
      "id": "1602",
      "geometry": {
        "type": "Point",
        "coordinates": [
          -21.645106,
          25.885005
        ]
      },
      "properties": {
        "label": "Tyramine",
        "level": 4,
        "pos": "-50302.195326113935,88466.88071827411",
        "src_id": "7811",
        "weight": "9.849138611099358e-05"
      }
    },
    {
      "type": "Feature",
      "id": "1595",
      "geometry": {
        "type": "Point",
        "coordinates": [
          -20.518162,
          28.185075
        ]
      },
      "properties": {
        "label": "Ubidecarenone",
        "level": 4,
        "pos": "-46865.321267631916,95773.30401895301",
        "src_id": "8210",
        "weight": "9.872537638831299e-05"
      }
    },
    {
      "type": "Feature",
      "id": "1593",
      "geometry": {
        "type": "Point",
        "coordinates": [
          -23.867459,
          27.109367
        ]
      },
      "properties": {
        "label": "Tianeptine",
        "level": 4,
        "pos": "-57079.79286898339,92337.53959367747",
        "src_id": "8229",
        "weight": "9.849138611099358e-05"
      }
    },
    {
      "type": "Feature",
      "id": "1590",
      "geometry": {
        "type": "Point",
        "coordinates": [
          -21.721971,
          26.309325
        ]
      },
      "properties": {
        "label": "Candida albicans",
        "level": 4,
        "pos": "-50536.61631783563,89803.6559798853",
        "src_id": "8508",
        "weight": "9.872537638831299e-05"
      }
    },
    {
      "type": "Feature",
      "id": "1589",
      "geometry": {
        "type": "Point",
        "coordinates": [
          -21.466693,
          26.264962
        ]
      },
      "properties": {
        "label": "Almond",
        "level": 4,
        "pos": "-49758.087243109054,89663.66579125132",
        "src_id": "8574",
        "weight": "9.872537638831299e-05"
      }
    },
    {
      "type": "Feature",
      "id": "1583",
      "geometry": {
        "type": "Point",
        "coordinates": [
          -22.864401,
          29.984528
        ]
      },
      "properties": {
        "label": "Lettuce",
        "level": 4,
        "pos": "-54020.73486413283,101599.31951709447",
        "src_id": "8609",
        "weight": "9.872537638831299e-05"
      }
    },
    {
      "type": "Feature",
      "id": "1579",
      "geometry": {
        "type": "Point",
        "coordinates": [
          -21.417781,
          26.316296
        ]
      },
      "properties": {
        "label": "Pineapple",
        "level": 4,
        "pos": "-49608.92185626431,89825.65755580162",
        "src_id": "8628",
        "weight": "9.849138611099358e-05"
      }
    },
    {
      "type": "Feature",
      "id": "1577",
      "geometry": {
        "type": "Point",
        "coordinates": [
          -21.816638,
          25.901835
        ]
      },
      "properties": {
        "label": "Sesame seed",
        "level": 4,
        "pos": "-50825.32814590541,88519.80586066557",
        "src_id": "8635",
        "weight": "9.872537638831299e-05"
      }
    },
    {
      "type": "Feature",
      "id": "1572",
      "geometry": {
        "type": "Point",
        "coordinates": [
          -23.632275,
          26.676162
        ]
      },
      "properties": {
        "label": "Blackberry",
        "level": 4,
        "pos": "-56362.54018778136,90963.2876992161",
        "src_id": "8678",
        "weight": "9.907636180429212e-05"
      }
    },
    {
      "type": "Feature",
      "id": "1567",
      "geometry": {
        "type": "Point",
        "coordinates": [
          -23.285809,
          26.505411
        ]
      },
      "properties": {
        "label": "Eggplant",
        "level": 4,
        "pos": "-55305.91327580507,90423.0638312375",
        "src_id": "8694",
        "weight": "9.849138611099358e-05"
      }
    },
    {
      "type": "Feature",
      "id": "1563",
      "geometry": {
        "type": "Point",
        "coordinates": [
          -21.0286,
          26.306683
        ]
      },
      "properties": {
        "label": "Urtica dioica pollen",
        "level": 4,
        "pos": "-48422.01770597977,89795.31637950629",
        "src_id": "8802",
        "weight": "9.849138611099358e-05"
      }
    },
    {
      "type": "Feature",
      "id": "1560",
      "geometry": {
        "type": "Point",
        "coordinates": [
          -20.302035,
          27.554038
        ]
      },
      "properties": {
        "label": "Acheta domesticus",
        "level": 4,
        "pos": "-46206.19183495989,93753.71132499035",
        "src_id": "8882",
        "weight": "9.931035208161153e-05"
      }
    },
    {
      "type": "Feature",
      "id": "1559",
      "geometry": {
        "type": "Point",
        "coordinates": [
          -20.575705,
          29.18578
        ]
      },
      "properties": {
        "label": "Venison",
        "level": 4,
        "pos": "-47040.80776451619,99000.65755557422",
        "src_id": "8931",
        "weight": "9.849138611099358e-05"
      }
    },
    {
      "type": "Feature",
      "id": "1553",
      "geometry": {
        "type": "Point",
        "coordinates": [
          -20.761881,
          26.769225
        ]
      },
      "properties": {
        "label": "Chlorine",
        "level": 4,
        "pos": "-47608.596931999724,91258.07229377309",
        "src_id": "9054",
        "weight": "0.00010083128888418774"
      }
    },
    {
      "type": "Feature",
      "id": "1550",
      "geometry": {
        "type": "Point",
        "coordinates": [
          -20.648272,
          26.912569
        ]
      },
      "properties": {
        "label": "Silicon dioxide",
        "level": 4,
        "pos": "-47262.118029177705,91712.58554188808",
        "src_id": "9077",
        "weight": "9.849138611099358e-05"
      }
    },
    {
      "type": "Feature",
      "id": "1543",
      "geometry": {
        "type": "Point",
        "coordinates": [
          -22.117242,
          25.948898
        ]
      },
      "properties": {
        "label": "Creatinine",
        "level": 4,
        "pos": "-51742.0946894961,88667.86075221605",
        "src_id": "9515",
        "weight": "9.849138611099358e-05"
      }
    },
    {
      "type": "Feature",
      "id": "1542",
      "geometry": {
        "type": "Point",
        "coordinates": [
          -22.02022,
          29.802006
        ]
      },
      "properties": {
        "label": "Gadolinium",
        "level": 4,
        "pos": "-51446.1978751458,101003.6762705718",
        "src_id": "9755",
        "weight": "9.849138611099358e-05"
      }
    },
    {
      "type": "Feature",
      "id": "1541",
      "geometry": {
        "type": "Point",
        "coordinates": [
          -23.167038,
          26.456238
        ]
      },
      "properties": {
        "label": "Theanine",
        "level": 4,
        "pos": "-54943.689246578186,90267.62827156983",
        "src_id": "10098",
        "weight": "9.849138611099358e-05"
      }
    },
    {
      "type": "Feature",
      "id": "1540",
      "geometry": {
        "type": "Point",
        "coordinates": [
          -24.275468,
          27.520657
        ]
      },
      "properties": {
        "label": "Ozone",
        "level": 4,
        "pos": "-58324.11273185078,93647.19600443987",
        "src_id": "10159",
        "weight": "9.884237152697269e-05"
      }
    },
    {
      "type": "Feature",
      "id": "1539",
      "geometry": {
        "type": "Point",
        "coordinates": [
          -21.501923,
          29.622582
        ]
      },
      "properties": {
        "label": "Passiflora incarnata flower",
        "level": 4,
        "pos": "-49865.529540508316,100419.21213740838",
        "src_id": "11006",
        "weight": "9.884237152697269e-05"
      }
    },
    {
      "type": "Feature",
      "id": "1536",
      "geometry": {
        "type": "Point",
        "coordinates": [
          -20.567271,
          27.314179
        ]
      },
      "properties": {
        "label": "Accident at work",
        "level": 4,
        "pos": "-47015.08611515345,92989.11327405312",
        "src_id": "169614",
        "weight": "9.872537638831299e-05"
      }
    },
    {
      "type": "Feature",
      "id": "1535",
      "geometry": {
        "type": "Point",
        "coordinates": [
          -23.418532,
          29.438363
        ]
      },
      "properties": {
        "label": "Accidental death",
        "level": 4,
        "pos": "-55710.67669928903,99820.20063238581",
        "src_id": "169615",
        "weight": "9.849138611099358e-05"
      }
    },
    {
      "type": "Feature",
      "id": "1534",
      "geometry": {
        "type": "Point",
        "coordinates": [
          -24.0049,
          29.32375
        ]
      },
      "properties": {
        "label": "Accidental overdose",
        "level": 4,
        "pos": "-57498.94779019119,99448.06635084737",
        "src_id": "169618",
        "weight": "9.849138611099358e-05"
      }
    },
    {
      "type": "Feature",
      "id": "1529",
      "geometry": {
        "type": "Point",
        "coordinates": [
          -21.100498,
          29.299208
        ]
      },
      "properties": {
        "label": "Adverse drug reaction",
        "level": 4,
        "pos": "-48641.292634318655,99368.44234915121",
        "src_id": "169884",
        "weight": "9.849138611099358e-05"
      }
    },
    {
      "type": "Feature",
      "id": "1524",
      "geometry": {
        "type": "Point",
        "coordinates": [
          -24.472649,
          28.607611
        ]
      },
      "properties": {
        "label": "Airway complication of anaesthesia",
        "level": 4,
        "pos": "-58925.45839736345,97132.25871369366",
        "src_id": "169923",
        "weight": "9.849138611099358e-05"
      }
    },
    {
      "type": "Feature",
      "id": "1520",
      "geometry": {
        "type": "Point",
        "coordinates": [
          -24.376097,
          28.078102
        ]
      },
      "properties": {
        "label": "Allergy to animal",
        "level": 4,
        "pos": "-58630.999431387696,95430.11456716628",
        "src_id": "170012",
        "weight": "9.872537638831299e-05"
      }
    },
    {
      "type": "Feature",
      "id": "1505",
      "geometry": {
        "type": "Point",
        "coordinates": [
          -22.741607,
          29.853747
        ]
      },
      "properties": {
        "label": "Anoxia",
        "level": 4,
        "pos": "-53646.236240233964,101172.41862680015",
        "src_id": "170458",
        "weight": "9.849138611099358e-05"
      }
    },
    {
      "type": "Feature",
      "id": "1501",
      "geometry": {
        "type": "Point",
        "coordinates": [
          -24.244702,
          27.232078
        ]
      },
      "properties": {
        "label": "Apparent death",
        "level": 4,
        "pos": "-58230.28315101789,92727.77511576684",
        "src_id": "170770",
        "weight": "9.907636180429212e-05"
      }
    },
    {
      "type": "Feature",
      "id": "1493",
      "geometry": {
        "type": "Point",
        "coordinates": [
          -23.052874,
          26.287572
        ]
      },
      "properties": {
        "label": "Aspiration",
        "level": 4,
        "pos": "-54595.515161396026,89735.01213653774",
        "src_id": "171004",
        "weight": "9.931035208161153e-05"
      }
    },
    {
      "type": "Feature",
      "id": "1490",
      "geometry": {
        "type": "Point",
        "coordinates": [
          -24.048055,
          27.074233
        ]
      },
      "properties": {
        "label": "Atrial fibrillation",
        "level": 4,
        "pos": "-57630.556697619126,92225.88849542549",
        "src_id": "171069",
        "weight": "9.884237152697269e-05"
      }
    },
    {
      "type": "Feature",
      "id": "1483",
      "geometry": {
        "type": "Point",
        "coordinates": [
          -22.160842,
          26.327983
        ]
      },
      "properties": {
        "label": "Autonomic neuropathy",
        "level": 4,
        "pos": "-51875.05648881743,89862.5478836526",
        "src_id": "171160",
        "weight": "9.872537638831299e-05"
      }
    },
    {
      "type": "Feature",
      "id": "1477",
      "geometry": {
        "type": "Point",
        "coordinates": [
          -23.769841,
          29.239148
        ]
      },
      "properties": {
        "label": "Ballismus",
        "level": 4,
        "pos": "-56782.077534748896,99173.6547761571",
        "src_id": "171248",
        "weight": "9.849138611099358e-05"
      }
    },
    {
      "type": "Feature",
      "id": "1474",
      "geometry": {
        "type": "Point",
        "coordinates": [
          -24.078799,
          27.178811
        ]
      },
      "properties": {
        "label": "Benign familial neonatal convulsions",
        "level": 4,
        "pos": "-57724.320253952406,92558.33496897115",
        "src_id": "171356",
        "weight": "9.849138611099358e-05"
      }
    },
    {
      "type": "Feature",
      "id": "1469",
      "geometry": {
        "type": "Point",
        "coordinates": [
          -22.576573,
          26.018668
        ]
      },
      "properties": {
        "label": "Biopsy liver",
        "level": 4,
        "pos": "-53142.926701471646,88887.44609023495",
        "src_id": "171638",
        "weight": "9.872537638831299e-05"
      }
    },
    {
      "type": "Feature",
      "id": "1467",
      "geometry": {
        "type": "Point",
        "coordinates": [
          -24.162901,
          27.610592
        ]
      },
      "properties": {
        "label": "Biopsy skin",
        "level": 4,
        "pos": "-57980.807361502804,93934.23306179124",
        "src_id": "171706",
        "weight": "9.849138611099358e-05"
      }
    },
    {
      "type": "Feature",
      "id": "1453",
      "geometry": {
        "type": "Point",
        "coordinates": [
          -23.74514,
          26.979575
        ]
      },
      "properties": {
        "label": "Blood magnesium",
        "level": 4,
        "pos": "-56706.754805526056,91925.24804661082",
        "src_id": "172259",
        "weight": "9.849138611099358e-05"
      }
    },
    {
      "type": "Feature",
      "id": "1448",
      "geometry": {
        "type": "Point",
        "coordinates": [
          -21.135258,
          29.580455
        ]
      },
      "properties": {
        "label": "Bone densitometry",
        "level": 4,
        "pos": "-48747.300217444594,100282.1320277121",
        "src_id": "172466",
        "weight": "9.849138611099358e-05"
      }
    },
    {
      "type": "Feature",
      "id": "1446",
      "geometry": {
        "type": "Point",
        "coordinates": [
          -22.748627,
          26.316977
        ]
      },
      "properties": {
        "label": "Bone marrow transplant",
        "level": 4,
        "pos": "-53667.6512021349,89827.81005064507",
        "src_id": "172516",
        "weight": "9.849138611099358e-05"
      }
    },
    {
      "type": "Feature",
      "id": "1435",
      "geometry": {
        "type": "Point",
        "coordinates": [
          -21.94224,
          29.892975
        ]
      },
      "properties": {
        "label": "Breast mass",
        "level": 4,
        "pos": "-51208.384808321294,101300.40502697893",
        "src_id": "172684",
        "weight": "9.849138611099358e-05"
      }
    },
    {
      "type": "Feature",
      "id": "1428",
      "geometry": {
        "type": "Point",
        "coordinates": [
          -23.437123,
          26.484426
        ]
      },
      "properties": {
        "label": "Caffeine consumption",
        "level": 4,
        "pos": "-55767.38100680446,90356.71788842454",
        "src_id": "172877",
        "weight": "9.849138611099358e-05"
      }
    },
    {
      "type": "Feature",
      "id": "1424",
      "geometry": {
        "type": "Point",
        "coordinates": [
          -22.286227,
          25.934872
        ]
      },
      "properties": {
        "label": "Cardiac ablation",
        "level": 4,
        "pos": "-52257.446295698915,88623.72641853667",
        "src_id": "173015",
        "weight": "9.849138611099358e-05"
      }
    },
    {
      "type": "Feature",
      "id": "1416",
      "geometry": {
        "type": "Point",
        "coordinates": [
          -24.040582,
          28.916251
        ]
      },
      "properties": {
        "label": "Cerebral haemorrhage",
        "level": 4,
        "pos": "-57607.765725085424,98128.3635284322",
        "src_id": "173375",
        "weight": "9.849138611099358e-05"
      }
    },
    {
      "type": "Feature",
      "id": "1395",
      "geometry": {
        "type": "Point",
        "coordinates": [
          -24.412224,
          28.170556
        ]
      },
      "properties": {
        "label": "Complex regional pain syndrome",
        "level": 4,
        "pos": "-58741.17503948153,95726.70113417343",
        "src_id": "174012",
        "weight": "9.872537638831299e-05"
      }
    },
    {
      "type": "Feature",
      "id": "1393",
      "geometry": {
        "type": "Point",
        "coordinates": [
          -24.28337,
          27.990257
        ]
      },
      "properties": {
        "label": "Compression fracture",
        "level": 4,
        "pos": "-58348.205533025626,95148.53980453497",
        "src_id": "174029",
        "weight": "9.849138611099358e-05"
      }
    },
    {
      "type": "Feature",
      "id": "1357",
      "geometry": {
        "type": "Point",
        "coordinates": [
          -22.300608,
          26.201333
        ]
      },
      "properties": {
        "label": "Drug hypersensitivity",
        "level": 4,
        "pos": "-52301.31062680787,89462.98270531923",
        "src_id": "175372",
        "weight": "9.872537638831299e-05"
      }
    },
    {
      "type": "Feature",
      "id": "1352",
      "geometry": {
        "type": "Point",
        "coordinates": [
          -20.778693,
          29.041376
        ]
      },
      "properties": {
        "label": "Dry throat",
        "level": 4,
        "pos": "-47659.86507849801,98533.02524536823",
        "src_id": "175423",
        "weight": "9.872537638831299e-05"
      }
    },
    {
      "type": "Feature",
      "id": "1350",
      "geometry": {
        "type": "Point",
        "coordinates": [
          -23.825386,
          26.66878
        ]
      },
      "properties": {
        "label": "Dysaesthesia",
        "level": 4,
        "pos": "-56951.47875310779,90939.92329872522",
        "src_id": "175467",
        "weight": "9.849138611099358e-05"
      }
    },
    {
      "type": "Feature",
      "id": "1349",
      "geometry": {
        "type": "Point",
        "coordinates": [
          -21.893619,
          29.716907
        ]
      },
      "properties": {
        "label": "Dyscalculia",
        "level": 4,
        "pos": "-51060.096034797796,100726.34138633293",
        "src_id": "175470",
        "weight": "9.884237152697269e-05"
      }
    },
    {
      "type": "Feature",
      "id": "1345",
      "geometry": {
        "type": "Point",
        "coordinates": [
          -24.474879,
          28.007119
        ]
      },
      "properties": {
        "label": "Dysthymic disorder",
        "level": 4,
        "pos": "-58932.25771197523,95202.57385711028",
        "src_id": "175510",
        "weight": "9.872537638831299e-05"
      }
    },
    {
      "type": "Feature",
      "id": "1334",
      "geometry": {
        "type": "Point",
        "coordinates": [
          -20.422383,
          28.803981
        ]
      },
      "properties": {
        "label": "Electrocardiogram normal",
        "level": 4,
        "pos": "-46573.22154748189,97765.6845007591",
        "src_id": "175663",
        "weight": "9.849138611099358e-05"
      }
    },
    {
      "type": "Feature",
      "id": "1319",
      "geometry": {
        "type": "Point",
        "coordinates": [
          -22.446355,
          29.772573
        ]
      },
      "properties": {
        "label": "Eye irritation",
        "level": 4,
        "pos": "-52745.80366893115,100907.73478386382",
        "src_id": "176416",
        "weight": "9.849138611099358e-05"
      }
    },
    {
      "type": "Feature",
      "id": "1303",
      "geometry": {
        "type": "Point",
        "coordinates": [
          -21.221859,
          29.593733
        ]
      },
      "properties": {
        "label": "Formication",
        "level": 4,
        "pos": "-49011.40725007287,100325.33367842753",
        "src_id": "176868",
        "weight": "9.872537638831299e-05"
      }
    },
    {
      "type": "Feature",
      "id": "1296",
      "geometry": {
        "type": "Point",
        "coordinates": [
          -24.220978,
          27.373668
        ]
      },
      "properties": {
        "label": "Gastric ulcer",
        "level": 4,
        "pos": "-58157.93479661812,93178.59150547472",
        "src_id": "177111",
        "weight": "9.849138611099358e-05"
      }
    },