{
  "type": "FeatureCollection",
  "features": [
    {
      "type": "Feature",
      "id": "node1",
      "geometry": {
        "type": "Point",
        "coordinates": [
          22.458387,
          2.068568
        ]
      },
      "properties": {
        "label": "Deal Structuring",
        "level": 5,
        "pos": "-9207.75,-5284.22",
        "weight": "0.0"
      }
    },
    {
      "type": "Feature",
      "id": "node4",
      "geometry": {
        "type": "Point",
        "coordinates": [
          22.078554,
          -0.471217
        ]
      },
      "properties": {
        "height": "0.23",
        "label": "Communication Skills",
        "level": 1,
        "pos": "-9633.51,-8101.53",
        "weight": "0.0",
        "width": "1.74"
      }
    },
    {
      "type": "Feature",
      "id": "node94",
      "geometry": {
        "type": "Point",
        "coordinates": [
          21.000665,
          -9.754712
        ]
      },
      "properties": {
        "height": "0.23",
        "label": "Travel Arrangements",
        "level": 1,
        "pos": "-10841.73,-18450.24",
        "weight": "0.0",
        "width": "1.66"
      }
    },
    {
      "type": "Feature",
      "id": "node73",
      "geometry": {
        "type": "Point",
        "coordinates": [
          18.479106,
          -4.523878
        ]
      },
      "properties": {
        "label": "Libray of Congress Subject Headings",
        "level": 5,
        "pos": "-13668.18,-12601.44",
        "weight": "0.0"
      }
    },
    {
      "type": "Feature",
      "id": "node63",
      "geometry": {
        "type": "Point",
        "coordinates": [
          17.071878,
          -1.276393
        ]
      },
      "properties": {
        "label": "Authority Control",
        "level": 5,
        "pos": "-15245.56,-8994.64",
        "weight": "0.0"
      }
    },
    {
      "type": "Feature",
      "id": "node99",
      "geometry": {
        "type": "Point",
        "coordinates": [
          21.81029,
          5.2219
        ]
      },
      "properties": {
        "label": "Proofreading",
        "level": 2,
        "pos": "-9934.21,-1779.41",
        "weight": "479728.0"
      }
    },
    {
      "type": "Feature",
      "id": "node86",
      "geometry": {
        "type": "Point",
        "coordinates": [
          22.59424,
          1.137479
        ]
      },
      "properties": {
        "label": "Estate Planning Documentation",
        "level": 5,
        "pos": "-9055.47,-6317.28",
        "weight": "0.0"
      }
    },
    {
      "type": "Feature",
      "id": "node88",
      "geometry": {
        "type": "Point",
        "coordinates": [
          20.113344,
          3.635805
        ]
      },
      "properties": {
        "label": "Subpoena Processing",
        "level": 5,
        "pos": "-11836.34,-3543.83",
        "weight": "0.0"
      }
    },
    {
      "type": "Feature",
      "id": "node443",
      "geometry": {
        "type": "Point",
        "coordinates": [
          25.093389,
          -0.646067
        ]
      },
      "properties": {
        "label": "PPD Skin Test",
        "level": 5,
        "pos": "-6254.14,-8295.46",
        "weight": "0.0"
      }
    },
    {
      "type": "Feature",
      "id": "node511",
      "geometry": {
        "type": "Point",
        "coordinates": [
          23.836834,
          0.053585
        ]
      },
      "properties": {
        "label": "Geometric Dimensioning and Tolerancing (GD&T)",
        "level": 5,
        "pos": "-7662.63,-7519.48",
        "weight": "0.0"
      }
    },
    {
      "type": "Feature",
      "id": "node522",
      "geometry": {
        "type": "Point",
        "coordinates": [
          21.755567,
          -10.72235
        ]
      },
      "properties": {
        "label": "Shipment Coordination",
        "level": 2,
        "pos": "-9995.55,-19540.80",
        "weight": "0.0"
      }
    },
    {
      "type": "Feature",
      "id": "node546",
      "geometry": {
        "type": "Point",
        "coordinates": [
          30.628062,
          -0.213241
        ]
      },
      "properties": {
        "label": "Self-Motivation",
        "level": 2,
        "pos": "-50.25,-7815.41",
        "weight": "719095.0"
      }
    },
    {
      "type": "Feature",
      "id": "node57",
      "geometry": {
        "type": "Point",
        "coordinates": [
          22.485088,
          5.149632
        ]
      },
      "properties": {
        "label": "MARC21",
        "level": 4,
        "pos": "-9177.82,-1859.89",
        "weight": "1866.0"
      }
    },
    {
      "type": "Feature",
      "id": "node634",
      "geometry": {
        "type": "Point",
        "coordinates": [
          16.603502,
          -5.88527
        ]
      },
      "properties": {
        "label": "E-Discovery",
        "level": 2,
        "pos": "-15770.57,-14117.61",
        "weight": "63276.0"
      }
    },
    {
      "type": "Feature",
      "id": "node693",
      "geometry": {
        "type": "Point",
        "coordinates": [
          18.642472,
          1.155238
        ]
      },
      "properties": {
        "label": "Corporate Tax Returns",
        "level": 5,
        "pos": "-13485.06,-6297.58",
        "weight": "0.0"
      }
    },
    {
      "type": "Feature",
      "id": "node777",
      "geometry": {
        "type": "Point",
        "coordinates": [
          18.114644,
          1.442909
        ]
      },
      "properties": {
        "label": "Co-branding",
        "level": 4,
        "pos": "-14076.71,-5978.45",
        "weight": "9630.0"
      }
    },
    {
      "type": "Feature",
      "id": "node792",
      "geometry": {
        "type": "Point",
        "coordinates": [
          25.152644,
          -2.398754
        ]
      },
      "properties": {
        "label": "3GPP",
        "level": 3,
        "pos": "-6187.72,-10240.08",
        "weight": "22034.0"
      }
    },
    {
      "type": "Feature",
      "id": "node808",
      "geometry": {
        "type": "Point",
        "coordinates": [
          17.891629,
          4.661082
        ]
      },
      "properties": {
        "height": "0.23",
        "label": "Materials Management Practices",
        "level": 1,
        "pos": "-14326.69,-2403.72",
        "weight": "0.0",
        "width": "2.55"
      }
    },
    {
      "type": "Feature",
      "id": "node896",
      "geometry": {
        "type": "Point",
        "coordinates": [
          26.073215,
          -1.413001
        ]
      },
      "properties": {
        "label": "Home Equity Loan Origination",
        "level": 5,
        "pos": "-5155.84,-9146.19",
        "weight": "0.0"
      }
    },
    {
      "type": "Feature",
      "id": "node959",
      "geometry": {
        "type": "Point",
        "coordinates": [
          16.626804,
          4.798314
        ]
      },
      "properties": {
        "label": "360 Degree Assessment",
        "level": 2,
        "pos": "-15744.45,-2251.00",
        "weight": "0.0"
      }
    },
    {
      "type": "Feature",
      "id": "node990",
      "geometry": {
        "type": "Point",
        "coordinates": [
          25.181603,
          -4.771754
        ]
      },
      "properties": {
        "label": "Site Remediation Planning",
        "level": 5,
        "pos": "-6155.26,-12877.26",
        "weight": "0.0"
      }
    },
    {
      "type": "Feature",
      "id": "node10",
      "geometry": {
        "type": "Point",
        "coordinates": [
          36.035508,
          8.157026
        ]
      },
      "properties": {
        "label": "Teamwork / Collaboration",
        "level": 2,
        "pos": "6011.03,1498.54",
        "weight": "0.0"
      }
    },
    {
      "type": "Feature",
      "id": "node1457",
      "geometry": {
        "type": "Point",
        "coordinates": [
          35.000861,
          6.525249
        ]
      },
      "properties": {
        "label": "Proteomics",
        "level": 3,
        "pos": "4851.28,-326.24",
        "weight": "16930.0"
      }
    },
    {
      "type": "Feature",
      "id": "node1458",
      "geometry": {
        "type": "Point",
        "coordinates": [
          37.585949,
          7.091504
        ]
      },
      "properties": {
        "label": "SAP S/4HANA",
        "level": 5,
        "pos": "7748.94,306.24",
        "weight": "0.0"
      }
    },
    {
      "type": "Feature",
      "id": "node1459",
      "geometry": {
        "type": "Point",
        "coordinates": [
          35.066504,
          8.514172
        ]
      },
      "properties": {
        "label": "Sentence Structure",
        "level": 5,
        "pos": "4924.86,1898.87",
        "weight": "0.0"
      }
    },
    {
      "type": "Feature",
      "id": "node1460",
      "geometry": {
        "type": "Point",
        "coordinates": [
          35.218603,
          8.529634
        ]
      },
      "properties": {
        "label": "Fluorescein Angiography",
        "level": 5,
        "pos": "5095.35,1916.21",
        "weight": "0.0"
      }
    },
    {
      "type": "Feature",
      "id": "node1461",
      "geometry": {
        "type": "Point",
        "coordinates": [
          36.703366,
          9.534058
        ]
      },
      "properties": {
        "label": "UNICORN System Control",
        "level": 5,
        "pos": "6759.64,3044.19",
        "weight": "0.0"
      }
    },
    {
      "type": "Feature",
      "id": "node1462",
      "geometry": {
        "type": "Point",
        "coordinates": [
          35.097524,
          6.034611
        ]
      },
      "properties": {
        "label": "Childhood Cancers knowledge",
        "level": 5,
        "pos": "4959.63,-873.68",
        "weight": "0.0"
      }
    },
    {
      "type": "Feature",
      "id": "node1463",
      "geometry": {
        "type": "Point",
        "coordinates": [
          34.131918,
          6.483825
        ]
      },
      "properties": {
        "label": "Short Message Service Center (SMSC)",
        "level": 5,
        "pos": "3877.27,-372.48",
        "weight": "0.0"
      }
    },
    {
      "type": "Feature",
      "id": "node1464",
      "geometry": {
        "type": "Point",
        "coordinates": [
          37.938171,
          6.941921
        ]
      },
      "properties": {
        "label": "Otoscope",
        "level": 4,
        "pos": "8143.75,139.09",
        "weight": "3910.0"
      }
    },
    {
      "type": "Feature",
      "id": "node1465",
      "geometry": {
        "type": "Point",
        "coordinates": [
          35.099772,
          7.930804
        ]
      },
      "properties": {
        "label": "Academic Advisement",
        "level": 5,
        "pos": "4962.15,1245.15",
        "weight": "0.0"
      }
    },
    {
      "type": "Feature",
      "id": "node1466",
      "geometry": {
        "type": "Point",
        "coordinates": [
          35.216088,
          5.624131
        ]
      },
      "properties": {
        "label": "Rational Unified Process",
        "level": 5,
        "pos": "5092.53,-1331.30",
        "weight": "0.0"
      }
    },
    {
      "type": "Feature",
      "id": "node1467",
      "geometry": {
        "type": "Point",
        "coordinates": [
          36.240707,
          9.97689
        ]
      },
      "properties": {
        "label": "Sponsorship Support",
        "level": 5,
        "pos": "6241.04,3542.53",
        "weight": "0.0"
      }
    },
    {
      "type": "Feature",
      "id": "node1468",
      "geometry": {
        "type": "Point",
        "coordinates": [
          36.521496,
          7.140453
        ]
      },
      "properties": {
        "label": "Clinical System Operations",
        "level": 5,
        "pos": "6555.78,360.95",
        "weight": "0.0"
      }
    },
    {
      "type": "Feature",
      "id": "node1469",
      "geometry": {
        "type": "Point",
        "coordinates": [
          37.736514,
          8.890814
        ]
      },
      "properties": {
        "label": "Salesforce Journey Builder",
        "level": 5,
        "pos": "7917.71,2321.46",
        "weight": "0.0"
      }
    },
    {
      "type": "Feature",
      "id": "node1470",
      "geometry": {
        "type": "Point",
        "coordinates": [
          34.664653,
          7.397711
        ]
      },
      "properties": {
        "label": "Rational Rose",
        "level": 5,
        "pos": "4474.42,648.58",
        "weight": "0.0"
      }
    },
    {
      "type": "Feature",
      "id": "node1471",
      "geometry": {
        "type": "Point",
        "coordinates": [
          36.582901,
          7.212861
        ]
      },
      "properties": {
        "label": "FedRAMP",
        "level": 3,
        "pos": "6624.61,441.89",
        "weight": "17474.0"
      }
    },
    {
      "type": "Feature",
      "id": "node1472",
      "geometry": {
        "type": "Point",
        "coordinates": [
          37.367601,
          9.562342
        ]
      },
      "properties": {
        "label": "Lifting Equipment",
        "level": 5,
        "pos": "7504.19,3076.00",
        "weight": "0.0"
      }
    },
    {
      "type": "Feature",
      "id": "node1473",
      "geometry": {
        "type": "Point",
        "coordinates": [
          34.439667,
          6.689067
        ]
      },
      "properties": {
        "label": "WordPerfect",
        "level": 3,
        "pos": "4222.23,-143.34",
        "weight": "49505.0"
      }
    },
    {
      "type": "Feature",
      "id": "node1475",
      "geometry": {
        "type": "Point",
        "coordinates": [
          37.561398,
          8.215037
        ]
      },
      "properties": {
        "label": "Skin Cancer knowledge",
        "level": 5,
        "pos": "7721.42,1563.54",
        "weight": "0.0"
      }
    },
    {
      "type": "Feature",
      "id": "node1476",
      "geometry": {
        "type": "Point",
        "coordinates": [
          35.159616,
          6.105451
        ]
      },
      "properties": {
        "label": "Award Letter Generation",
        "level": 5,
        "pos": "5029.23,-794.67",
        "weight": "0.0"
      }
    },
    {
      "type": "Feature",
      "id": "node1477",
      "geometry": {
        "type": "Point",
        "coordinates": [
          33.905656,
          6.548629
        ]
      },
      "properties": {
        "label": "SoftDent",
        "level": 4,
        "pos": "3623.65,-300.14",
        "weight": "2851.0"
      }
    },
    {
      "type": "Feature",
      "id": "node1478",
      "geometry": {
        "type": "Point",
        "coordinates": [
          37.388976,
          8.851144
        ]
      },
      "properties": {
        "label": "Maximizer",
        "level": 4,
        "pos": "7528.15,2276.93",
        "weight": "2905.0"
      }
    },
    {
      "type": "Feature",
      "id": "node1479",
      "geometry": {
        "type": "Point",
        "coordinates": [
          37.234977,
          9.510591
        ]
      },
      "properties": {
        "label": "Environmental Sustainability",
        "level": 5,
        "pos": "7355.53,3017.80",
        "weight": "0.0"
      }
    },
    {
      "type": "Feature",
      "id": "node1480",
      "geometry": {
        "type": "Point",
        "coordinates": [
          37.865694,
          8.108184
        ]
      },
      "properties": {
        "label": "Program Monitoring",
        "level": 5,
        "pos": "8062.51,1443.82",
        "weight": "0.0"
      }
    },
    {
      "type": "Feature",
      "id": "node1481",
      "geometry": {
        "type": "Point",
        "coordinates": [
          37.784957,
          7.432269
        ]
      },
      "properties": {
        "label": "Medical Residency",
        "level": 5,
        "pos": "7972.01,687.23",
        "weight": "0.0"
      }
    },
    {
      "type": "Feature",
      "id": "node1482",
      "geometry": {
        "type": "Point",
        "coordinates": [
          34.271751,
          7.100281
        ]
      },
      "properties": {
        "label": "Formalin",
        "level": 4,
        "pos": "4034.01,316.05",
        "weight": "3060.0"
      }
    },
    {
      "type": "Feature",
      "id": "node1483",
      "geometry": {
        "type": "Point",
        "coordinates": [
          34.831901,
          7.78743
        ]
      },
      "properties": {
        "label": "Shingle",
        "level": 4,
        "pos": "4661.89,1084.63",
        "weight": "10533.0"
      }
    },
    {
      "type": "Feature",
      "id": "node1484",
      "geometry": {
        "type": "Point",
        "coordinates": [
          35.344581,
          8.998917
        ]
      },
      "properties": {
        "label": "Sample Management",
        "level": 5,
        "pos": "5236.56,2442.83",
        "weight": "0.0"
      }
    },
    {
      "type": "Feature",
      "id": "node222",
      "geometry": {
        "type": "Point",
        "coordinates": [
          41.492227,
          2.70948
        ]
      },
      "properties": {
        "height": "0.23",
        "label": "Procurement",
        "level": 1,
        "pos": "12127.54,-4572.78",
        "weight": "2199127.0",
        "width": "0.99"
      }
    },
    {
      "type": "Feature",
      "id": "node226",
      "geometry": {
        "type": "Point",
        "coordinates": [
          36.116086,
          6.135099
        ]
      },
      "properties": {
        "label": "Business Planning",
        "level": 4,
        "pos": "6101.35,-761.60",
        "weight": "0.0"
      }
    },
    {
      "type": "Feature",
      "id": "node290",
      "geometry": {
        "type": "Point",
        "coordinates": [
          34.072208,
          8.208692
        ]
      },
      "properties": {
        "label": "Epidemiology",
        "level": 2,
        "pos": "3810.34,1556.43",
        "weight": "160722.0"
      }
    },
    {
      "type": "Feature",
      "id": "node38",
      "geometry": {
        "type": "Point",
        "coordinates": [
          34.824282,
          10.409561
        ]
      },
      "properties": {
        "label": "Biologics",
        "level": 2,
        "pos": "4653.35,4030.09",
        "weight": "102949.0"
      }
    },
    {
      "type": "Feature",
      "id": "node49",
      "geometry": {
        "type": "Point",
        "coordinates": [
          37.229767,
          13.340397
        ]
      },
      "properties": {
        "label": "Gene Therapy",
        "level": 2,
        "pos": "7349.69,7352.08",
        "weight": "0.0"
      }
    },
    {
      "type": "Feature",
      "id": "node529",
      "geometry": {
        "type": "Point",
        "coordinates": [
          35.941505,
          12.200005
        ]
      },
      "properties": {
        "label": "Biostatistics",
        "level": 2,
        "pos": "5905.66,6055.20",
        "weight": "128496.0"
      }
    },
    {
      "type": "Feature",
      "id": "node787",
      "geometry": {
        "type": "Point",
        "coordinates": [
          36.830958,
          10.059936
        ]
      },
      "properties": {
        "label": "Electrical Engineering",
        "level": 3,
        "pos": "6902.66,3636.06",
        "weight": "0.0"
      }
    },
    {
      "type": "Feature",
      "id": "node814",
      "geometry": {
        "type": "Point",
        "coordinates": [
          38.894989,
          7.237889
        ]
      },
      "properties": {
        "label": "Hyperparathyroidism",
        "level": 3,
        "pos": "9216.26,469.87",
        "weight": "144.0"
      }
    },
    {
      "type": "Feature",
      "id": "node31",
      "geometry": {
        "type": "Point",
        "coordinates": [
          48.698983,
          1.899158
        ]
      },
      "properties": {
        "height": "0.23",
        "label": "Microsoft Office",
        "level": 1,
        "pos": "20205.69,-5472.22",
        "weight": "0.0",
        "width": "1.31"
      }
    },
    {
      "type": "Feature",
      "id": "node3761",
      "geometry": {
        "type": "Point",
        "coordinates": [
          42.315243,
          1.637308
        ]
      },
      "properties": {
        "label": "Instrument Design",
        "level": 7,
        "pos": "13050.07,-5762.77",
        "weight": "0.0"
      }
    },
    {
      "type": "Feature",
      "id": "node4137",
      "geometry": {
        "type": "Point",
        "coordinates": [
          40.446776,
          1.687968
        ]
      },
      "properties": {
        "label": "Global Procurement",
        "level": 7,
        "pos": "10955.68,-5706.56",
        "weight": "0.0"
      }
    },
    {
      "type": "Feature",
      "id": "node4138",
      "geometry": {
        "type": "Point",
        "coordinates": [
          39.93398,
          2.069135
        ]
      },
      "properties": {
        "label": "Contract Implementation",
        "level": 7,
        "pos": "10380.88,-5283.59",
        "weight": "0.0"
      }
    },
    {
      "type": "Feature",
      "id": "node4139",
      "geometry": {
        "type": "Point",
        "coordinates": [
          40.713612,
          1.82664
        ]
      },
      "properties": {
        "label": "Central Venous Catheter",
        "level": 7,
        "pos": "11254.78,-5552.69",
        "weight": "0.0"
      }
    },
    {
      "type": "Feature",
      "id": "node4140",
      "geometry": {
        "type": "Point",
        "coordinates": [
          41.03601,
          4.574131
        ]
      },
      "properties": {
        "label": "Patent Law",
        "level": 7,
        "pos": "11616.16,-2500.47",
        "weight": "0.0"
      }
    },
    {
      "type": "Feature",
      "id": "node4141",
      "geometry": {
        "type": "Point",
        "coordinates": [
          41.20067,
          4.268382
        ]
      },
      "properties": {
        "label": "Offshore Drilling",
        "level": 7,
        "pos": "11800.73,-2840.58",
        "weight": "0.0"
      }
    },
    {
      "type": "Feature",
      "id": "node4142",
      "geometry": {
        "type": "Point",
        "coordinates": [
          39.578556,
          2.17907
        ]
      },
      "properties": {
        "label": "Production Planning",
        "level": 7,
        "pos": "9982.48,-5161.58",
        "weight": "0.0"
      }
    },
    {
      "type": "Feature",
      "id": "node4143",
      "geometry": {
        "type": "Point",
        "coordinates": [
          41.797211,
          4.631776
        ]
      },
      "properties": {
        "label": "Package Testing",
        "level": 7,
        "pos": "12469.40,-2436.33",
        "weight": "0.0"
      }
    },
    {
      "type": "Feature",
      "id": "node4144",
      "geometry": {
        "type": "Point",
        "coordinates": [
          42.658517,
          1.443991
        ]
      },
      "properties": {
        "label": "Supplier Contract Negotiation",
        "level": 7,
        "pos": "13434.85,-5977.25",
        "weight": "0.0"
      }
    },
    {
      "type": "Feature",
      "id": "node4145",
      "geometry": {
        "type": "Point",
        "coordinates": [
          40.343004,
          1.975728
        ]
      },
      "properties": {
        "label": "Request for Quotation (RFQ)",
        "level": 7,
        "pos": "10839.36,-5387.25",
        "weight": "0.0"
      }
    },
    {
      "type": "Feature",
      "id": "node4146",
      "geometry": {
        "type": "Point",
        "coordinates": [
          43.322511,
          1.728182
        ]
      },
      "properties": {
        "label": "Storage Unit Management",
        "level": 7,
        "pos": "14179.13,-5661.94",
        "weight": "0.0"
      }
    },
    {
      "type": "Feature",
      "id": "node4147",
      "geometry": {
        "type": "Point",
        "coordinates": [
          40.997301,
          1.440953
        ]
      },
      "properties": {
        "label": "Supplier Identification",
        "level": 7,
        "pos": "11572.77,-5980.62",
        "weight": "0.0"
      }
    },
    {
      "type": "Feature",
      "id": "node4148",
      "geometry": {
        "type": "Point",
        "coordinates": [
          41.856029,
          4.377819
        ]
      },
      "properties": {
        "label": "Transmission Lines Knowledge",
        "level": 7,
        "pos": "12535.33,-2718.86",
        "weight": "0.0"
      }
    },
    {
      "type": "Feature",
      "id": "node4149",
      "geometry": {
        "type": "Point",
        "coordinates": [
          40.758326,
          3.05127
        ]
      },
      "properties": {
        "label": "Durations analysis",
        "level": 7,
        "pos": "11304.90,-4193.23",
        "weight": "0.0"
      }
    },
    {
      "type": "Feature",
      "id": "node4150",
      "geometry": {
        "type": "Point",
        "coordinates": [
          42.3491,
          3.554194
        ]
      },
      "properties": {
        "label": "Routing Guide Management",
        "level": 7,
        "pos": "13088.02,-3634.52",
        "weight": "0.0"
      }
    },
    {
      "type": "Feature",
      "id": "node4151",
      "geometry": {
        "type": "Point",
        "coordinates": [
          42.806271,
          2.77917
        ]
      },
      "properties": {
        "label": "Prolog",
        "level": 3,
        "pos": "13600.47,-4495.40",
        "weight": "29517.0"
      }
    },
    {
      "type": "Feature",
      "id": "node4152",
      "geometry": {
        "type": "Point",
        "coordinates": [
          41.910154,
          1.145926
        ]
      },
      "properties": {
        "label": "Supply Chain Synchronization",
        "level": 7,
        "pos": "12596.00,-6307.91",
        "weight": "0.0"
      }
    },
    {
      "type": "Feature",
      "id": "node4153",
      "geometry": {
        "type": "Point",
        "coordinates": [
          42.371233,
          3.787864
        ]
      },
      "properties": {
        "label": "Construction Contract Auditing",
        "level": 7,
        "pos": "13112.83,-3374.83",
        "weight": "0.0"
      }
    },
    {
      "type": "Feature",
      "id": "node4154",
      "geometry": {
        "type": "Point",
        "coordinates": [
          40.078657,
          1.866338
        ]
      },
      "properties": {
        "label": "Supply Base Performance Measurement",
        "level": 7,
        "pos": "10543.05,-5508.64",
        "weight": "0.0"
      }
    },
    {
      "type": "Feature",
      "id": "node4155",
      "geometry": {
        "type": "Point",
        "coordinates": [
          40.314661,
          4.637438
        ]
      },
      "properties": {
        "label": "Biochemical Production",
        "level": 7,
        "pos": "10807.59,-2430.03",
        "weight": "0.0"
      }
    },
    {
      "type": "Feature",
      "id": "node4156",
      "geometry": {
        "type": "Point",
        "coordinates": [
          40.308041,
          2.606225
        ]
      },
      "properties": {
        "label": "Supply Chain Business Process Optimization",
        "level": 7,
        "pos": "10800.17,-4687.42",
        "weight": "0.0"
      }
    },
    {
      "type": "Feature",
      "id": "node475",
      "geometry": {
        "type": "Point",
        "coordinates": [
          41.726741,
          1.366616
        ]
      },
      "properties": {
        "label": "Material Requirement Planning (MRP)",
        "level": 7,
        "pos": "12390.41,-6063.09",
        "weight": "0.0"
      }
    },
    {
      "type": "Feature",
      "id": "node788",
      "geometry": {
        "type": "Point",
        "coordinates": [
          43.282124,
          2.295683
        ]
      },
      "properties": {
        "label": "Commissioning",
        "level": 2,
        "pos": "14133.86,-5032.15",
        "weight": "386376.0"
      }
    },
    {
      "type": "Feature",
      "id": "node2654",
      "geometry": {
        "type": "Point",
        "coordinates": [
          36.212891,
          5.240504
        ]
      },
      "properties": {
        "label": "Residential Mortgage Solutions",
        "level": 7,
        "pos": "6209.86,-1758.69",
        "weight": "0.0"
      }
    },
    {
      "type": "Feature",
      "id": "node3277",
      "geometry": {
        "type": "Point",
        "coordinates": [
          36.845803,
          5.505305
        ]
      },
      "properties": {
        "label": "GOUT",
        "level": 4,
        "pos": "6919.30,-1463.71",
        "weight": "3631.0"
      }
    },
    {
      "type": "Feature",
      "id": "node4198",
      "geometry": {
        "type": "Point",
        "coordinates": [
          35.894855,
          6.912697
        ]
      },
      "properties": {
        "label": "Market Analysis",
        "level": 7,
        "pos": "5853.37,106.44",
        "weight": "0.0"
      }
    },
    {
      "type": "Feature",
      "id": "node4200",
      "geometry": {
        "type": "Point",
        "coordinates": [
          37.244371,
          5.804059
        ]
      },
      "properties": {
        "label": "Brand Targeting",
        "level": 7,
        "pos": "7366.06,-1130.75",
        "weight": "0.0"
      }
    },
    {
      "type": "Feature",
      "id": "node4201",
      "geometry": {
        "type": "Point",
        "coordinates": [
          37.35313,
          6.232924
        ]
      },
      "properties": {
        "label": "Brand Planning",
        "level": 7,
        "pos": "7487.97,-652.47",
        "weight": "0.0"
      }
    },
    {
      "type": "Feature",
      "id": "node4202",
      "geometry": {
        "type": "Point",
        "coordinates": [
          35.401231,
          4.484597
        ]
      },
      "properties": {
        "label": "Immunoscience",
        "level": 4,
        "pos": "5300.06,-2600.08",
        "weight": "1603.0"
      }
    },
    {
      "type": "Feature",
      "id": "node4203",
      "geometry": {
        "type": "Point",
        "coordinates": [
          35.508242,
          5.675132
        ]
      },
      "properties": {
        "label": "Profit and Loss Forecasting",
        "level": 7,
        "pos": "5420.01,-1274.46",
        "weight": "0.0"
      }
    },
    {
      "type": "Feature",
      "id": "node4204",
      "geometry": {
        "type": "Point",
        "coordinates": [
          37.049039,
          5.172109
        ]
      },
      "properties": {
        "label": "Psoriatic Arthritis Diagnosis / Treatment",
        "level": 7,
        "pos": "7147.11,-1834.86",
        "weight": "0.0"
      }
    },
    {
      "type": "Feature",
      "id": "node4205",
      "geometry": {
        "type": "Point",
        "coordinates": [
          36.422711,
          6.964851
        ]
      },
      "properties": {
        "label": "Channel Development",
        "level": 7,
        "pos": "6445.05,164.71",
        "weight": "0.0"
      }
    },
    {
      "type": "Feature",
      "id": "node4206",
      "geometry": {
        "type": "Point",
        "coordinates": [
          37.787642,
          5.771298
        ]
      },
      "properties": {
        "label": "Hospital Sales",
        "level": 7,
        "pos": "7975.02,-1167.27",
        "weight": "0.0"
      }
    },
    {
      "type": "Feature",
      "id": "node4207",
      "geometry": {
        "type": "Point",
        "coordinates": [
          35.75157,
          4.58745
        ]
      },
      "properties": {
        "label": "Territory Performance",
        "level": 7,
        "pos": "5692.76,-2485.65",
        "weight": "0.0"
      }
    },
    {
      "type": "Feature",
      "id": "node4208",
      "geometry": {
        "type": "Point",
        "coordinates": [
          35.476554,
          3.812282
        ]
      },
      "properties": {
        "label": "Rock Strip Mining",
        "level": 7,
        "pos": "5384.49,-3347.69",
        "weight": "0.0"
      }
    },
    {
      "type": "Feature",
      "id": "node4209",
      "geometry": {
        "type": "Point",
        "coordinates": [
          35.522159,
          6.027303
        ]
      },
      "properties": {
        "label": "Financial Risk Hedging",
        "level": 7,
        "pos": "5435.61,-881.83",
        "weight": "0.0"
      }
    },
    {
      "type": "Feature",
      "id": "node4210",
      "geometry": {
        "type": "Point",
        "coordinates": [
          35.765666,
          6.646232
        ]
      },
      "properties": {
        "label": "Transana",
        "level": 5,
        "pos": "5708.56,-191.17",
        "weight": "13.0"
      }
    },
    {
      "type": "Feature",
      "id": "node4211",
      "geometry": {
        "type": "Point",
        "coordinates": [
          36.155687,
          4.838673
        ]
      },
      "properties": {
        "label": "Supplier Contract Discontinuation",
        "level": 7,
        "pos": "6145.74,-2206.08",
        "weight": "0.0"
      }
    },
    {
      "type": "Feature",
      "id": "node4212",
      "geometry": {
        "type": "Point",
        "coordinates": [
          35.445704,
          5.197943
        ]
      },
      "properties": {
        "label": "Brand Performance Analysis",
        "level": 7,
        "pos": "5349.91,-1806.09",
        "weight": "0.0"
      }
    },
    {
      "type": "Feature",
      "id": "node4213",
      "geometry": {
        "type": "Point",
        "coordinates": [
          37.089631,
          6.693437
        ]
      },
      "properties": {
        "label": "Diabetes Treatment",
        "level": 7,
        "pos": "7192.61,-138.46",
        "weight": "0.0"
      }
    },
    {
      "type": "Feature",
      "id": "node607",
      "geometry": {
        "type": "Point",
        "coordinates": [
          37.053303,
          6.81556
        ]
      },
      "properties": {
        "label": "Audit-Specific Technology",
        "level": 7,
        "pos": "7151.89,-2.07",
        "weight": "0.0"
      }
    },
    {
      "type": "Feature",
      "id": "node999",
      "geometry": {
        "type": "Point",
        "coordinates": [
          36.612725,
          5.14331
        ]
      },
      "properties": {
        "label": "Sustainable Packaging",
        "level": 7,
        "pos": "6658.04,-1866.93",
        "weight": "0.0"
      }
    },
    {
      "type": "Feature",
      "id": "node3240",
      "geometry": {
        "type": "Point",
        "coordinates": [
          33.470565,
          8.912541
        ]
      },
      "properties": {
        "label": "Surveillance",
        "level": 2,
        "pos": "3135.95,2345.85",
        "weight": "984914.0"
      }
    },
    {
      "type": "Feature",
      "id": "node4858",
      "geometry": {
        "type": "Point",
        "coordinates": [
          32.797569,
          8.924085
        ]
      },
      "properties": {
        "label": "Epi Info",
        "pos": "2381.58,2358.81",
        "weight": "0.0"
      }
    },
    {
      "type": "Feature",
      "id": "node4859",
      "geometry": {
        "type": "Point",
        "coordinates": [
          33.484027,
          7.116565
        ]
      },
      "properties": {
        "label": "Salmonella",
        "level": 4,
        "pos": "3151.04,334.25",
        "weight": "4525.0"
      }
    },
    {
      "type": "Feature",
      "id": "node4860",
      "geometry": {
        "type": "Point",
        "coordinates": [
          34.804245,
          8.96218
        ]
      },
      "properties": {
        "label": "Epidemiological Investigation",
        "pos": "4630.89,2401.58",
        "weight": "0.0"
      }
    },
    {
      "type": "Feature",
      "id": "node4861",
      "geometry": {
        "type": "Point",
        "coordinates": [
          33.84509,
          9.352427
        ]
      },
      "properties": {
        "label": "Antimicrobial Resistance",
        "pos": "3555.76,2839.98",
        "weight": "0.0"
      }
    },
    {
      "type": "Feature",
      "id": "node4862",
      "geometry": {
        "type": "Point",
        "coordinates": [
          34.848164,
          9.141957
        ]
      },
      "properties": {
        "label": "Rickettsial Diseases knowledge",
        "pos": "4680.12,2603.48",
        "weight": "0.0"
      }
    },
    {
      "type": "Feature",
      "id": "node4863",
      "geometry": {
        "type": "Point",
        "coordinates": [
          34.33469,
          9.233164
        ]
      },
      "properties": {
        "label": "Enterovirus",
        "level": 5,
        "pos": "4104.56,2705.95",
        "weight": "66.0"
      }
    },
    {
      "type": "Feature",
      "id": "node4864",
      "geometry": {
        "type": "Point",
        "coordinates": [
          33.312649,
          7.660655
        ]
      },
      "properties": {
        "label": "Disease Surveillance",
        "pos": "2958.94,942.74",
        "weight": "0.0"
      }
    },
    {
      "type": "Feature",
      "id": "node4865",
      "geometry": {
        "type": "Point",
        "coordinates": [
          34.286034,
          9.602724
        ]
      },
      "properties": {
        "label": "Syphilis Diagnosis / Treatment",
        "pos": "4050.02,3121.42",
        "weight": "0.0"
      }
    },
    {
      "type": "Feature",
      "id": "node4866",
      "geometry": {
        "type": "Point",
        "coordinates": [
          34.574771,
          8.027204
        ]
      },
      "properties": {
        "label": "Nosocomial Infection",
        "pos": "4373.67,1353.11",
        "weight": "0.0"
      }
    },
    {
      "type": "Feature",
      "id": "node4867",
      "geometry": {
        "type": "Point",
        "coordinates": [
          33.669965,
          9.686957
        ]
      },
      "properties": {
        "label": "Special Pathogen",
        "pos": "3359.46,3216.18",
        "weight": "0.0"
      }
    },
    {
      "type": "Feature",
      "id": "node4868",
      "geometry": {
        "type": "Point",
        "coordinates": [
          33.380032,
          7.839857
        ]
      },
      "properties": {
        "label": "Health Data Management",
        "pos": "3034.47,1143.32",
        "weight": "0.0"
      }
    },
    {
      "type": "Feature",
      "id": "node4869",
      "geometry": {
        "type": "Point",
        "coordinates": [
          33.825329,
          7.009367
        ]
      },
      "properties": {
        "label": "Parasitology",
        "level": 3,
        "pos": "3533.61,214.45",
        "weight": "16675.0"
      }
    },
    {
      "type": "Feature",
      "id": "node4871",
      "geometry": {
        "type": "Point",
        "coordinates": [
          34.799517,
          8.387393
        ]
      },
      "properties": {
        "label": "Drug Regulatory Affairs",
        "pos": "4625.59,1756.72",
        "weight": "0.0"
      }
    },
    {
      "type": "Feature",
      "id": "node4872",
      "geometry": {
        "type": "Point",
        "coordinates": [
          34.244853,
          7.423829
        ]
      },
      "properties": {
        "label": "Human Immunodeficiency Virus (HIV) knowledge",
        "pos": "4003.86,677.79",
        "weight": "0.0"
      }
    },
    {
      "type": "Feature",
      "id": "node4873",
      "geometry": {
        "type": "Point",
        "coordinates": [
          34.206224,
          7.288397
        ]
      },
      "properties": {
        "label": "Economic Models",
        "pos": "3960.56,526.34",
        "weight": "0.0"
      }
    },
    {
      "type": "Feature",
      "id": "node592",
      "geometry": {
        "type": "Point",
        "coordinates": [
          33.418384,
          6.806114
        ]
      },
      "properties": {
        "label": "Burkitt Lymphoma Diagnosis / Treatment",
        "pos": "3077.46,-12.62",
        "weight": "0.0"
      }
    },
    {
      "type": "Feature",
      "id": "node532",
      "geometry": {
        "type": "Point",
        "coordinates": [
          34.799035,
          12.591015
        ]
      },
      "properties": {
        "label": "Statistics",
        "level": 2,
        "pos": "4625.05,6499.21",
        "weight": "615306.0"
      }
    },
    {
      "type": "Feature",
      "id": "node533",
      "geometry": {
        "type": "Point",
        "coordinates": [
          36.148515,
          10.987608
        ]
      },
      "properties": {
        "label": "Statistical Analysis",
        "level": 6,
        "pos": "6137.70,4682.53",
        "weight": "0.0"
      }
    },
    {
      "type": "Feature",
      "id": "node817",
      "geometry": {
        "type": "Point",
        "coordinates": [
          38.126482,
          6.521057
        ]
      },
      "properties": {
        "label": "Type 2 Diabetes Diagnosis / Treatment",
        "pos": "8354.83,-330.92",
        "weight": "0.0"
      }
    },
    {
      "type": "Feature",
      "id": "node818",
      "geometry": {
        "type": "Point",
        "coordinates": [
          39.47399,
          6.402508
        ]
      },
      "properties": {
        "label": "Insulin",
        "level": 3,
        "pos": "9865.27,-463.24",
        "weight": "32475.0"
      }
    },
    {
      "type": "Feature",
      "id": "node822",
      "geometry": {
        "type": "Point",
        "coordinates": [
          39.445049,
          6.706162
        ]
      },
      "properties": {
        "label": "Osteoporosis",
        "level": 3,
        "pos": "9832.83,-124.25",
        "weight": "14218.0"
      }
    },
    {
      "type": "Feature",
      "id": "node823",
      "geometry": {
        "type": "Point",
        "coordinates": [
          38.963861,
          5.917926
        ]
      },
      "properties": {
        "label": "Pituitary",
        "level": 4,
        "pos": "9293.46,-1003.80",
        "weight": "1859.0"
      }
    },
    {
      "type": "Feature",
      "id": "node825",
      "geometry": {
        "type": "Point",
        "coordinates": [
          38.965627,
          8.028436
        ]
      },
      "properties": {
        "label": "Business Strategy",
        "pos": "9295.44,1354.49",
        "weight": "0.0"
      }
    },
    {
      "type": "Feature",
      "id": "node826",
      "geometry": {
        "type": "Point",
        "coordinates": [
          38.842942,
          6.36723
        ]
      },
      "properties": {
        "label": "Diabetes Management",
        "pos": "9157.92,-502.61",
        "weight": "0.0"
      }
    },
    {
      "type": "Feature",
      "id": "node827",
      "geometry": {
        "type": "Point",
        "coordinates": [
          38.20754,
          7.860972
        ]
      },
      "properties": {
        "label": "Hyperthyroidism",
        "level": 4,
        "pos": "8445.69,1166.96",
        "weight": "308.0"
      }
    },
    {
      "type": "Feature",
      "id": "node830",
      "geometry": {
        "type": "Point",
        "coordinates": [
          39.765216,
          7.456748
        ]
      },
      "properties": {
        "label": "Endocrinology",
        "level": 3,
        "pos": "10191.71,714.61",
        "weight": "28260.0"
      }
    },
    {
      "type": "Feature",
      "id": "node100",
      "geometry": {
        "type": "Point",
        "coordinates": [
          33.877813,
          5.083373
        ]
      },
      "properties": {
        "label": "Telephone Skills",
        "level": 4,
        "pos": "3592.44,-1933.67",
        "weight": "0.0"
      }
    },
    {
      "type": "Feature",
      "id": "node2629",
      "geometry": {
        "type": "Point",
        "coordinates": [
          33.172603,
          4.426329
        ]
      },
      "properties": {
        "label": "Location Selection",
        "level": 7,
        "pos": "2801.96,-2664.90",
        "weight": "0.0"
      }
    },
    {
      "type": "Feature",
      "id": "node2765",
      "geometry": {
        "type": "Point",
        "coordinates": [
          32.97827,
          5.111043
        ]
      },
      "properties": {
        "label": "Equipment Replacement",
        "level": 7,
        "pos": "2584.13,-1902.86",
        "weight": "0.0"
      }
    },
    {
      "type": "Feature",
      "id": "node2766",
      "geometry": {
        "type": "Point",
        "coordinates": [
          33.686567,
          6.081056
        ]
      },
      "properties": {
        "label": "Order Management",
        "level": 7,
        "pos": "3378.07,-821.88",
        "weight": "0.0"
      }
    },
    {
      "type": "Feature",
      "id": "node2767",
      "geometry": {
        "type": "Point",
        "coordinates": [
          34.545527,
          4.030942
        ]
      },
      "properties": {
        "label": "Supply Ordering",
        "level": 7,
        "pos": "4340.89,-3104.61",
        "weight": "0.0"
      }
    },
    {
      "type": "Feature",
      "id": "node2768",
      "geometry": {
        "type": "Point",
        "coordinates": [
          33.677521,
          4.279819
        ]
      },
      "properties": {
        "label": "Medical Records Compilation",
        "level": 7,
        "pos": "3367.93,-2827.86",
        "weight": "0.0"
      }
    },
    {
      "type": "Feature",
      "id": "node2769",
      "geometry": {
        "type": "Point",
        "coordinates": [
          33.620309,
          4.28436
        ]
      },
      "properties": {
        "label": "Office Equipment",
        "level": 7,
        "pos": "3303.80,-2822.81",
        "weight": "0.0"
      }
    },
    {
      "type": "Feature",
      "id": "node2770",
      "geometry": {
        "type": "Point",
        "coordinates": [
          32.729018,
          5.210029
        ]
      },
      "properties": {
        "label": "Program and Database Updates",
        "level": 7,
        "pos": "2304.74,-1792.63",
        "weight": "0.0"
      }
    },
    {
      "type": "Feature",
      "id": "node2771",
      "geometry": {
        "type": "Point",
        "coordinates": [
          34.143373,
          6.060282
        ]
      },
      "properties": {
        "label": "Bandage Application",
        "level": 7,
        "pos": "3890.11,-845.05",
        "weight": "0.0"
      }
    },
    {
      "type": "Feature",
      "id": "node2772",
      "geometry": {
        "type": "Point",
        "coordinates": [
          34.619414,
          5.927172
        ]
      },
      "properties": {
        "label": "Responding to Prescription Questions",
        "level": 7,
        "pos": "4423.71,-993.49",
        "weight": "0.0"
      }
    },
    {
      "type": "Feature",
      "id": "node2773",
      "geometry": {
        "type": "Point",
        "coordinates": [
          32.834557,
          4.700362
        ]
      },
      "properties": {
        "label": "ACORD Forms",
        "level": 7,
        "pos": "2423.04,-2360.01",
        "weight": "0.0"
      }
    },
    {
      "type": "Feature",
      "id": "node2774",
      "geometry": {
        "type": "Point",
        "coordinates": [
          32.937634,
          5.590669
        ]
      },
      "properties": {
        "label": "Detection of Suspicious or Criminal Activity",
        "level": 7,
        "pos": "2538.58,-1368.59",
        "weight": "0.0"
      }
    },
    {
      "type": "Feature",
      "id": "node2775",
      "geometry": {
        "type": "Point",
        "coordinates": [
          34.968754,
          3.989703
        ]
      },
      "properties": {
        "label": "Medical Record Location",
        "level": 7,
        "pos": "4815.29,-3150.46",
        "weight": "0.0"
      }
    },
    {
      "type": "Feature",
      "id": "node2776",
      "geometry": {
        "type": "Point",
        "coordinates": [
          34.656883,
          4.392689
        ]
      },
      "properties": {
        "label": "Booking",
        "level": 4,
        "pos": "4465.71,-2702.32",
        "weight": "7290.0"
      }
    },
    {
      "type": "Feature",
      "id": "node2777",
      "geometry": {
        "type": "Point",
        "coordinates": [
          34.880656,
          4.60973
        ]
      },
      "properties": {
        "label": "Poster Design",
        "level": 7,
        "pos": "4716.54,-2460.86",
        "weight": "0.0"
      }
    },
    {
      "type": "Feature",
      "id": "node2778",
      "geometry": {
        "type": "Point",
        "coordinates": [
          34.186954,
          4.092479
        ]
      },
      "properties": {
        "label": "Calendar Creator",
        "level": 7,
        "pos": "3938.96,-3036.19",
        "weight": "0.0"
      }
    },
    {
      "type": "Feature",
      "id": "node2779",
      "geometry": {
        "type": "Point",
        "coordinates": [
          33.57523,
          6.159851
        ]
      },
      "properties": {
        "label": "Process Adjustment",
        "level": 7,
        "pos": "3253.27,-733.99",
        "weight": "0.0"
      }
    },
    {
      "type": "Feature",
      "id": "node2780",
      "geometry": {
        "type": "Point",
        "coordinates": [
          35.286593,
          7.133233
        ]
      },
      "properties": {
        "label": "Examination Room Preparation",
        "level": 7,
        "pos": "5171.56,352.88",
        "weight": "0.0"
      }
    },
    {
      "type": "Feature",
      "id": "node2781",
      "geometry": {
        "type": "Point",
        "coordinates": [
          35.043336,
          5.117608
        ]
      },
      "properties": {
        "label": "Funeral Industry Knowledge",
        "level": 7,
        "pos": "4898.89,-1895.55",
        "weight": "0.0"
      }
    },
    {
      "type": "Feature",
      "id": "node2782",
      "geometry": {
        "type": "Point",
        "coordinates": [
          34.82819,
          5.04689
        ]
      },
      "properties": {
        "label": "Clinic Management",
        "level": 7,
        "pos": "4657.73,-1974.29",
        "weight": "0.0"
      }
    },
    {
      "type": "Feature",
      "id": "node2783",
      "geometry": {
        "type": "Point",
        "coordinates": [
          33.353393,
          5.801763
        ]
      },
      "properties": {
        "label": "Clinical Assistant and/Or Medical Assistant",
        "level": 7,
        "pos": "3004.61,-1133.31",
        "weight": "0.0"
      }
    },
    {
      "type": "Feature",
      "id": "node2784",
      "geometry": {
        "type": "Point",
        "coordinates": [
          34.759995,
          5.490568
        ]
      },
      "properties": {
        "label": "Navinet",
        "level": 4,
        "pos": "4581.29,-1480.13",
        "weight": "3357.0"
      }
    },
    {
      "type": "Feature",
      "id": "node2785",
      "geometry": {
        "type": "Point",
        "coordinates": [
          33.143823,
          4.48937
        ]
      },
      "properties": {
        "label": "Audio Vault Automation",
        "level": 7,
        "pos": "2769.70,-2594.77",
        "weight": "0.0"
      }
    },
    {
      "type": "Feature",
      "id": "node74",
      "geometry": {
        "type": "Point",
        "coordinates": [
          32.601265,
          5.616548
        ]
      },
      "properties": {
        "label": "Legal Support",
        "level": 4,
        "pos": "2161.54,-1339.75",
        "weight": "0.0"
      }
    },
    {
      "type": "Feature",
      "id": "node75",
      "geometry": {
        "type": "Point",
        "coordinates": [
          30.615412,
          6.760076
        ]
      },
      "properties": {
        "label": "Administrative Support",
        "level": 2,
        "pos": "-64.43,-64.04",
        "weight": "0.0"
      }
    },
    {
      "type": "Feature",
      "id": "node1000",
      "geometry": {
        "type": "Point",
        "coordinates": [
          42.246246,
          -1.284488
        ]
      },
      "properties": {
        "label": "Pharmacy Files",
        "pos": "12972.73,-9003.62",
        "weight": "0.0"
      }
    },
    {
      "type": "Feature",
      "id": "node986",
      "geometry": {
        "type": "Point",
        "coordinates": [
          41.759536,
          -0.375122
        ]
      },
      "properties": {
        "label": "Performance Appraisals",
        "level": 3,
        "pos": "12427.17,-7994.95",
        "weight": "0.0"
      }
    },
    {
      "type": "Feature",
      "id": "node987",
      "geometry": {
        "type": "Point",
        "coordinates": [
          40.645293,
          -1.06811
        ]
      },
      "properties": {
        "label": "Invoice Approval",
        "level": 7,
        "pos": "11178.20,-8763.59",
        "weight": "0.0"
      }
    },
    {
      "type": "Feature",
      "id": "node988",
      "geometry": {
        "type": "Point",
        "coordinates": [
          41.630463,
          0.771216
        ]
      },
      "properties": {
        "label": "Superproject",
        "level": 5,
        "pos": "12282.49,-6723.55",
        "weight": "109.0"
      }
    },
    {
      "type": "Feature",
      "id": "node989",
      "geometry": {
        "type": "Point",
        "coordinates": [
          41.511908,
          0.686936
        ]
      },
      "properties": {
        "label": "Employee Recruitment",
        "level": 7,
        "pos": "12149.60,-6817.03",
        "weight": "0.0"
      }
    },
    {
      "type": "Feature",
      "id": "node991",
      "geometry": {
        "type": "Point",
        "coordinates": [
          40.757416,
          -0.470694
        ]
      },
      "properties": {
        "label": "Braillers",
        "level": 5,
        "pos": "11303.88,-8100.95",
        "weight": "130.0"
      }
    },
    {
      "type": "Feature",
      "id": "node992",
      "geometry": {
        "type": "Point",
        "coordinates": [
          40.567187,
          -1.676468
        ]
      },
      "properties": {
        "label": "Human Resource Management",
        "pos": "11090.65,-9438.50",
        "weight": "0.0"
      }
    },
    {
      "type": "Feature",
      "id": "node993",
      "geometry": {
        "type": "Point",
        "coordinates": [
          42.303476,
          -1.69352
        ]
      },
      "properties": {
        "label": "Wildlife Damage Management",
        "pos": "13036.88,-9457.42",
        "weight": "0.0"
      }
    },
    {
      "type": "Feature",
      "id": "node994",
      "geometry": {
        "type": "Point",
        "coordinates": [
          43.533732,
          0.06894
        ]
      },
      "properties": {
        "label": "SilkPerformer",
        "level": 4,
        "pos": "14415.89,-7502.45",
        "weight": "2908.0"
      }
    },
    {
      "type": "Feature",
      "id": "node997",
      "geometry": {
        "type": "Point",
        "coordinates": [
          40.198729,
          -1.241084
        ]
      },
      "properties": {
        "label": "Transit Time Analysis",
        "pos": "10677.64,-8955.47",
        "weight": "0.0"
      }
    },
    {
      "type": "Feature",
      "id": "node1001",
      "geometry": {
        "type": "Point",
        "coordinates": [
          42.749826,
          -1.169328
        ]
      },
      "properties": {
        "label": "Dietetics Industry Knowledge",
        "pos": "13537.20,-8875.87",
        "weight": "0.0"
      }
    },
    {
      "type": "Feature",
      "id": "node1002",
      "geometry": {
        "type": "Point",
        "coordinates": [
          44.472225,
          1.097652
        ]
      },
      "properties": {
        "label": "Industrial Service Industry Knowledge",
        "pos": "15467.86,-6361.46",
        "weight": "0.0"
      }
    },
    {
      "type": "Feature",
      "id": "node1003",
      "geometry": {
        "type": "Point",
        "coordinates": [
          15.703129,
          51.280835
        ]
      },
      "properties": {
        "label": "Market Quotes",
        "level": 6,
        "pos": "-16779.81,58885.26",
        "weight": "0.0"
      }
    },
    {
      "type": "Feature",
      "id": "node66",
      "geometry": {
        "type": "Point",
        "coordinates": [
          17.981654,
          50.651039
        ]
      },
      "properties": {
        "label": "Supervisory Skills",
        "level": 4,
        "pos": "-14225.78,57776.14",
        "weight": "0.0"
      }
    },
    {
      "type": "Feature",
      "id": "node1004",
      "geometry": {
        "type": "Point",
        "coordinates": [
          42.264205,
          0.320401
        ]
      },
      "properties": {
        "label": "Fish Culture",
        "pos": "12992.86,-7223.56",
        "weight": "0.0"
      }
    },
    {
      "type": "Feature",
      "id": "node1005",
      "geometry": {
        "type": "Point",
        "coordinates": [
          43.116625,
          -0.124356
        ]
      },
      "properties": {
        "label": "Entomology",
        "level": 3,
        "pos": "13948.35,-7716.83",
        "weight": "32071.0"
      }
    },
    {
      "type": "Feature",
      "id": "node1006",
      "geometry": {
        "type": "Point",
        "coordinates": [
          41.69797,
          -1.499181
        ]
      },
      "properties": {
        "label": "Planimeters",
        "level": 4,
        "pos": "12358.16,-9241.80",
        "weight": "305.0"
      }
    },
    {
      "type": "Feature",
      "id": "node1007",
      "geometry": {
        "type": "Point",
        "coordinates": [
          40.576849,
          0.21572
        ]
      },
      "properties": {
        "label": "Reservoir Simulation",
        "pos": "11101.48,-7339.66",
        "weight": "0.0"
      }
    },
    {
      "type": "Feature",
      "id": "node1008",
      "geometry": {
        "type": "Point",
        "coordinates": [
          43.38025,
          -0.677622
        ]
      },
      "properties": {
        "label": "Institutional Effectiveness",
        "pos": "14243.85,-8330.46",
        "weight": "0.0"
      }
    },
    {
      "type": "Feature",
      "id": "node1009",
      "geometry": {
        "type": "Point",
        "coordinates": [
          41.185549,
          -1.705597
        ]
      },
      "properties": {
        "label": "Health Condition Assessment",
        "pos": "11783.78,-9470.82",
        "weight": "0.0"
      }
    },
    {
      "type": "Feature",
      "id": "node101",
      "geometry": {
        "type": "Point",
        "coordinates": [
          42.897554,
          -25.823023
        ]
      },
      "properties": {
        "label": "Surface Medicine",
        "level": 7,
        "pos": "13702.79,-37240.44",
        "weight": "0.0"
      }
    },
    {
      "type": "Feature",
      "id": "node102",
      "geometry": {
        "type": "Point",
        "coordinates": [
          44.944046,
          -26.414071
        ]
      },
      "properties": {
        "label": "Anesthesiology",
        "level": 2,
        "pos": "15996.73,-37970.51",
        "weight": "623980.0"
      }
    },
    {
      "type": "Feature",
      "id": "node2786",
      "geometry": {
        "type": "Point",
        "coordinates": [
          46.727582,
          -25.360682
        ]
      },
      "properties": {
        "label": "Pulmonary Artery Catheter",
        "level": 7,
        "pos": "17995.92,-36671.89",
        "weight": "0.0"
      }
    },
    {
      "type": "Feature",
      "id": "node2787",
      "geometry": {
        "type": "Point",
        "coordinates": [
          44.638946,
          -24.291418
        ]
      },
      "properties": {
        "label": "da Vinci Surgical System",
        "level": 7,
        "pos": "15654.74,-35365.22",
        "weight": "0.0"
      }
    },
    {
      "type": "Feature",
      "id": "node2788",
      "geometry": {
        "type": "Point",
        "coordinates": [
          42.523422,
          -27.155026
        ]
      },
      "properties": {
        "label": "Gingivitis",
        "level": 4,
        "pos": "13283.42,-38891.06",
        "weight": "1137.0"
      }
    },
    {
      "type": "Feature",
      "id": "node2789",
      "geometry": {
        "type": "Point",
        "coordinates": [
          47.938389,
          -26.507996
        ]
      },
      "properties": {
        "label": "Sedative",
        "level": 4,
        "pos": "19353.13,-38086.87",
        "weight": "1109.0"
      }
    },
    {
      "type": "Feature",
      "id": "node2792",
      "geometry": {
        "type": "Point",
        "coordinates": [
          43.825601,
          -27.70727
        ]
      },
      "properties": {
        "label": "Equipment Set Up",
        "level": 7,
        "pos": "14743.05,-39581.13",
        "weight": "0.0"
      }
    },
    {
      "type": "Feature",
      "id": "node2793",
      "geometry": {
        "type": "Point",
        "coordinates": [
          45.592534,
          -24.415132
        ]
      },
      "properties": {
        "label": "Atrial Flutter",
        "level": 7,
        "pos": "16723.63,-35515.83",
        "weight": "0.0"
      }
    },
    {
      "type": "Feature",
      "id": "node2795",
      "geometry": {
        "type": "Point",
        "coordinates": [
          43.591363,
          -24.701466
        ]
      },
      "properties": {
        "label": "Dental Needs Evaluation",
        "level": 7,
        "pos": "14480.49,-35864.98",
        "weight": "0.0"
      }
    },
    {
      "type": "Feature",
      "id": "node2797",
      "geometry": {
        "type": "Point",
        "coordinates": [
          46.308468,
          -28.307914
        ]
      },
      "properties": {
        "label": "Central Venous Lines",
        "level": 7,
        "pos": "17526.13,-40335.66",
        "weight": "0.0"
      }
    },
    {
      "type": "Feature",
      "id": "node2799",
      "geometry": {
        "type": "Point",
        "coordinates": [
          45.476941,
          -27.808395
        ]
      },
      "properties": {
        "label": "Dental Appliances",
        "level": 7,
        "pos": "16594.06,-39707.87",
        "weight": "0.0"
      }
    },
    {
      "type": "Feature",
      "id": "node2800",
      "geometry": {
        "type": "Point",
        "coordinates": [
          42.941286,
          -27.376681
        ]
      },
      "properties": {
        "label": "Rubber Dam Placement",
        "level": 7,
        "pos": "13751.81,-39167.62",
        "weight": "0.0"
      }
    },
    {
      "type": "Feature",
      "id": "node2802",
      "geometry": {
        "type": "Point",
        "coordinates": [
          47.137649,
          -26.941957
        ]
      },
      "properties": {
        "label": "Nitrous Oxide",
        "level": 7,
        "pos": "18455.57,-38625.73",
        "weight": "0.0"
      }
    },
    {
      "type": "Feature",
      "id": "node285",
      "geometry": {
        "type": "Point",
        "coordinates": [
          43.894821,
          -31.775774
        ]
      },
      "properties": {
        "label": "Treatment Planning",
        "level": 3,
        "pos": "14820.64,-44779.77",
        "weight": "0.0"
      }
    },
    {
      "type": "Feature",
      "id": "node321",
      "geometry": {
        "type": "Point",
        "coordinates": [
          47.815311,
          -23.671976
        ]
      },
      "properties": {
        "height": "0.23",
        "label": "Verbal / Oral Communication",
        "level": 1,
        "pos": "19215.17,-34613.30",
        "weight": "0.0",
        "width": "2.33"
      }
    },
    {
      "type": "Feature",
      "id": "node722",
      "geometry": {
        "type": "Point",
        "coordinates": [
          41.888511,
          -24.830072
        ]
      },
      "properties": {
        "label": "Life Support",
        "level": 2,
        "pos": "12571.74,-36022.06",
        "weight": "0.0"
      }
    },
    {
      "type": "Feature",
      "id": "node1010",
      "geometry": {
        "type": "Point",
        "coordinates": [
          40.887497,
          0.629531
        ]
      },
      "properties": {
        "label": "Investment Advisory Technology Plaform",
        "pos": "11449.69,-6880.70",
        "weight": "0.0"
      }
    },
    {
      "type": "Feature",
      "id": "node1011",
      "geometry": {
        "type": "Point",
        "coordinates": [
          42.801356,
          -0.673232
        ]
      },
      "properties": {
        "label": "Ethanol Recovery Methods",
        "pos": "13594.96,-8325.59",
        "weight": "0.0"
      }
    },
    {
      "type": "Feature",
      "id": "node1012",
      "geometry": {
        "type": "Point",
        "coordinates": [
          29.914787,
          -7.391139
        ]
      },
      "properties": {
        "label": "ICS 500",
        "level": 2,
        "pos": "-849.77,-15799.05",
        "weight": "0.0"
      }
    },
    {
      "type": "Feature",
      "id": "node1013",
      "geometry": {
        "type": "Point",
        "coordinates": [
          30.528804,
          -6.497496
        ]
      },
      "properties": {
        "label": "Information Assurance",
        "level": 2,
        "pos": "-161.51,-14800.60",
        "weight": "0.0"
      }
    },
    {
      "type": "Feature",
      "id": "node1015",
      "geometry": {
        "type": "Point",
        "coordinates": [
          30.705909,
          -8.255362
        ]
      },
      "properties": {
        "label": "Splunk",
        "level": 2,
        "pos": "37.01,-16766.55",
        "weight": "156316.0"
      }
    },
    {
      "type": "Feature",
      "id": "node1016",
      "geometry": {
        "type": "Point",
        "coordinates": [
          31.072387,
          -7.331951
        ]
      },
      "properties": {
        "label": "ArcSight",
        "level": 3,
        "pos": "447.80,-15732.86",
        "weight": "45353.0"
      }
    },
    {
      "type": "Feature",
      "id": "node1021",
      "geometry": {
        "type": "Point",
        "coordinates": [
          29.670004,
          -7.637287
        ]
      },
      "properties": {
        "label": "Federal Information Security Management Act",
        "pos": "-1124.15,-16074.41",
        "weight": "0.0"
      }
    },
    {
      "type": "Feature",
      "id": "node1024",
      "geometry": {
        "type": "Point",
        "coordinates": [
          29.95785,
          -7.960612
        ]
      },
      "properties": {
        "label": "Xacta",
        "level": 4,
        "pos": "-801.50,-16436.35",
        "weight": "5042.0"
      }
    },
    {
      "type": "Feature",
      "id": "node205",
      "geometry": {
        "type": "Point",
        "coordinates": [
          29.630197,
          -4.537792
        ]
      },
      "properties": {
        "label": "Systems Engineering",
        "level": 2,
        "pos": "-1168.77,-12616.92",
        "weight": "0.0"
      }
    },
    {
      "type": "Feature",
      "id": "node2134",
      "geometry": {
        "type": "Point",
        "coordinates": [
          29.333957,
          -3.159759
        ]
      },
      "properties": {
        "label": "Fuel Cell Development",
        "level": 6,
        "pos": "-1500.83,-11085.09",
        "weight": "0.0"
      }
    },
    {
      "type": "Feature",
      "id": "node328",
      "geometry": {
        "type": "Point",
        "coordinates": [
          28.795735,
          -3.442643
        ]
      },
      "properties": {
        "label": "Siemens Teamcenter",
        "level": 7,
        "pos": "-2104.13,-11399.35",
        "weight": "0.0"
      }
    },
    {
      "type": "Feature",
      "id": "node3393",
      "geometry": {
        "type": "Point",
        "coordinates": [
          28.590626,
          -4.637312
        ]
      },
      "properties": {
        "label": "System Security Analysis",
        "level": 7,
        "pos": "-2334.04,-12727.65",
        "weight": "0.0"
      }
    },
    {
      "type": "Feature",
      "id": "node3840",
      "geometry": {
        "type": "Point",
        "coordinates": [
          30.992327,
          -4.620282
        ]
      },
      "properties": {
        "label": "Air Traffic Management",
        "level": 7,
        "pos": "358.06,-12708.70",
        "weight": "0.0"
      }
    },
    {
      "type": "Feature",
      "id": "node3939",
      "geometry": {
        "type": "Point",
        "coordinates": [
          29.15149,
          -6.732694
        ]
      },
      "properties": {
        "label": "Photonics Engineering",
        "level": 7,
        "pos": "-1705.36,-15063.20",
        "weight": "0.0"
      }
    },
    {
      "type": "Feature",
      "id": "node3961",
      "geometry": {
        "type": "Point",
        "coordinates": [
          28.789669,
          -5.590561
        ]
      },
      "properties": {
        "label": "Procedure Planning",
        "level": 7,
        "pos": "-2110.93,-13789.11",
        "weight": "0.0"
      }
    },
    {
      "type": "Feature",
      "id": "node3962",
      "geometry": {
        "type": "Point",
        "coordinates": [
          29.842551,
          -3.366992
        ]
      },
      "properties": {
        "label": "Engineering Leadership",
        "level": 7,
        "pos": "-930.74,-11315.30",
        "weight": "0.0"
      }
    },
    {
      "type": "Feature",
      "id": "node3963",
      "geometry": {
        "type": "Point",
        "coordinates": [
          29.015511,
          -4.080013
        ]
      },
      "properties": {
        "label": "VMware vCloud",
        "level": 7,
        "pos": "-1857.78,-12107.77",
        "weight": "0.0"
      }
    },
    {
      "type": "Feature",
      "id": "node3964",
      "geometry": {
        "type": "Point",
        "coordinates": [
          31.287007,
          -5.633849
        ]
      },
      "properties": {
        "label": "Dynamic Object-Oriented Requirements System (DOORS)",
        "level": 7,
        "pos": "688.37,-13837.35",
        "weight": "0.0"
      }
    },
    {
      "type": "Feature",
      "id": "node3965",
      "geometry": {
        "type": "Point",
        "coordinates": [
          30.944063,
          -5.547325
        ]
      },
      "properties": {
        "label": "DNSSEC",
        "level": 4,
        "pos": "303.96,-13740.93",
        "weight": "2360.0"
      }
    },
    {
      "type": "Feature",
      "id": "node3966",
      "geometry": {
        "type": "Point",
        "coordinates": [
          30.144912,
          -6.058758
        ]
      },
      "properties": {
        "label": "Application Packaging",
        "level": 7,
        "pos": "-591.82,-14311.07",
        "weight": "0.0"
      }
    },
    {
      "type": "Feature",
      "id": "node3967",
      "geometry": {
        "type": "Point",
        "coordinates": [
          28.706041,
          -4.13892
        ]
      },
      "properties": {
        "label": "Unmanned Vehicle Systems",
        "level": 7,
        "pos": "-2204.67,-12173.27",
        "weight": "0.0"
      }
    },
    {
      "type": "Feature",
      "id": "node3968",
      "geometry": {
        "type": "Point",
        "coordinates": [
          28.454621,
          -5.104837
        ]
      },
      "properties": {
        "label": "Fortran",
        "level": 3,
        "pos": "-2486.49,-13248.05",
        "weight": "36715.0"
      }
    },
    {
      "type": "Feature",
      "id": "node3969",
      "geometry": {
        "type": "Point",
        "coordinates": [
          29.316516,
          -6.53582
        ]
      },
      "properties": {
        "label": "Zero-Touch",
        "level": 4,
        "pos": "-1520.38,-14843.38",
        "weight": "3407.0"
      }
    },
    {
      "type": "Feature",
      "id": "node3970",
      "geometry": {
        "type": "Point",
        "coordinates": [
          29.895454,
          -3.48515
        ]
      },
      "properties": {
        "label": "DIACAP Implementation Plan",
        "level": 7,
        "pos": "-871.44,-11446.58",
        "weight": "0.0"
      }
    },
    {
      "type": "Feature",
      "id": "node3972",
      "geometry": {
        "type": "Point",
        "coordinates": [
          30.417537,
          -3.893238
        ]
      },
      "properties": {
        "label": "Microsoft Lync Server",
        "level": 7,
        "pos": "-286.23,-11900.12",
        "weight": "0.0"
      }
    },
    {
      "type": "Feature",
      "id": "node3973",
      "geometry": {
        "type": "Point",
        "coordinates": [
          29.311868,
          -3.43087
        ]
      },
      "properties": {
        "label": "Secure Technical Implementation Guidance",
        "level": 7,
        "pos": "-1525.59,-11386.27",
        "weight": "0.0"
      }
    },
    {
      "type": "Feature",
      "id": "node3974",
      "geometry": {
        "type": "Point",
        "coordinates": [
          27.888877,
          -5.602765
        ]
      },
      "properties": {
        "label": "Solaris",
        "level": 2,
        "pos": "-3120.64,-13802.71",
        "weight": "346086.0"
      }
    },
    {
      "type": "Feature",
      "id": "node3975",
      "geometry": {
        "type": "Point",
        "coordinates": [
          28.67966,
          -5.970568
        ]
      },
      "properties": {
        "label": "Propagation",
        "level": 4,
        "pos": "-2234.24,-14212.72",
        "weight": "377.0"
      }
    },
    {
      "type": "Feature",
      "id": "node1014",
      "geometry": {
        "type": "Point",
        "coordinates": [
          44.854262,
          5.27122
        ]
      },
      "properties": {
        "label": "Data Access Object (DAO)",
        "level": 7,
        "pos": "15896.09,-1724.48",
        "weight": "0.0"
      }
    },
    {
      "type": "Feature",
      "id": "node175",
      "geometry": {
        "type": "Point",
        "coordinates": [
          43.533598,
          5.810688
        ]
      },
      "properties": {
        "label": "Java Server Pages (JSP)",
        "level": 3,
        "pos": "14415.74,-1123.36",
        "weight": "0.0"
      }
    },
    {
      "type": "Feature",
      "id": "node3583",
      "geometry": {
        "type": "Point",
        "coordinates": [
          45.543619,
          5.871072
        ]
      },
      "properties": {
        "label": "Unified Modeling Language (UML)",
        "level": 2,
        "pos": "16668.80,-1056.04",
        "weight": "0.0"
      }
    },
    {
      "type": "Feature",
      "id": "node3596",
      "geometry": {
        "type": "Point",
        "coordinates": [
          41.925053,
          5.233869
        ]
      },
      "properties": {
        "label": "IBM Content Manager",
        "level": 7,
        "pos": "12612.70,-1766.08",
        "weight": "0.0"
      }
    },
    {
      "type": "Feature",
      "id": "node3597",
      "geometry": {
        "type": "Point",
        "coordinates": [
          42.279603,
          5.983544
        ]
      },
      "properties": {
        "label": "Synon 2",
        "level": 7,
        "pos": "13010.12,-930.63",
        "weight": "0.0"
      }
    },
    {
      "type": "Feature",
      "id": "node3598",
      "geometry": {
        "type": "Point",
        "coordinates": [
          44.47425,
          6.481765
        ]
      },
      "properties": {
        "label": "JBoss jBPM",
        "level": 7,
        "pos": "15470.13,-374.78",
        "weight": "0.0"
      }
    },
    {
      "type": "Feature",
      "id": "node3599",
      "geometry": {
        "type": "Point",
        "coordinates": [
          42.491171,
          4.924442
        ]
      },
      "properties": {
        "label": "Oracle Endeca",
        "level": 7,
        "pos": "13247.27,-2110.61",
        "weight": "0.0"
      }
    },
    {
      "type": "Feature",
      "id": "node3600",
      "geometry": {
        "type": "Point",
        "coordinates": [
          42.783371,
          4.435049
        ]
      },
      "properties": {
        "label": "Apache Velocity",
        "level": 7,
        "pos": "13574.80,-2655.20",
        "weight": "0.0"
      }
    },
    {
      "type": "Feature",
      "id": "node3601",
      "geometry": {
        "type": "Point",
        "coordinates": [
          42.155222,
          6.147757
        ]
      },
      "properties": {
        "label": "JEE Programming",
        "level": 7,
        "pos": "12870.70,-747.48",
        "weight": "0.0"
      }
    },
    {
      "type": "Feature",
      "id": "node3602",
      "geometry": {
        "type": "Point",
        "coordinates": [
          42.355559,
          6.833805
        ]
      },
      "properties": {
        "label": "XQuery",
        "level": 3,
        "pos": "13095.26,18.31",
        "weight": "24813.0"
      }
    },
    {
      "type": "Feature",
      "id": "node3603",
      "geometry": {
        "type": "Point",
        "coordinates": [
          44.675577,
          6.434253
        ]
      },
      "properties": {
        "label": "Xfire",
        "level": 4,
        "pos": "15695.80,-427.81",
        "weight": "933.0"
      }
    },
    {
      "type": "Feature",
      "id": "node3604",
      "geometry": {
        "type": "Point",
        "coordinates": [
          42.53824,
          7.297716
        ]
      },
      "properties": {
        "label": "Apache JackRabbit",
        "level": 7,
        "pos": "13300.03,536.76",
        "weight": "0.0"
      }
    },
    {
      "type": "Feature",
      "id": "node3605",
      "geometry": {
        "type": "Point",
        "coordinates": [
          43.090325,
          4.753747
        ]
      },
      "properties": {
        "label": "Adobe CQ",
        "level": 7,
        "pos": "13918.87,-2300.60",
        "weight": "0.0"
      }
    },
    {
      "type": "Feature",
      "id": "node3606",
      "geometry": {
        "type": "Point",
        "coordinates": [
          44.690369,
          5.430117
        ]
      },
      "properties": {
        "label": "Model 204",
        "level": 7,
        "pos": "15712.38,-1547.48",
        "weight": "0.0"
      }
    },
    {
      "type": "Feature",
      "id": "node3607",
      "geometry": {
        "type": "Point",
        "coordinates": [
          43.907016,
          5.132668
        ]
      },
      "properties": {
        "label": "Apache CXF",
        "level": 7,
        "pos": "14834.31,-1878.78",
        "weight": "0.0"
      }
    },
    {
      "type": "Feature",
      "id": "node3608",
      "geometry": {
        "type": "Point",
        "coordinates": [
          44.185959,
          4.986828
        ]
      },
      "properties": {
        "label": "Dojo Toolkit",
        "level": 7,
        "pos": "15146.98,-2041.16",
        "weight": "0.0"
      }
    },
    {
      "type": "Feature",
      "id": "node3609",
      "geometry": {
        "type": "Point",
        "coordinates": [
          42.309908,
          5.303272
        ]
      },
      "properties": {
        "label": "Drools",
        "level": 3,
        "pos": "13044.09,-1688.78",
        "weight": "24710.0"
      }
    },
    {
      "type": "Feature",
      "id": "node3613",
      "geometry": {
        "type": "Point",
        "coordinates": [
          42.553397,
          6.547546
        ]
      },
      "properties": {
        "label": "Liferay",
        "level": 3,
        "pos": "13317.02,-301.35",
        "weight": "20345.0"
      }
    },
    {
      "type": "Feature",
      "id": "node3614",
      "geometry": {
        "type": "Point",
        "coordinates": [
          43.685751,
          6.766737
        ]
      },
      "properties": {
        "label": "Spring Security",
        "level": 7,
        "pos": "14586.29,-56.60",
        "weight": "0.0"
      }
    },
    {
      "type": "Feature",
      "id": "node1017",
      "geometry": {
        "type": "Point",
        "coordinates": [
          26.690952,
          -2.570997
        ]
      },
      "properties": {
        "label": "Security Operations",
        "level": 7,
        "pos": "-4463.41,-10431.29",
        "weight": "0.0"
      }
    },
    {
      "type": "Feature",
      "id": "node162",
      "geometry": {
        "type": "Point",
        "coordinates": [
          26.057817,
          -2.5008
        ]
      },
      "properties": {
        "label": "Titus (software)",
        "level": 5,
        "pos": "-5173.10,-10353.36",
        "weight": "0.0"
      }
    },
    {
      "type": "Feature",
      "id": "node3380",
      "geometry": {
        "type": "Point",
        "coordinates": [
          26.099381,
          -3.969896
        ]
      },
      "properties": {
        "label": "Compliance Management",
        "level": 7,
        "pos": "-5126.51,-11985.34",
        "weight": "0.0"
      }
    },
    {
      "type": "Feature",
      "id": "node3385",
      "geometry": {
        "type": "Point",
        "coordinates": [
          26.604076,
          -2.900473
        ]
      },
      "properties": {
        "label": "Data Loss Prevention",
        "level": 7,
        "pos": "-4560.79,-10797.12",
        "weight": "0.0"
      }
    },
    {
      "type": "Feature",
      "id": "node3386",
      "geometry": {
        "type": "Point",
        "coordinates": [
          26.423081,
          -3.676701
        ]
      },
      "properties": {
        "label": "I&AM Planning",
        "level": 7,
        "pos": "-4763.67,-11659.44",
        "weight": "0.0"
      }
    },
    {
      "type": "Feature",
      "id": "node490",
      "geometry": {
        "type": "Point",
        "coordinates": [
          26.367403,
          -4.078332
        ]
      },
      "properties": {
        "label": "PERL Scripting Language",
        "level": 7,
        "pos": "-4826.08,-12105.90",
        "weight": "0.0"
      }
    },
    {
      "type": "Feature",
      "id": "node1018",
      "geometry": {
        "type": "Point",
        "coordinates": [
          26.63423,
          -2.924102
        ]
      },
      "properties": {
        "label": "Certified Ethical Hacker",
        "level": 7,
        "pos": "-4526.99,-10823.36",
        "weight": "0.0"
      }
    },
    {
      "type": "Feature",
      "id": "node163",
      "geometry": {
        "type": "Point",
        "coordinates": [
          27.72501,
          -2.618322
        ]
      },
      "properties": {
        "label": "Information Security",
        "level": 4,
        "pos": "-3304.32,-10483.83",
        "weight": "0.0"
      }
    },
    {
      "type": "Feature",
      "id": "node249",
      "geometry": {
        "type": "Point",
        "coordinates": [
          24.752747,
          -1.589899
        ]
      },
      "properties": {
        "label": "NIST Cybersecurity Framework",
        "level": 4,
        "pos": "-6635.97,-9342.45",
        "weight": "0.0"
      }
    },
    {
      "type": "Feature",
      "id": "node3390",
      "geometry": {
        "type": "Point",
        "coordinates": [
          27.01897,
          -2.701076
        ]
      },
      "properties": {
        "label": "Vormetric Application Encryption",
        "level": 7,
        "pos": "-4095.73,-10575.71",
        "weight": "0.0"
      }
    },
    {
      "type": "Feature",
      "id": "node3391",
      "geometry": {
        "type": "Point",
        "coordinates": [
          26.53284,
          -4.27526
        ]
      },
      "properties": {
        "label": "Forensic Evaluation",
        "level": 7,
        "pos": "-4640.64,-12324.89",
        "weight": "0.0"
      }
    },
    {
      "type": "Feature",
      "id": "node3392",
      "geometry": {
        "type": "Point",
        "coordinates": [
          27.03179,
          -4.54394
        ]
      },
      "properties": {
        "label": "Nexpose",
        "level": 4,
        "pos": "-4081.36,-12623.76",
        "weight": "8221.0"
      }
    },
    {
      "type": "Feature",
      "id": "node3394",
      "geometry": {
        "type": "Point",
        "coordinates": [
          28.736364,
          -2.493495
        ]
      },
      "properties": {
        "label": "Technical System Audits",
        "level": 7,
        "pos": "-2170.68,-10345.25",
        "weight": "0.0"
      }
    },
    {
      "type": "Feature",
      "id": "node3395",
      "geometry": {
        "type": "Point",
        "coordinates": [
          27.671215,
          -4.962018
        ]
      },
      "properties": {
        "label": "Threat Analysis",
        "level": 7,
        "pos": "-3364.62,-13089.04",
        "weight": "0.0"
      }
    },
    {
      "type": "Feature",
      "id": "node3396",
      "geometry": {
        "type": "Point",
        "coordinates": [
          27.39197,
          -1.672403
        ]
      },
      "properties": {
        "label": "Active Defense Fundamentals",
        "level": 7,
        "pos": "-3677.63,-9433.99",
        "weight": "0.0"
      }
    },
    {
      "type": "Feature",
      "id": "node3397",
      "geometry": {
        "type": "Point",
        "coordinates": [
          27.573928,
          -4.409527
        ]
      },
      "properties": {
        "label": "Splunk SIEM",
        "level": 7,
        "pos": "-3473.67,-12474.23",
        "weight": "0.0"
      }
    },
    {
      "type": "Feature",
      "id": "node3398",
      "geometry": {
        "type": "Point",
        "coordinates": [
          27.146001,
          -2.215849
        ]
      },
      "properties": {
        "label": "Intelligence Analysis",
        "level": 7,
        "pos": "-3953.34,-10037.06",
        "weight": "0.0"
      }
    },
    {
      "type": "Feature",
      "id": "node3399",
      "geometry": {
        "type": "Point",
        "coordinates": [
          28.281851,
          -1.928067
        ]
      },
      "properties": {
        "label": "RSA Archer Audit Management",
        "level": 7,
        "pos": "-2680.15,-9717.68",
        "weight": "0.0"
      }
    },
    {
      "type": "Feature",
      "id": "node3400",
      "geometry": {
        "type": "Point",
        "coordinates": [
          28.208482,
          -3.984711
        ]
      },
      "properties": {
        "label": "CSIRT",
        "level": 4,
        "pos": "-2762.39,-12001.81",
        "weight": "7047.0"
      }
    },
    {
      "type": "Feature",
      "id": "node3401",
      "geometry": {
        "type": "Point",
        "coordinates": [
          28.184038,
          -4.432558
        ]
      },
      "properties": {
        "label": "NIST SP 800-30",
        "level": 7,
        "pos": "-2789.79,-12499.85",
        "weight": "0.0"
      }
    },
    {
      "type": "Feature",
      "id": "node3402",
      "geometry": {
        "type": "Point",
        "coordinates": [
          27.958284,
          -1.499298
        ]
      },
      "properties": {
        "label": "Oracle Identity Federation",
        "level": 7,
        "pos": "-3042.84,-9241.93",
        "weight": "0.0"
      }
    },
    {
      "type": "Feature",
      "id": "node3403",
      "geometry": {
        "type": "Point",
        "coordinates": [
          28.503955,
          -2.346665
        ]
      },
      "properties": {
        "label": "Data Security Classification",
        "level": 7,
        "pos": "-2431.19,-10182.26",
        "weight": "0.0"
      }
    },
    {
      "type": "Feature",
      "id": "node3404",
      "geometry": {
        "type": "Point",
        "coordinates": [
          27.48865,
          -1.73943
        ]
      },
      "properties": {
        "label": "Cybersecurity Strategy",
        "level": 7,
        "pos": "-3569.26,-9508.36",
        "weight": "0.0"
      }
    },
    {
      "type": "Feature",
      "id": "node3405",
      "geometry": {
        "type": "Point",
        "coordinates": [
          28.612572,
          -3.311212
        ]
      },
      "properties": {
        "label": "Wireless Security",
        "level": 7,
        "pos": "-2309.44,-11253.33",
        "weight": "0.0"
      }
    },
    {
      "type": "Feature",
      "id": "node3406",
      "geometry": {
        "type": "Point",
        "coordinates": [
          26.773724,
          -4.027237
        ]
      },
      "properties": {
        "label": "Imperva",
        "level": 4,
        "pos": "-4370.63,-12049.09",
        "weight": "10311.0"
      }
    },
    {
      "type": "Feature",
      "id": "node3407",
      "geometry": {
        "type": "Point",
        "coordinates": [
          28.652209,
          -3.10701
        ]
      },
      "properties": {
        "label": "WAF-Imperva",
        "level": 4,
        "pos": "-2265.01,-11026.50",
        "weight": "10311.0"
      }
    },
    {
      "type": "Feature",
      "id": "node3408",
      "geometry": {
        "type": "Point",
        "coordinates": [
          26.773786,
          -3.367677
        ]
      },
      "properties": {
        "label": "Security Operations Process Optimization",
        "level": 7,
        "pos": "-4370.56,-11316.06",
        "weight": "0.0"
      }
    },
    {
      "type": "Feature",
      "id": "node3409",
      "geometry": {
        "type": "Point",
        "coordinates": [
          26.898925,
          -4.709969
        ]
      },
      "properties": {
        "label": "Standards Implementation",
        "level": 7,
        "pos": "-4230.29,-12808.50",
        "weight": "0.0"
      }
    },
    {
      "type": "Feature",
      "id": "node3411",
      "geometry": {
        "type": "Point",
        "coordinates": [
          26.92676,
          -3.169338
        ]
      },
      "properties": {
        "label": "Log Monitoring & Management",
        "level": 7,
        "pos": "-4199.09,-11095.73",
        "weight": "0.0"
      }
    },
    {
      "type": "Feature",
      "id": "node1019",
      "geometry": {
        "type": "Point",
        "coordinates": [
          34.468385,
          -8.749904
        ]
      },
      "properties": {
        "label": "NIST SP 800-53",
        "level": 6,
        "pos": "4254.42,-17321.13",
        "weight": "0.0"
      }
    },
    {
      "type": "Feature",
      "id": "node55",
      "geometry": {
        "type": "Point",
        "coordinates": [
          33.520997,
          -7.306481
        ]
      },
      "properties": {
        "height": "0.23",
        "label": "Troubleshooting",
        "level": 1,
        "pos": "3192.48,-15704.38",
        "weight": "8869395.0",
        "width": "1.29"
      }
    },
    {
      "type": "Feature",
      "id": "node71",
      "geometry": {
        "type": "Point",
        "coordinates": [
          32.847305,
          -12.545402
        ]
      },
      "properties": {
        "label": "Metadata",
        "level": 2,
        "pos": "2437.33,-21605.20",
        "weight": "290899.0"
      }
    },
    {
      "type": "Feature",
      "id": "node782",
      "geometry": {
        "type": "Point",
        "coordinates": [
          38.396975,
          -7.918007
        ]
      },
      "properties": {
        "label": "Siemens Plc",
        "level": 2,
        "pos": "8658.03,-16388.64",
        "weight": "0.0"
      }
    },
    {
      "type": "Feature",
      "id": "node670",
      "geometry": {
        "type": "Point",
        "coordinates": [
          34.795457,
          -4.869363
        ]
      },
      "properties": {
        "label": "OSI model",
        "level": 2,
        "pos": "4621.04,-12985.90",
        "weight": "0.0"
      }
    },
    {
      "type": "Feature",
      "id": "node3140",
      "geometry": {
        "type": "Point",
        "coordinates": [
          41.478194,
          -30.740998
        ]
      },
      "properties": {
        "label": "Occipital",
        "level": 4,
        "pos": "12111.81,-43437.21",
        "weight": "445.0"
      }
    },
    {
      "type": "Feature",
      "id": "node3168",
      "geometry": {
        "type": "Point",
        "coordinates": [
          46.955682,
          -32.178383
        ]
      },
      "properties": {
        "label": "Hydrotherapy",
        "level": 3,
        "pos": "18251.60,-45306.17",
        "weight": "13575.0"
      }
    },
    {
      "type": "Feature",
      "id": "node3265",
      "geometry": {
        "type": "Point",
        "coordinates": [
          43.264978,
          -29.990461
        ]
      },
      "properties": {
        "label": "Treatment Re-Evaluation",
        "level": 7,
        "pos": "14114.64,-42472.45",
        "weight": "0.0"
      }
    },
    {
      "type": "Feature",
      "id": "node3268",
      "geometry": {
        "type": "Point",
        "coordinates": [
          45.344398,
          -30.158305
        ]
      },
      "properties": {
        "label": "Chronic Disease",
        "level": 7,
        "pos": "16445.49,-42687.56",
        "weight": "0.0"
      }
    },
    {
      "type": "Feature",
      "id": "node4786",
      "geometry": {
        "type": "Point",
        "coordinates": [
          43.473486,
          -29.246244
        ]
      },
      "properties": {
        "label": "Foley Catheter",
        "pos": "14348.36,-41522.99",
        "weight": "0.0"
      }
    },
    {
      "type": "Feature",
      "id": "node4787",
      "geometry": {
        "type": "Point",
        "coordinates": [
          46.09682,
          -33.652648
        ]
      },
      "properties": {
        "label": "Care Plan Change",
        "pos": "17288.89,-47254.00",
        "weight": "0.0"
      }
    },
    {
      "type": "Feature",
      "id": "node4788",
      "geometry": {
        "type": "Point",
        "coordinates": [
          44.897539,
          -33.790863
        ]
      },
      "properties": {
        "label": "Withdrawal Symptoms",
        "pos": "15944.60,-47438.30",
        "weight": "0.0"
      }
    },
    {
      "type": "Feature",
      "id": "node4789",
      "geometry": {
        "type": "Point",
        "coordinates": [
          44.704955,
          -29.215581
        ]
      },
      "properties": {
        "label": "Colorectal Surgery",
        "pos": "15728.73,-41484.02",
        "weight": "0.0"
      }
    },
    {
      "type": "Feature",
      "id": "node4790",
      "geometry": {
        "type": "Point",
        "coordinates": [
          47.950905,
          -30.909737
        ]
      },
      "properties": {
        "label": "Telehealth",
        "level": 3,
        "pos": "19367.16,-43655.14",
        "weight": "37416.0"
      }
    },
    {
      "type": "Feature",
      "id": "node4791",
      "geometry": {
        "type": "Point",
        "coordinates": [
          42.640086,
          -34.039746
        ]
      },
      "properties": {
        "label": "Thermoluminescent Dosimeters",
        "pos": "13414.19,-47770.92",
        "weight": "0.0"
      }
    },
    {
      "type": "Feature",
      "id": "node4792",
      "geometry": {
        "type": "Point",
        "coordinates": [
          46.892233,
          -33.422441
        ]
      },
      "properties": {
        "label": "Surgery - Trauma",
        "pos": "18180.48,-46947.69",
        "weight": "0.0"
      }
    },
    {
      "type": "Feature",
      "id": "node4793",
      "geometry": {
        "type": "Point",
        "coordinates": [
          40.755302,
          -32.547235
        ]
      },
      "properties": {
        "label": "Neuroleptic",
        "level": 5,
        "pos": "11301.51,-45790.48",
        "weight": "103.0"
      }
    },
    {
      "type": "Feature",
      "id": "node4794",
      "geometry": {
        "type": "Point",
        "coordinates": [
          41.411668,
          -32.272553
        ]
      },
      "properties": {
        "label": "Intensity Modulated Radiation Therapy",
        "pos": "12037.24,-45429.63",
        "weight": "0.0"
      }
    },
    {
      "type": "Feature",
      "id": "node4795",
      "geometry": {
        "type": "Point",
        "coordinates": [
          41.909405,
          -34.659584
        ]
      },
      "properties": {
        "label": "Ventricular Assist Device",
        "pos": "12595.16,-48603.58",
        "weight": "0.0"
      }
    },
    {
      "type": "Feature",
      "id": "node4796",
      "geometry": {
        "type": "Point",
        "coordinates": [
          46.313982,
          -30.402587
        ]
      },
      "properties": {
        "label": "Brachytherapy",
        "level": 4,
        "pos": "17532.31,-43001.29",
        "weight": "8934.0"
      }
    },
    {
      "type": "Feature",
      "id": "node4797",
      "geometry": {
        "type": "Point",
        "coordinates": [
          46.688257,
          -29.461138
        ]
      },
      "properties": {
        "label": "Lip Reading",
        "pos": "17951.84,-41796.43",
        "weight": "0.0"
      }
    },
    {
      "type": "Feature",
      "id": "node4798",
      "geometry": {
        "type": "Point",
        "coordinates": [
          43.846512,
          -33.765532
        ]
      },
      "properties": {
        "label": "Voice Disorder",
        "pos": "14766.49,-47404.50",
        "weight": "0.0"
      }
    },
    {
      "type": "Feature",
      "id": "node4799",
      "geometry": {
        "type": "Point",
        "coordinates": [
          40.988736,
          -30.765492
        ]
      },
      "properties": {
        "label": "Emotional Impairment",
        "pos": "11563.17,-43468.82",
        "weight": "0.0"
      }
    },
    {
      "type": "Feature",
      "id": "node4800",
      "geometry": {
        "type": "Point",
        "coordinates": [
          41.838677,
          -29.405375
        ]
      },
      "properties": {
        "label": "Kidney Stone Diagnosis / Treatment",
        "pos": "12515.88,-41725.42",
        "weight": "0.0"
      }
    },
    {
      "type": "Feature",
      "id": "node4801",
      "geometry": {
        "type": "Point",
        "coordinates": [
          41.531418,
          -33.111045
        ]
      },
      "properties": {
        "label": "Subarachnoid Hemorrhage",
        "pos": "12171.47,-46534.64",
        "weight": "0.0"
      }
    },
    {
      "type": "Feature",
      "id": "node4802",
      "geometry": {
        "type": "Point",
        "coordinates": [
          47.352117,
          -31.816344
        ]
      },
      "properties": {
        "label": "Disease Management Model",
        "pos": "18695.97,-44832.71",
        "weight": "0.0"
      }
    },
    {
      "type": "Feature",
      "id": "node750",
      "geometry": {
        "type": "Point",
        "coordinates": [
          47.575622,
          -30.860075
        ]
      },
      "properties": {
        "label": "Oral Health Care",
        "pos": "18946.50,-43590.96",
        "weight": "0.0"
      }
    },
    {
      "type": "Feature",
      "id": "node1020",
      "geometry": {
        "type": "Point",
        "coordinates": [
          44.585829,
          27.336888
        ]
      },
      "properties": {
        "label": "ITIL",
        "level": 2,
        "pos": "15595.20,23960.11",
        "weight": "689366.0"
      }
    },
    {
      "type": "Feature",
      "id": "node216",
      "geometry": {
        "type": "Point",
        "coordinates": [
          43.54797,
          29.080025
        ]
      },
      "properties": {
        "label": "Capability Maturity Model Integration (CMMI)",
        "level": 2,
        "pos": "14431.85,26154.06",
        "weight": "0.0"
      }
    },
    {
      "type": "Feature",
      "id": "node24",
      "geometry": {
        "type": "Point",
        "coordinates": [
          37.983634,
          22.027012
        ]
      },
      "properties": {
        "height": "0.23",
        "label": "Project Management",
        "level": 1,
        "pos": "8194.71,17475.65",
        "weight": "0.0",
        "width": "1.61"
      }
    },