{
  "type": "FeatureCollection",
  "features": [
    {
      "type": "Feature",
      "id": "131",
      "geometry": {
        "type": "Point",
        "coordinates": [
          11.74028,
          13.279961
        ]
      },
      "properties": {
        "label": "Cetuximab",
        "level": 1,
        "pos": "-89569.86950790847,153787.19011320663",
        "src_id": "2",
        "weight": "0.0006035146533305115"
      }
    },
    {
      "type": "Feature",
      "id": "220",
      "geometry": {
        "type": "Point",
        "coordinates": [
          11.793246,
          12.244817
        ]
      },
      "properties": {
        "label": "Pegfilgrastim",
        "level": 1,
        "pos": "-88915.38068335848,140857.75039559018",
        "src_id": "19",
        "weight": "0.0007400238987361521"
      }
    },
    {
      "type": "Feature",
      "id": "9108",
      "geometry": {
        "type": "Point",
        "coordinates": [
          11.600916,
          13.54253
        ]
      },
      "properties": {
        "label": "Pegvisomant",
        "level": 5,
        "pos": "-91291.9698390055,157075.39669019848",
        "src_id": "78",
        "weight": "4.47882108334162e-05"
      }
    },
    {
      "type": "Feature",
      "id": "8832",
      "geometry": {
        "type": "Point",
        "coordinates": [
          12.05621,
          13.555615
        ]
      },
      "properties": {
        "label": "Epothilone D",
        "level": 5,
        "pos": "-85665.9557998668,157239.35995724605",
        "src_id": "1785",
        "weight": "5.888128665656e-05"
      }
    },
    {
      "type": "Feature",
      "id": "3446",
      "geometry": {
        "type": "Point",
        "coordinates": [
          11.654113,
          13.618638
        ]
      },
      "properties": {
        "label": "Fidarestat",
        "level": 5,
        "pos": "-90634.62434981552,158029.18817252194",
        "src_id": "1922",
        "weight": "6.130015711259671e-05"
      }
    },
    {
      "type": "Feature",
      "id": "3442",
      "geometry": {
        "type": "Point",
        "coordinates": [
          12.05024,
          13.502581
        ]
      },
      "properties": {
        "label": "Calcipotriol",
        "level": 4,
        "pos": "-85739.73915771948,156574.8652975475",
        "src_id": "2182",
        "weight": "0.0001332866387709878"
      }
    },
    {
      "type": "Feature",
      "id": "49",
      "geometry": {
        "type": "Point",
        "coordinates": [
          12.200386,
          13.329097
        ]
      },
      "properties": {
        "label": "Ixabepilone",
        "level": 1,
        "pos": "-83884.39781085972,154402.25836024235",
        "src_id": "4567",
        "weight": "0.0005922016212927544"
      }
    },
    {
      "type": "Feature",
      "id": "3412",
      "geometry": {
        "type": "Point",
        "coordinates": [
          12.027327,
          13.213745
        ]
      },
      "properties": {
        "label": "Voglibose",
        "level": 5,
        "pos": "-86022.87128677161,152958.52028543846",
        "src_id": "4600",
        "weight": "6.130015711259671e-05"
      }
    },
    {
      "type": "Feature",
      "id": "8633",
      "geometry": {
        "type": "Point",
        "coordinates": [
          12.021044,
          13.620164
        ]
      },
      "properties": {
        "label": "anecortave acetate",
        "level": 5,
        "pos": "-86100.51171033426,158048.31597726385",
        "src_id": "4945",
        "weight": "4.47882108334162e-05"
      }
    },
    {
      "type": "Feature",
      "id": "8606",
      "geometry": {
        "type": "Point",
        "coordinates": [
          12.073752,
          13.276377
        ]
      },
      "properties": {
        "label": "Lasofoxifene",
        "level": 5,
        "pos": "-85449.1987013563,153742.33040029687",
        "src_id": "5477",
        "weight": "5.888128665656e-05"
      }
    },
    {
      "type": "Feature",
      "id": "4834",
      "geometry": {
        "type": "Point",
        "coordinates": [
          11.916367,
          13.679834
        ]
      },
      "properties": {
        "label": "Asoprisnil",
        "level": 5,
        "pos": "-87393.98504956593,158796.32125273655",
        "src_id": "5742",
        "weight": "8.224121921312067e-05"
      }
    },
    {
      "type": "Feature",
      "id": "1692",
      "geometry": {
        "type": "Point",
        "coordinates": [
          11.694935,
          13.658781
        ]
      },
      "properties": {
        "label": "Dexmethylphenidate",
        "level": 5,
        "pos": "-90130.19344722312,158532.39453362676",
        "src_id": "5761",
        "weight": "7.029791125612936e-05"
      }
    },
    {
      "type": "Feature",
      "id": "3352",
      "geometry": {
        "type": "Point",
        "coordinates": [
          12.045643,
          13.453435
        ]
      },
      "properties": {
        "label": "Metreleptin",
        "level": 5,
        "pos": "-85796.53571559372,155959.2419720149",
        "src_id": "7992",
        "weight": "6.130015711259671e-05"
      }
    },
    {
      "type": "Feature",
      "id": "3282",
      "geometry": {
        "type": "Point",
        "coordinates": [
          11.803399,
          13.674621
        ]
      },
      "properties": {
        "label": "Landiolol",
        "level": 5,
        "pos": "-88789.92200684169,158730.96677654595",
        "src_id": "9872",
        "weight": "9.675400433148191e-05"
      }
    },
    {
      "type": "Feature",
      "id": "7421",
      "geometry": {
        "type": "Point",
        "coordinates": [
          11.857652,
          13.6676
        ]
      },
      "properties": {
        "label": "Colorectal cancer metastatic",
        "level": 5,
        "pos": "-88119.5212581874,158642.94566749255",
        "src_id": "173948",
        "weight": "2.852553694830181e-05"
      }
    },
    {
      "type": "Feature",
      "id": "5169",
      "geometry": {
        "type": "Point",
        "coordinates": [
          11.125616,
          12.782225
        ]
      },
      "properties": {
        "label": "Anakinra",
        "level": 5,
        "pos": "-97165.19018687743,147563.61695765567",
        "src_id": "26",
        "weight": "8.973875475886042e-05"
      }
    },
    {
      "type": "Feature",
      "id": "219",
      "geometry": {
        "type": "Point",
        "coordinates": [
          10.685493,
          15.502505
        ]
      },
      "properties": {
        "label": "Ibritumomab tiuxetan",
        "level": 1,
        "pos": "-102603.72728277315,181740.63247048657",
        "src_id": "75",
        "weight": "0.0005489593038499381"
      }
    },
    {
      "type": "Feature",
      "id": "1297",
      "geometry": {
        "type": "Point",
        "coordinates": [
          11.935176,
          12.792826
        ]
      },
      "properties": {
        "label": "Tenofovir disoproxil",
        "level": 4,
        "pos": "-87161.56503113527,147696.0502032822",
        "src_id": "291",
        "weight": "0.0002189107299293035"
      }
    },
    {
      "type": "Feature",
      "id": "660",
      "geometry": {
        "type": "Point",
        "coordinates": [
          14.538903,
          9.755653
        ]
      },
      "properties": {
        "label": "Gefitinib",
        "level": 1,
        "pos": "-54987.64677484003,109965.3198215013",
        "src_id": "308",
        "weight": "0.0005383733162027506"
      }
    },
    {
      "type": "Feature",
      "id": "2519",
      "geometry": {
        "type": "Point",
        "coordinates": [
          8.951461,
          13.15039
        ]
      },
      "properties": {
        "label": "Emtricitabine",
        "level": 4,
        "pos": "-124030.93546113094,152165.8615309664",
        "src_id": "865",
        "weight": "0.00019953025279663468"
      }
    },
    {
      "type": "Feature",
      "id": "128",
      "geometry": {
        "type": "Point",
        "coordinates": [
          10.19713,
          13.528516
        ]
      },
      "properties": {
        "label": "Tipranavir",
        "level": 2,
        "pos": "-108638.37454171127,156899.80613309925",
        "src_id": "918",
        "weight": "0.0004705595818516969"
      }
    },
    {
      "type": "Feature",
      "id": "2512",
      "geometry": {
        "type": "Point",
        "coordinates": [
          11.221353,
          12.916282
        ]
      },
      "properties": {
        "label": "Desloratadine",
        "level": 4,
        "pos": "-95982.17652562312,149238.61092414934",
        "src_id": "953",
        "weight": "0.0001654117512777525"
      }
    },
    {
      "type": "Feature",
      "id": "1229",
      "geometry": {
        "type": "Point",
        "coordinates": [
          11.435238,
          13.561313
        ]
      },
      "properties": {
        "label": "Lumiracoxib",
        "level": 3,
        "pos": "-93339.23231631448,157310.7551302028",
        "src_id": "1266",
        "weight": "0.00029840244399403226"
      }
    },
    {
      "type": "Feature",
      "id": "4952",
      "geometry": {
        "type": "Point",
        "coordinates": [
          11.363885,
          13.053248
        ]
      },
      "properties": {
        "label": "Lopinavir",
        "level": 5,
        "pos": "-94220.92936996443,150950.8651440206",
        "src_id": "1533",
        "weight": "9.68664544249522e-05"
      }
    },
    {
      "type": "Feature",
      "id": "4951",
      "geometry": {
        "type": "Point",
        "coordinates": [
          11.889809,
          13.065147
        ]
      },
      "properties": {
        "label": "Deferasirox",
        "level": 5,
        "pos": "-87722.15843807482,151099.6654721069",
        "src_id": "1541",
        "weight": "8.20735284885315e-05"
      }
    },
    {
      "type": "Feature",
      "id": "7966",
      "geometry": {
        "type": "Point",
        "coordinates": [
          11.645437,
          13.098493
        ]
      },
      "properties": {
        "label": "Acute febrile neutrophilic dermatosis",
        "level": 5,
        "pos": "-90741.82852096632,151516.71449800432",
        "src_id": "169736",
        "weight": "2.4625849996353856e-05"
      }
    },
    {
      "type": "Feature",
      "id": "1197",
      "geometry": {
        "type": "Point",
        "coordinates": [
          12.473286,
          13.329261
        ]
      },
      "properties": {
        "label": "Priralfinamide",
        "level": 5,
        "pos": "-80512.20848741951,154404.3052958779",
        "src_id": "5722",
        "weight": "0.00010352342108564785"
      }
    },
    {
      "type": "Feature",
      "id": "4816",
      "geometry": {
        "type": "Point",
        "coordinates": [
          12.276126,
          13.645923
        ]
      },
      "properties": {
        "label": "Efaproxiral",
        "level": 5,
        "pos": "-82948.49446736465,158371.19649431173",
        "src_id": "7479",
        "weight": "7.761670764163043e-05"
      }
    },
    {
      "type": "Feature",
      "id": "3434",
      "geometry": {
        "type": "Point",
        "coordinates": [
          12.41563,
          13.585742
        ]
      },
      "properties": {
        "label": "Alvocidib",
        "level": 5,
        "pos": "-81224.66280210049,157616.9012275557",
        "src_id": "3300",
        "weight": "9.110666479074837e-05"
      }
    },
    {
      "type": "Feature",
      "id": "3386",
      "geometry": {
        "type": "Point",
        "coordinates": [
          12.636074,
          13.224966
        ]
      },
      "properties": {
        "label": "Temsirolimus",
        "level": 5,
        "pos": "-78500.66440601702,153098.92373320428",
        "src_id": "5536",
        "weight": "0.00011758821386591955"
      }
    },
    {
      "type": "Feature",
      "id": "8607",
      "geometry": {
        "type": "Point",
        "coordinates": [
          12.443878,
          13.525279
        ]
      },
      "properties": {
        "label": "Icatibant",
        "level": 5,
        "pos": "-80875.60417902381,156859.25458960238",
        "src_id": "5471",
        "weight": "5.2585680642920097e-05"
      }
    },
    {
      "type": "Feature",
      "id": "8561",
      "geometry": {
        "type": "Point",
        "coordinates": [
          12.518493,
          13.409153
        ]
      },
      "properties": {
        "label": "Perifosine",
        "level": 5,
        "pos": "-79953.60375699232,155404.63684970315",
        "src_id": "5717",
        "weight": "3.098701081732394e-05"
      }
    },
    {
      "type": "Feature",
      "id": "8468",
      "geometry": {
        "type": "Point",
        "coordinates": [
          12.422874,
          13.178665
        ]
      },
      "properties": {
        "label": "Glucarpidase",
        "level": 5,
        "pos": "-81135.14854964994,152519.59486250114",
        "src_id": "7857",
        "weight": "2.9678262588986175e-05"
      }
    },
    {
      "type": "Feature",
      "id": "8611",
      "geometry": {
        "type": "Point",
        "coordinates": [
          10.797328,
          12.950362
        ]
      },
      "properties": {
        "label": "Canakinumab",
        "level": 5,
        "pos": "-101221.81290211453,149664.5742861049",
        "src_id": "5452",
        "weight": "3.5528693255361526e-05"
      }
    },
    {
      "type": "Feature",
      "id": "64",
      "geometry": {
        "type": "Point",
        "coordinates": [
          11.122761,
          17.278016
        ]
      },
      "properties": {
        "label": "Adefovir Dipivoxil",
        "level": 1,
        "pos": "-97200.46617539629,204286.61107979153",
        "src_id": "704",
        "weight": "0.0005573308655019807"
      }
    },
    {
      "type": "Feature",
      "id": "3635",
      "geometry": {
        "type": "Point",
        "coordinates": [
          9.906447,
          15.771092
        ]
      },
      "properties": {
        "label": "Bortezomib",
        "level": 4,
        "pos": "-112230.31052168844,185138.2193562365",
        "src_id": "179",
        "weight": "0.00016839515098809743"
      }
    },
    {
      "type": "Feature",
      "id": "1767",
      "geometry": {
        "type": "Point",
        "coordinates": [
          10.5858,
          15.88057
        ]
      },
      "properties": {
        "label": "Alosetron",
        "level": 5,
        "pos": "-103835.63165306997,186524.39251814707",
        "src_id": "955",
        "weight": "0.00010225295109379821"
      }
    },
    {
      "type": "Feature",
      "id": "4",
      "geometry": {
        "type": "Point",
        "coordinates": [
          10.358261,
          15.82582
        ]
      },
      "properties": {
        "label": "Vorinostat",
        "level": 1,
        "pos": "-106647.29944474412,185831.0826699468",
        "src_id": "2413",
        "weight": "0.001465998426312485"
      }
    },
    {
      "type": "Feature",
      "id": "1717",
      "geometry": {
        "type": "Point",
        "coordinates": [
          9.291241,
          15.720201
        ]
      },
      "properties": {
        "label": "Nilotinib",
        "level": 4,
        "pos": "-119832.32566537376,184494.11304025276",
        "src_id": "4590",
        "weight": "0.00021326734915487835"
      }
    },
    {
      "type": "Feature",
      "id": "4872",
      "geometry": {
        "type": "Point",
        "coordinates": [
          10.875334,
          15.796065
        ]
      },
      "properties": {
        "label": "Dexlansoprazole",
        "level": 5,
        "pos": "-100257.90494547121,185454.35801797843",
        "src_id": "4994",
        "weight": "5.205454046014342e-05"
      }
    },
    {
      "type": "Feature",
      "id": "3378",
      "geometry": {
        "type": "Point",
        "coordinates": [
          10.728037,
          15.862529
        ]
      },
      "properties": {
        "label": "Lestaurtinib",
        "level": 5,
        "pos": "-102078.01823140417,186295.92415282637",
        "src_id": "5622",
        "weight": "6.060582428988038e-05"
      }
    },
    {
      "type": "Feature",
      "id": "4836",
      "geometry": {
        "type": "Point",
        "coordinates": [
          10.500995,
          15.358308
        ]
      },
      "properties": {
        "label": "Axitinib",
        "level": 5,
        "pos": "-104883.54646124966,179918.38212710133",
        "src_id": "5708",
        "weight": "4.4107525613398335e-05"
      }
    },
    {
      "type": "Feature",
      "id": "4835",
      "geometry": {
        "type": "Point",
        "coordinates": [
          11.162991,
          15.537654
        ]
      },
      "properties": {
        "label": "Denosumab",
        "level": 5,
        "pos": "-96703.35795864754,182185.00050369036",
        "src_id": "5719",
        "weight": "0.00012194666996839021"
      }
    },
    {
      "type": "Feature",
      "id": "8471",
      "geometry": {
        "type": "Point",
        "coordinates": [
          10.988122,
          15.737627
        ]
      },
      "properties": {
        "label": "Carfilzomib",
        "level": 5,
        "pos": "-98864.19240938222,184714.64765650922",
        "src_id": "7848",
        "weight": "5.191577488350238e-05"
      }
    },
    {
      "type": "Feature",
      "id": "3351",
      "geometry": {
        "type": "Point",
        "coordinates": [
          11.036869,
          15.633065
        ]
      },
      "properties": {
        "label": "Blinatumomab",
        "level": 5,
        "pos": "-98261.83087941015,183391.64485922278",
        "src_id": "7998",
        "weight": "8.946089197615845e-05"
      }
    },
    {
      "type": "Feature",
      "id": "1803",
      "geometry": {
        "type": "Point",
        "coordinates": [
          12.471388,
          12.504837
        ]
      },
      "properties": {
        "label": "Ritonavir",
        "level": 4,
        "pos": "-80535.67241914678,144100.59255063834",
        "src_id": "492",
        "weight": "0.00018436974003735907"
      }
    },
    {
      "type": "Feature",
      "id": "4868",
      "geometry": {
        "type": "Point",
        "coordinates": [
          12.339028,
          12.943074
        ]
      },
      "properties": {
        "label": "Irofulven",
        "level": 5,
        "pos": "-82171.22490669566,149573.47431610775",
        "src_id": "5246",
        "weight": "6.654763093303121e-05"
      }
    },
    {
      "type": "Feature",
      "id": "3375",
      "geometry": {
        "type": "Point",
        "coordinates": [
          12.128474,
          13.093113
        ]
      },
      "properties": {
        "label": "Agomelatine",
        "level": 5,
        "pos": "-84773.0134180981,151449.41991254032",
        "src_id": "5685",
        "weight": "6.315893711360311e-05"
      }
    },
    {
      "type": "Feature",
      "id": "8109",
      "geometry": {
        "type": "Point",
        "coordinates": [
          12.214919,
          13.073953
        ]
      },
      "properties": {
        "label": "Combretastatin",
        "level": 5,
        "pos": "-83704.8150312423,151209.78691070975",
        "src_id": "10241",
        "weight": "3.940874609049866e-05"
      }
    },
    {
      "type": "Feature",
      "id": "111",
      "geometry": {
        "type": "Point",
        "coordinates": [
          10.706466,
          11.196464
        ]
      },
      "properties": {
        "label": "Caspofungin",
        "level": 1,
        "pos": "-102344.56548542944,127814.87845072658",
        "src_id": "507",
        "weight": "0.0007240197218343078"
      }
    },
    {
      "type": "Feature",
      "id": "915",
      "geometry": {
        "type": "Point",
        "coordinates": [
          17.800612,
          16.618943
        ]
      },
      "properties": {
        "label": "Alemtuzumab",
        "level": 2,
        "pos": "-14683.143128775746,195893.3876130251",
        "src_id": "82",
        "weight": "0.0004898633236719767"
      }
    },
    {
      "type": "Feature",
      "id": "130",
      "geometry": {
        "type": "Point",
        "coordinates": [
          11.749269,
          11.583652
        ]
      },
      "properties": {
        "label": "Enfuvirtide",
        "level": 1,
        "pos": "-89458.80484369573,132626.260075842",
        "src_id": "102",
        "weight": "0.0006562705883880605"
      }
    },
    {
      "type": "Feature",
      "id": "5093",
      "geometry": {
        "type": "Point",
        "coordinates": [
          13.594535,
          10.111296
        ]
      },
      "properties": {
        "label": "Bosentan",
        "level": 4,
        "pos": "-66657.08019079849,114363.60130381283",
        "src_id": "546",
        "weight": "0.000146218525522585"
      }
    },
    {
      "type": "Feature",
      "id": "3526",
      "geometry": {
        "type": "Point",
        "coordinates": [
          15.165834,
          11.092337
        ]
      },
      "properties": {
        "label": "Mycophenolic acid",
        "level": 5,
        "pos": "-47240.74737290984,126522.06058126366",
        "src_id": "1010",
        "weight": "0.00010788127928348418"
      }
    },
    {
      "type": "Feature",
      "id": "8939",
      "geometry": {
        "type": "Point",
        "coordinates": [
          14.560227,
          11.257781
        ]
      },
      "properties": {
        "label": "Rosuvastatin",
        "level": 5,
        "pos": "-54724.164384066586,128576.40839063773",
        "src_id": "1082",
        "weight": "7.251958529943511e-05"
      }
    },
    {
      "type": "Feature",
      "id": "8609",
      "geometry": {
        "type": "Point",
        "coordinates": [
          14.93617,
          11.373791
        ]
      },
      "properties": {
        "label": "Ipilimumab",
        "level": 5,
        "pos": "-50078.67765981424,130017.62006980945",
        "src_id": "5462",
        "weight": "3.1034471563546446e-05"
      }
    },
    {
      "type": "Feature",
      "id": "451",
      "geometry": {
        "type": "Point",
        "coordinates": [
          6.129698,
          14.24216
        ]
      },
      "properties": {
        "label": "Nesiritide",
        "level": 2,
        "pos": "-158899.10245105485,165854.95055468043",
        "src_id": "4621",
        "weight": "0.0005092230261736226"
      }
    },
    {
      "type": "Feature",
      "id": "2407",
      "geometry": {
        "type": "Point",
        "coordinates": [
          8.823151,
          14.064744
        ]
      },
      "properties": {
        "label": "Indisulam",
        "level": 5,
        "pos": "-125616.45138547219,163626.06988544468",
        "src_id": "5571",
        "weight": "9.308110779822647e-05"
      }
    },
    {
      "type": "Feature",
      "id": "3371",
      "geometry": {
        "type": "Point",
        "coordinates": [
          10.401264,
          13.809579
        ]
      },
      "properties": {
        "label": "Laquinimod",
        "level": 5,
        "pos": "-106115.91842048835,160423.43236767032",
        "src_id": "5747",
        "weight": "6.112662076004443e-05"
      }
    },
    {
      "type": "Feature",
      "id": "4668",
      "geometry": {
        "type": "Point",
        "coordinates": [
          10.072316,
          13.91422
        ]
      },
      "properties": {
        "label": "Oblimersen",
        "level": 5,
        "pos": "-110180.67603815247,161736.37935863878",
        "src_id": "10889",
        "weight": "0.00010626517670126625"
      }
    },
    {
      "type": "Feature",
      "id": "3531",
      "geometry": {
        "type": "Point",
        "coordinates": [
          9.917992,
          13.477881
        ]
      },
      "properties": {
        "label": "Ethiodized oil",
        "level": 5,
        "pos": "-112087.63605131986,156265.45086515273",
        "src_id": "951",
        "weight": "6.012870239241737e-05"
      }
    },
    {
      "type": "Feature",
      "id": "2445",
      "geometry": {
        "type": "Point",
        "coordinates": [
          9.242422,
          14.184925
        ]
      },
      "properties": {
        "label": "Vatalanib",
        "level": 4,
        "pos": "-120435.57075137415,165135.72029003888",
        "src_id": "4601",
        "weight": "0.00012702982681209884"
      }
    },
    {
      "type": "Feature",
      "id": "8631",
      "geometry": {
        "type": "Point",
        "coordinates": [
          9.950747,
          13.857268
        ]
      },
      "properties": {
        "label": "Carbopol 974P",
        "level": 5,
        "pos": "-111682.89504708984,161021.72199047921",
        "src_id": "5014",
        "weight": "4.419369088116185e-05"
      }
    },
    {
      "type": "Feature",
      "id": "2422",
      "geometry": {
        "type": "Point",
        "coordinates": [
          9.670905,
          13.595368
        ]
      },
      "properties": {
        "label": "Zosuquidar",
        "level": 5,
        "pos": "-115140.86637593366,157737.54138949784",
        "src_id": "5466",
        "weight": "8.401196522674054e-05"
      }
    },
    {
      "type": "Feature",
      "id": "4843",
      "geometry": {
        "type": "Point",
        "coordinates": [
          9.974295,
          13.317584
        ]
      },
      "properties": {
        "label": "Etilevodopa",
        "level": 5,
        "pos": "-111391.92009292124,154258.1265614469",
        "src_id": "5654",
        "weight": "4.4183253019812527e-05"
      }
    },
    {
      "type": "Feature",
      "id": "8549",
      "geometry": {
        "type": "Point",
        "coordinates": [
          10.311853,
          13.901303
        ]
      },
      "properties": {
        "label": "Gadofosveset trisodium",
        "level": 5,
        "pos": "-107220.74836481437,161574.27894614975",
        "src_id": "5765",
        "weight": "5.7999556727671686e-05"
      }
    },
    {
      "type": "Feature",
      "id": "3292",
      "geometry": {
        "type": "Point",
        "coordinates": [
          10.187839,
          13.948013
        ]
      },
      "properties": {
        "label": "Dibotermin alfa",
        "level": 5,
        "pos": "-108753.17985988622,162160.51087291466",
        "src_id": "9311",
        "weight": "6.012870239241737e-05"
      }
    },
    {
      "type": "Feature",
      "id": "4713",
      "geometry": {
        "type": "Point",
        "coordinates": [
          10.900359,
          13.290931
        ]
      },
      "properties": {
        "label": "Vinflunine",
        "level": 5,
        "pos": "-99948.65527965907,153924.5037716789",
        "src_id": "9313",
        "weight": "7.14791074334028e-05"
      }
    },
    {
      "type": "Feature",
      "id": "2411",
      "geometry": {
        "type": "Point",
        "coordinates": [
          11.24471,
          13.88785
        ]
      },
      "properties": {
        "label": "Tocilizumab",
        "level": 4,
        "pos": "-95693.55527200575,161405.45379266178",
        "src_id": "5528",
        "weight": "0.00015312357062037817"
      }
    },
    {
      "type": "Feature",
      "id": "3486",
      "geometry": {
        "type": "Point",
        "coordinates": [
          11.372475,
          13.487617
        ]
      },
      "properties": {
        "label": "Lapatinib",
        "level": 4,
        "pos": "-94114.79060536533,156387.41220566732",
        "src_id": "1242",
        "weight": "0.000139321363432142"
      }
    },
    {
      "type": "Feature",
      "id": "2505",
      "geometry": {
        "type": "Point",
        "coordinates": [
          11.559334,
          13.848379
        ]
      },
      "properties": {
        "label": "Selegiline",
        "level": 5,
        "pos": "-91805.80341802588,160910.19563614088",
        "src_id": "1022",
        "weight": "8.995422833373202e-05"
      }
    },
    {
      "type": "Feature",
      "id": "2456",
      "geometry": {
        "type": "Point",
        "coordinates": [
          11.658625,
          14.085101
        ]
      },
      "properties": {
        "label": "Cilomilast",
        "level": 4,
        "pos": "-90578.86755633414,163881.72090141228",
        "src_id": "3624",
        "weight": "0.00016340292820778244"
      }
    },
    {
      "type": "Feature",
      "id": "3435",
      "geometry": {
        "type": "Point",
        "coordinates": [
          13.042061,
          13.215934
        ]
      },
      "properties": {
        "label": "Uracil",
        "level": 4,
        "pos": "-73483.9410705415,152985.9136901396",
        "src_id": "3228",
        "weight": "0.00014258398553658016"
      }
    },
    {
      "type": "Feature",
      "id": "6850",
      "geometry": {
        "type": "Point",
        "coordinates": [
          12.922882,
          13.445613
        ]
      },
      "properties": {
        "label": "Hepatectomy",
        "level": 5,
        "pos": "-74956.60763784853,155861.26172119615",
        "src_id": "177862",
        "weight": "3.662553689919856e-05"
      }
    },
    {
      "type": "Feature",
      "id": "1309",
      "geometry": {
        "type": "Point",
        "coordinates": [
          11.35769,
          17.131421
        ]
      },
      "properties": {
        "label": "Insulin Lispro",
        "level": 5,
        "pos": "-94297.48521051063,202417.19037705718",
        "src_id": "45",
        "weight": "0.00011370639577431309"
      }
    },
    {
      "type": "Feature",
      "id": "1266",
      "geometry": {
        "type": "Point",
        "coordinates": [
          10.9048,
          17.548913
        ]
      },
      "properties": {
        "label": "Daunorubicin",
        "level": 5,
        "pos": "-99893.79263532603,207745.10825934945",
        "src_id": "680",
        "weight": "9.338044916650251e-05"
      }
    },
    {
      "type": "Feature",
      "id": "852",
      "geometry": {
        "type": "Point",
        "coordinates": [
          11.100594,
          17.074625
        ]
      },
      "properties": {
        "label": "Acadesine",
        "level": 5,
        "pos": "-97474.38504575395,201693.30927328393",
        "src_id": "4656",
        "weight": "0.0001180789813665859"
      }
    },
    {
      "type": "Feature",
      "id": "2442",
      "geometry": {
        "type": "Point",
        "coordinates": [
          11.462799,
          17.221058
        ]
      },
      "properties": {
        "label": "Pexelizumab",
        "level": 4,
        "pos": "-92998.6748776313,203560.09009928993",
        "src_id": "4660",
        "weight": "0.0001710059623475381"
      }
    },
    {
      "type": "Feature",
      "id": "1205",
      "geometry": {
        "type": "Point",
        "coordinates": [
          11.02052,
          17.614099
        ]
      },
      "properties": {
        "label": "Apremilast",
        "level": 5,
        "pos": "-98463.84643429988,208578.10183986175",
        "src_id": "5188",
        "weight": "9.338044916650251e-05"
      }
    },
    {
      "type": "Feature",
      "id": "1190",
      "geometry": {
        "type": "Point",
        "coordinates": [
          10.848948,
          17.478771
        ]
      },
      "properties": {
        "label": "Tafluprost",
        "level": 5,
        "pos": "-100583.93551235805,206849.13143102682",
        "src_id": "7795",
        "weight": "9.338044916650251e-05"
      }
    },
    {
      "type": "Feature",
      "id": "447",
      "geometry": {
        "type": "Point",
        "coordinates": [
          10.799078,
          17.306184
        ]
      },
      "properties": {
        "label": "Teriflunomide",
        "level": 4,
        "pos": "-101200.1813040446,204645.9923093145",
        "src_id": "7839",
        "weight": "0.0001392814525862031"
      }
    },
    {
      "type": "Feature",
      "id": "1189",
      "geometry": {
        "type": "Point",
        "coordinates": [
          11.278769,
          17.582393
        ]
      },
      "properties": {
        "label": "Linaclotide",
        "level": 5,
        "pos": "-95272.69821633391,208172.89611527015",
        "src_id": "7849",
        "weight": "9.338044916650251e-05"
      }
    },
    {
      "type": "Feature",
      "id": "342",
      "geometry": {
        "type": "Point",
        "coordinates": [
          11.33934,
          17.055201
        ]
      },
      "properties": {
        "label": "Vofopitant",
        "level": 4,
        "pos": "-94524.24297513744,201445.78955532197",
        "src_id": "10091",
        "weight": "0.00014432710716936602"
      }
    },
    {
      "type": "Feature",
      "id": "1152",
      "geometry": {
        "type": "Point",
        "coordinates": [
          11.354878,
          17.437975
        ]
      },
      "properties": {
        "label": "Biapenem",
        "level": 5,
        "pos": "-94332.2306020554,206328.17456663548",
        "src_id": "10655",
        "weight": "9.338044916650251e-05"
      }
    },
    {
      "type": "Feature",
      "id": "433",
      "geometry": {
        "type": "Point",
        "coordinates": [
          10.901435,
          17.594941
        ]
      },
      "properties": {
        "label": "Gossypol",
        "level": 4,
        "pos": "-99935.3664645065,208333.25383029922",
        "src_id": "10670",
        "weight": "0.0001392814525862031"
      }
    },
    {
      "type": "Feature",
      "id": "621",
      "geometry": {
        "type": "Point",
        "coordinates": [
          11.624846,
          17.386329
        ]
      },
      "properties": {
        "label": "Benzoyl peroxide",
        "level": 4,
        "pos": "-90996.28071407358,205668.816193514",
        "src_id": "8041",
        "weight": "0.00021779993474946573"
      }
    },
    {
      "type": "Feature",
      "id": "2571",
      "geometry": {
        "type": "Point",
        "coordinates": [
          11.425023,
          17.286624
        ]
      },
      "properties": {
        "label": "Raltitrexed",
        "level": 5,
        "pos": "-93465.46455267527,204396.42671875746",
        "src_id": "284",
        "weight": "8.316769505606724e-05"
      }
    },
    {
      "type": "Feature",
      "id": "1284",
      "geometry": {
        "type": "Point",
        "coordinates": [
          10.160529,
          17.564651
        ]
      },
      "properties": {
        "label": "Trifluridine",
        "level": 4,
        "pos": "-109090.65187372804,207946.19486994957",
        "src_id": "421",
        "weight": "0.00016458415088777667"
      }
    },
    {
      "type": "Feature",
      "id": "2383",
      "geometry": {
        "type": "Point",
        "coordinates": [
          10.858766,
          17.246132
        ]
      },
      "properties": {
        "label": "Eribulin",
        "level": 5,
        "pos": "-100462.6201426395,203879.89664823186",
        "src_id": "7830",
        "weight": "7.2787226452726e-05"
      }
    },
    {
      "type": "Feature",
      "id": "2324",
      "geometry": {
        "type": "Point",
        "coordinates": [
          11.195242,
          17.606018
        ]
      },
      "properties": {
        "label": "Saracatinib",
        "level": 5,
        "pos": "-96304.82544908002,208474.81679910925",
        "src_id": "9474",
        "weight": "7.2787226452726e-05"
      }
    },
    {
      "type": "Feature",
      "id": "627",
      "geometry": {
        "type": "Point",
        "coordinates": [
          12.172132,
          18.481094
        ]
      },
      "properties": {
        "label": "Clevudine",
        "level": 2,
        "pos": "-84233.53399285712,219686.21693139075",
        "src_id": "5745",
        "weight": "0.00040021192736947096"
      }
    },
    {
      "type": "Feature",
      "id": "4702",
      "geometry": {
        "type": "Point",
        "coordinates": [
          11.221527,
          17.063202
        ]
      },
      "properties": {
        "label": "Ruboxistaurin",
        "level": 5,
        "pos": "-95980.03582841152,201547.74092108288",
        "src_id": "9498",
        "weight": "6.734663587186344e-05"
      }
    },
    {
      "type": "Feature",
      "id": "3415",
      "geometry": {
        "type": "Point",
        "coordinates": [
          10.93268,
          17.13006
        ]
      },
      "properties": {
        "label": "Brasofensine",
        "level": 5,
        "pos": "-99549.27606246929,202399.84214127617",
        "src_id": "4579",
        "weight": "5.944838886442493e-05"
      }
    },
    {
      "type": "Feature",
      "id": "8583",
      "geometry": {
        "type": "Point",
        "coordinates": [
          11.100887,
          17.625113
        ]
      },
      "properties": {
        "label": "Prucalopride",
        "level": 5,
        "pos": "-97470.77068701707,208718.8720669199",
        "src_id": "5630",
        "weight": "6.150867327883275e-05"
      }
    },
    {
      "type": "Feature",
      "id": "350",
      "geometry": {
        "type": "Point",
        "coordinates": [
          9.078784,
          16.084382
        ]
      },
      "properties": {
        "label": "Lenalidomide",
        "level": 2,
        "pos": "-122457.63312753335,189107.00201776528",
        "src_id": "469",
        "weight": "0.000459850912954922"
      }
    },
    {
      "type": "Feature",
      "id": "8594",
      "geometry": {
        "type": "Point",
        "coordinates": [
          9.805799,
          16.034496
        ]
      },
      "properties": {
        "label": "Xaliproden",
        "level": 5,
        "pos": "-113474.00171623265,188474.62929034675",
        "src_id": "5576",
        "weight": "2.6352385243545328e-05"
      }
    },
    {
      "type": "Feature",
      "id": "8668",
      "geometry": {
        "type": "Point",
        "coordinates": [
          10.253068,
          16.122834
        ]
      },
      "properties": {
        "label": "Dronedarone",
        "level": 5,
        "pos": "-107947.15754034849,189594.5430361122",
        "src_id": "4577",
        "weight": "4.958312238916663e-05"
      }
    },
    {
      "type": "Feature",
      "id": "8664",
      "geometry": {
        "type": "Point",
        "coordinates": [
          10.101609,
          16.043138
        ]
      },
      "properties": {
        "label": "Olcegepant",
        "level": 5,
        "pos": "-109818.70859674462,188584.1555760508",
        "src_id": "4591",
        "weight": "2.9778802929771694e-05"
      }
    },
    {
      "type": "Feature",
      "id": "8642",
      "geometry": {
        "type": "Point",
        "coordinates": [
          10.104608,
          15.92164
        ]
      },
      "properties": {
        "label": "Prinomastat",
        "level": 5,
        "pos": "-109781.65751233934,187044.59978395363",
        "src_id": "4790",
        "weight": "2.9778802929771694e-05"
      }
    },
    {
      "type": "Feature",
      "id": "8579",
      "geometry": {
        "type": "Point",
        "coordinates": [
          10.374397,
          16.06883
        ]
      },
      "properties": {
        "label": "Resiquimod",
        "level": 5,
        "pos": "-106447.90901870852,188909.83956298744",
        "src_id": "5650",
        "weight": "2.9778802929771694e-05"
      }
    },
    {
      "type": "Feature",
      "id": "2543",
      "geometry": {
        "type": "Point",
        "coordinates": [
          6.941362,
          16.646294
        ]
      },
      "properties": {
        "label": "Amodiaquine",
        "level": 5,
        "pos": "-148869.47340376445,196241.11746484195",
        "src_id": "600",
        "weight": "8.757788832686387e-05"
      }
    },
    {
      "type": "Feature",
      "id": "4976",
      "geometry": {
        "type": "Point",
        "coordinates": [
          8.542187,
          15.687526
        ]
      },
      "properties": {
        "label": "Mecasermin",
        "level": 5,
        "pos": "-129088.29134548506,184080.64407805188",
        "src_id": "1260",
        "weight": "8.554834437645224e-05"
      }
    },
    {
      "type": "Feature",
      "id": "3484",
      "geometry": {
        "type": "Point",
        "coordinates": [
          11.836608,
          15.470985
        ]
      },
      "properties": {
        "label": "Sunitinib",
        "level": 4,
        "pos": "-88379.56243917524,181342.18955284765",
        "src_id": "1251",
        "weight": "0.00014619365088806177"
      }
    },
    {
      "type": "Feature",
      "id": "3587",
      "geometry": {
        "type": "Point",
        "coordinates": [
          13.085975,
          11.932821
        ]
      },
      "properties": {
        "label": "Efavirenz",
        "level": 5,
        "pos": "-72941.30217187041,136970.9060536073",
        "src_id": "612",
        "weight": "0.00010634718571471518"
      }
    },
    {
      "type": "Feature",
      "id": "4790",
      "geometry": {
        "type": "Point",
        "coordinates": [
          10.463992,
          10.735055
        ]
      },
      "properties": {
        "label": "Ivabradine",
        "level": 5,
        "pos": "-105340.79764829493,122089.58457539907",
        "src_id": "8028",
        "weight": "9.004965570710544e-05"
      }
    },
    {
      "type": "Feature",
      "id": "672",
      "geometry": {
        "type": "Point",
        "coordinates": [
          8.172765,
          10.919445
        ]
      },
      "properties": {
        "label": "Tositumomab",
        "level": 3,
        "pos": "-133653.1776403778,124376.4771824521",
        "src_id": "77",
        "weight": "0.0003266421397551695"
      }
    },
    {
      "type": "Feature",
      "id": "3618",
      "geometry": {
        "type": "Point",
        "coordinates": [
          9.534974,
          10.552499
        ]
      },
      "properties": {
        "label": "Treprostinil",
        "level": 4,
        "pos": "-116820.55365104131,119826.81216276217",
        "src_id": "364",
        "weight": "0.00015650572806718887"
      }
    },
    {
      "type": "Feature",
      "id": "5085",
      "geometry": {
        "type": "Point",
        "coordinates": [
          10.6186,
          10.724346
        ]
      },
      "properties": {
        "label": "Linezolid",
        "level": 5,
        "pos": "-103430.32318077516,121956.80705570974",
        "src_id": "588",
        "weight": "7.09933493324461e-05"
      }
    },
    {
      "type": "Feature",
      "id": "5092",
      "geometry": {
        "type": "Point",
        "coordinates": [
          10.370648,
          10.852814
        ]
      },
      "properties": {
        "label": "Tigecycline",
        "level": 5,
        "pos": "-106494.23225113645,123549.9334909661",
        "src_id": "547",
        "weight": "0.00010580157552227034"
      }
    },
    {
      "type": "Feature",
      "id": "1755",
      "geometry": {
        "type": "Point",
        "coordinates": [
          8.603199,
          11.626858
        ]
      },
      "properties": {
        "label": "Tegaserod",
        "level": 3,
        "pos": "-128334.36572537196,133163.5708812114",
        "src_id": "1063",
        "weight": "0.0002724145686329424"
      }
    },
    {
      "type": "Feature",
      "id": "8581",
      "geometry": {
        "type": "Point",
        "coordinates": [
          10.864439,
          10.800842
        ]
      },
      "properties": {
        "label": "Onercept",
        "level": 5,
        "pos": "-100392.5195075842,122905.35018395547",
        "src_id": "5638",
        "weight": "3.949732115734411e-05"
      }
    },
    {
      "type": "Feature",
      "id": "8511",
      "geometry": {
        "type": "Point",
        "coordinates": [
          10.589488,
          11.40677
        ]
      },
      "properties": {
        "label": "Plerixafor",
        "level": 5,
        "pos": "-103790.0596042286,130427.433459725",
        "src_id": "5862",
        "weight": "5.86025919834485e-05"
      }
    },
    {
      "type": "Feature",
      "id": "622",
      "geometry": {
        "type": "Point",
        "coordinates": [
          10.768039,
          10.727886
        ]
      },
      "properties": {
        "label": "Perospirone",
        "level": 4,
        "pos": "-101583.73443400546,122000.69987966024",
        "src_id": "7878",
        "weight": "0.0001522460192602832"
      }
    },
    {
      "type": "Feature",
      "id": "1238",
      "geometry": {
        "type": "Point",
        "coordinates": [
          18.06596,
          17.625652
        ]
      },
      "properties": {
        "label": "Dutasteride",
        "level": 3,
        "pos": "-11404.273253503481,208725.76071561477",
        "src_id": "1110",
        "weight": "0.00034273607192303996"
      }
    },
    {
      "type": "Feature",
      "id": "2590",
      "geometry": {
        "type": "Point",
        "coordinates": [
          18.469374,
          19.146256
        ]
      },
      "properties": {
        "label": "Natalizumab",
        "level": 5,
        "pos": "-6419.335381053128,228246.4325289667",
        "src_id": "101",
        "weight": "0.00012117910562137814"
      }
    },
    {
      "type": "Feature",
      "id": "3588",
      "geometry": {
        "type": "Point",
        "coordinates": [
          15.383696,
          14.467082
        ]
      },
      "properties": {
        "label": "Imatinib",
        "level": 4,
        "pos": "-44548.66186754468,168683.19465647807",
        "src_id": "606",
        "weight": "0.00015167748024478447"
      }
    },
    {
      "type": "Feature",
      "id": "2510",
      "geometry": {
        "type": "Point",
        "coordinates": [
          15.384873,
          14.468061
        ]
      },
      "properties": {
        "label": "Doxorubicin",
        "level": 4,
        "pos": "-44534.10765762108,168695.5031091738",
        "src_id": "983",
        "weight": "0.00012834818937577951"
      }
    },
    {
      "type": "Feature",
      "id": "1222",
      "geometry": {
        "type": "Point",
        "coordinates": [
          18.572535,
          17.793193
        ]
      },
      "properties": {
        "label": "Everolimus",
        "level": 4,
        "pos": "-5144.598691297376,210868.22034643448",
        "src_id": "1523",
        "weight": "0.00020599222699448932"
      }
    },
    {
      "type": "Feature",
      "id": "3646",
      "geometry": {
        "type": "Point",
        "coordinates": [
          11.059298,
          11.457184
        ]
      },
      "properties": {
        "label": "Palifermin",
        "level": 4,
        "pos": "-97984.68059747884,131053.99315832349",
        "src_id": "38",
        "weight": "0.00012664766116999882"
      }
    },
    {
      "type": "Feature",
      "id": "1208",
      "geometry": {
        "type": "Point",
        "coordinates": [
          11.336565,
          11.544225
        ]
      },
      "properties": {
        "label": "Trabectedin",
        "level": 4,
        "pos": "-94558.53418960686,132136.03491674355",
        "src_id": "4799",
        "weight": "0.00020301854050772952"
      }
    },
    {
      "type": "Feature",
      "id": "5135",
      "geometry": {
        "type": "Point",
        "coordinates": [
          11.811437,
          11.329815
        ]
      },
      "properties": {
        "label": "Bexarotene",
        "level": 5,
        "pos": "-88690.59146941852,129471.23146241512",
        "src_id": "298",
        "weight": "6.372446432322638e-05"
      }
    },
    {
      "type": "Feature",
      "id": "3539",
      "geometry": {
        "type": "Point",
        "coordinates": [
          11.548347,
          11.231866
        ]
      },
      "properties": {
        "label": "Bimatoprost",
        "level": 5,
        "pos": "-91941.56103583684,128254.53628658054",
        "src_id": "891",
        "weight": "0.00010561106982513899"
      }
    },
    {
      "type": "Feature",
      "id": "3532",
      "geometry": {
        "type": "Point",
        "coordinates": [
          10.888975,
          11.813458
        ]
      },
      "properties": {
        "label": "Bromfenac",
        "level": 5,
        "pos": "-100089.3368779095,135485.07645043798",
        "src_id": "949",
        "weight": "0.00010267566116096078"
      }
    },
    {
      "type": "Feature",
      "id": "1733",
      "geometry": {
        "type": "Point",
        "coordinates": [
          11.145712,
          11.872398
        ]
      },
      "properties": {
        "label": "Fosamprenavir",
        "level": 4,
        "pos": "-96916.87243833166,136218.6835983578",
        "src_id": "1283",
        "weight": "0.00022242685214031693"
      }
    },
    {
      "type": "Feature",
      "id": "4884",
      "geometry": {
        "type": "Point",
        "coordinates": [
          11.631775,
          11.957741
        ]
      },
      "properties": {
        "label": "Febuxostat",
        "level": 5,
        "pos": "-90910.65318509542,137281.20352104376",
        "src_id": "4576",
        "weight": "7.003220639144285e-05"
      }
    },
    {
      "type": "Feature",
      "id": "4881",
      "geometry": {
        "type": "Point",
        "coordinates": [
          11.674135,
          11.246746
        ]
      },
      "properties": {
        "label": "Galiximab",
        "level": 5,
        "pos": "-90387.22491100302,128439.347543777",
        "src_id": "4623",
        "weight": "8.539826860451375e-05"
      }
    },
    {
      "type": "Feature",
      "id": "4876",
      "geometry": {
        "type": "Point",
        "coordinates": [
          11.533788,
          11.907039
        ]
      },
      "properties": {
        "label": "Oregovomab",
        "level": 5,
        "pos": "-92121.46121527671,136649.92192571706",
        "src_id": "4675",
        "weight": "8.539826860451375e-05"
      }
    },
    {
      "type": "Feature",
      "id": "4856",
      "geometry": {
        "type": "Point",
        "coordinates": [
          11.421987,
          11.320002
        ]
      },
      "properties": {
        "label": "Dalbavancin",
        "level": 5,
        "pos": "-93502.97565820358,129349.31793927419",
        "src_id": "5492",
        "weight": "8.539826860451375e-05"
      }
    },
    {
      "type": "Feature",
      "id": "4851",
      "geometry": {
        "type": "Point",
        "coordinates": [
          9.138479,
          12.378646
        ]
      },
      "properties": {
        "label": "Idraparinux",
        "level": 5,
        "pos": "-121719.97893914118,142526.38533497922",
        "src_id": "5585",
        "weight": "7.609237938904759e-05"
      }
    },
    {
      "type": "Feature",
      "id": "3372",
      "geometry": {
        "type": "Point",
        "coordinates": [
          11.438183,
          11.828422
        ]
      },
      "properties": {
        "label": "Lixivaptan",
        "level": 4,
        "pos": "-93302.83922512806,135671.30873943475",
        "src_id": "5733",
        "weight": "0.0001318276443091638"
      }
    },
    {
      "type": "Feature",
      "id": "4822",
      "geometry": {
        "type": "Point",
        "coordinates": [
          11.822683,
          11.950637
        ]
      },
      "properties": {
        "label": "Ganirelix",
        "level": 5,
        "pos": "-88551.63432722553,137192.74424356406",
        "src_id": "5841",
        "weight": "6.624150021366249e-05"
      }
    },
    {
      "type": "Feature",
      "id": "1810",
      "geometry": {
        "type": "Point",
        "coordinates": [
          13.060819,
          10.016937
        ]
      },
      "properties": {
        "label": "Eszopiclone",
        "level": 4,
        "pos": "-73252.14897959684,113196.1886672186",
        "src_id": "391",
        "weight": "0.00013197061826877732"
      }
    },
    {
      "type": "Feature",
      "id": "882",
      "geometry": {
        "type": "Point",
        "coordinates": [
          15.299816,
          11.376983
        ]
      },
      "properties": {
        "label": "Ranitidine",
        "level": 4,
        "pos": "-45585.14790195841,130057.2800058691",
        "src_id": "849",
        "weight": "0.00020359312323328497"
      }
    },
    {
      "type": "Feature",
      "id": "8833",
      "geometry": {
        "type": "Point",
        "coordinates": [
          15.324777,
          11.42649
        ]
      },
      "properties": {
        "label": "Uridine diphosphate glucose",
        "level": 5,
        "pos": "-45276.70947402102,130672.50033981237",
        "src_id": "1775",
        "weight": "2.8968751914976847e-05"
      }
    },
    {
      "type": "Feature",
      "id": "94",
      "geometry": {
        "type": "Point",
        "coordinates": [
          4.915876,
          14.810052
        ]
      },
      "properties": {
        "label": "Parecoxib",
        "level": 2,
        "pos": "-173898.13748657398,173001.31934155882",
        "src_id": "7436",
        "weight": "0.0004595768140533056"
      }
    },
    {
      "type": "Feature",
      "id": "4705",
      "geometry": {
        "type": "Point",
        "coordinates": [
          4.713552,
          14.196259
        ]
      },
      "properties": {
        "label": "Bryostatin 1",
        "level": 5,
        "pos": "-176398.2276459877,165278.134221387",
        "src_id": "9422",
        "weight": "0.00011272398189261616"
      }
    },
    {
      "type": "Feature",
      "id": "4947",
      "geometry": {
        "type": "Point",
        "coordinates": [
          6.088246,
          14.557184
        ]
      },
      "properties": {
        "label": "Etoricoxib",
        "level": 5,
        "pos": "-159411.30956718145,169816.95870172934",
        "src_id": "1559",
        "weight": "8.441827047019304e-05"
      }
    },
    {
      "type": "Feature",
      "id": "2547",
      "geometry": {
        "type": "Point",
        "coordinates": [
          5.772749,
          14.31052
        ]
      },
      "properties": {
        "label": "Valdecoxib",
        "level": 4,
        "pos": "-163309.87100330202,166714.22610298663",
        "src_id": "567",
        "weight": "0.00015021897403946113"
      }
    },
    {
      "type": "Feature",
      "id": "5022",
      "geometry": {
        "type": "Point",
        "coordinates": [
          6.243518,
          14.490036
        ]
      },
      "properties": {
        "label": "Methyl aminolevulinate",
        "level": 5,
        "pos": "-157492.6368871839,168971.9763038031",
        "src_id": "978",
        "weight": "7.955166316951435e-05"
      }
    },
    {
      "type": "Feature",
      "id": "4874",
      "geometry": {
        "type": "Point",
        "coordinates": [
          6.338195,
          14.378148
        ]
      },
      "properties": {
        "label": "Fenretinide",
        "level": 5,
        "pos": "-156322.72872897852,167564.5663711768",
        "src_id": "4769",
        "weight": "8.152185017864754e-05"
      }
    },
    {
      "type": "Feature",
      "id": "4831",
      "geometry": {
        "type": "Point",
        "coordinates": [
          6.157741,
          14.050516
        ]
      },
      "properties": {
        "label": "Fesoterodine",
        "level": 5,
        "pos": "-158552.56897839205,163447.4012917585",
        "src_id": "5762",
        "weight": "8.152185017864754e-05"
      }
    },
    {
      "type": "Feature",
      "id": "8570",
      "geometry": {
        "type": "Point",
        "coordinates": [
          6.251304,
          14.153397
        ]
      },
      "properties": {
        "label": "Midostaurin",
        "level": 5,
        "pos": "-157396.42909294565,164739.59587544613",
        "src_id": "5686",
        "weight": "6.116427223895208e-05"
      }
    },
    {
      "type": "Feature",
      "id": "2538",
      "geometry": {
        "type": "Point",
        "coordinates": [
          7.03972,
          14.816547
        ]
      },
      "properties": {
        "label": "Methazolamide",
        "level": 4,
        "pos": "-147654.06885390016,173083.163018623",
        "src_id": "689",
        "weight": "0.00017079616744928628"
      }
    },
    {
      "type": "Feature",
      "id": "1230",
      "geometry": {
        "type": "Point",
        "coordinates": [
          7.641996,
          15.142822
        ]
      },
      "properties": {
        "label": "Sitagliptin",
        "level": 4,
        "pos": "-140211.8321995731,177197.56657022244",
        "src_id": "1244",
        "weight": "0.00013315436002590006"
      }
    },
    {
      "type": "Feature",
      "id": "1687",
      "geometry": {
        "type": "Point",
        "coordinates": [
          9.332202,
          14.563014
        ]
      },
      "properties": {
        "label": "Povidone-iodine",
        "level": 5,
        "pos": "-119326.16729106857,169890.3283035185",
        "src_id": "5865",
        "weight": "9.975753940511469e-05"
      }
    },
    {
      "type": "Feature",
      "id": "4710",
      "geometry": {
        "type": "Point",
        "coordinates": [
          9.106482,
          14.560239
        ]
      },
      "properties": {
        "label": "Indium",
        "level": 5,
        "pos": "-122115.3711929664,169855.4110836556",
        "src_id": "9331",
        "weight": "4.735307976204157e-05"
      }
    },
    {
      "type": "Feature",
      "id": "3436",
      "geometry": {
        "type": "Point",
        "coordinates": [
          9.144692,
          13.587193
        ]
      },
      "properties": {
        "label": "Propyl alcohol",
        "level": 5,
        "pos": "-121643.21146468243,157635.07932106682",
        "src_id": "2996",
        "weight": "8.224716621436833e-05"
      }
    },
    {
      "type": "Feature",
      "id": "4839",
      "geometry": {
        "type": "Point",
        "coordinates": [
          11.154259,
          14.138442
        ]
      },
      "properties": {
        "label": "Pegsunercept",
        "level": 5,
        "pos": "-96811.26131031224,164551.73044501996",
        "src_id": "5699",
        "weight": "8.835162435004404e-05"
      }
    },
    {
      "type": "Feature",
      "id": "3622",
      "geometry": {
        "type": "Point",
        "coordinates": [
          11.434962,
          13.303451
        ]
      },
      "properties": {
        "label": "Flucloxacillin",
        "level": 4,
        "pos": "-93342.64048694247,154081.20817673186",
        "src_id": "292",
        "weight": "0.00014298449741086155"
      }
    },
    {
      "type": "Feature",
      "id": "8173",
      "geometry": {
        "type": "Point",
        "coordinates": [
          11.285069,
          13.747928
        ]
      },
      "properties": {
        "label": "Entinostat",
        "level": 5,
        "pos": "-95194.85403738501,159650.17243971737",
        "src_id": "9510",
        "weight": "3.874700736497488e-05"
      }
    },
    {
      "type": "Feature",
      "id": "3336",
      "geometry": {
        "type": "Point",
        "coordinates": [
          11.753442,
          13.893353
        ]
      },
      "properties": {
        "label": "Toloxatone",
        "level": 5,
        "pos": "-89407.23196415798,161474.50634550294",
        "src_id": "8185",
        "weight": "9.823247135082055e-05"
      }
    },
    {
      "type": "Feature",
      "id": "2282",
      "geometry": {
        "type": "Point",
        "coordinates": [
          12.435754,
          14.176768
        ]
      },
      "properties": {
        "label": "Acute lung injury",
        "level": 4,
        "pos": "-80975.98571038422,165033.2259260702",
        "src_id": "169753",
        "weight": "0.0001803302455734836"
      }
    },
    {
      "type": "Feature",
      "id": "2461",
      "geometry": {
        "type": "Point",
        "coordinates": [
          10.465413,
          11.35639
        ]
      },
      "properties": {
        "label": "Brivudine",
        "level": 4,
        "pos": "-105323.23052567347,129801.40932937621",
        "src_id": "3128",
        "weight": "0.00012564777051257787"
      }
    },
    {
      "type": "Feature",
      "id": "77",
      "geometry": {
        "type": "Point",
        "coordinates": [
          7.068232,
          10.986171
        ]
      },
      "properties": {
        "label": "Aprepitant",
        "level": 1,
        "pos": "-147301.74505861427,125204.40380961544",
        "src_id": "659",
        "weight": "0.0006178451975698707"
      }
    },
    {
      "type": "Feature",
      "id": "863",
      "geometry": {
        "type": "Point",
        "coordinates": [
          7.865764,
          10.706029
        ]
      },
      "properties": {
        "label": "Drospirenone",
        "level": 4,
        "pos": "-137446.7589919323,121729.7203337241",
        "src_id": "1340",
        "weight": "0.00013780980746302116"
      }
    },
    {
      "type": "Feature",
      "id": "1729",
      "geometry": {
        "type": "Point",
        "coordinates": [
          6.839596,
          10.439549
        ]
      },
      "properties": {
        "label": "Ciclesonide",
        "level": 4,
        "pos": "-150126.98446890825,118427.46739246103",
        "src_id": "1353",
        "weight": "0.0001731469113677049"
      }
    },
    {
      "type": "Feature",
      "id": "3400",
      "geometry": {
        "type": "Point",
        "coordinates": [
          7.958447,
          11.210433
        ]
      },
      "properties": {
        "label": "Iodine",
        "level": 5,
        "pos": "-136301.4911482006,127988.35892316984",
        "src_id": "5012",
        "weight": "4.4737023635549195e-05"
      }
    },
    {
      "type": "Feature",
      "id": "1188",
      "geometry": {
        "type": "Point",
        "coordinates": [
          7.870113,
          10.514314
        ]
      },
      "properties": {
        "label": "Dimethyl fumarate",
        "level": 5,
        "pos": "-137393.0050910987,119353.67924697186",
        "src_id": "7867",
        "weight": "0.00010521177034520847"
      }
    },
    {
      "type": "Feature",
      "id": "1159",
      "geometry": {
        "type": "Point",
        "coordinates": [
          6.127076,
          10.76749
        ]
      },
      "properties": {
        "label": "Pazufloxacin",
        "level": 4,
        "pos": "-158931.493360937,122491.75712144682",
        "src_id": "9444",
        "weight": "0.00015901110686165649"
      }
    },
    {
      "type": "Feature",
      "id": "3624",
      "geometry": {
        "type": "Point",
        "coordinates": [
          7.371678,
          10.002811
        ]
      },
      "properties": {
        "label": "Etonogestrel",
        "level": 4,
        "pos": "-143552.10994080335,113021.44875398777",
        "src_id": "285",
        "weight": "0.00017087955237593961"
      }
    },
    {
      "type": "Feature",
      "id": "1697",
      "geometry": {
        "type": "Point",
        "coordinates": [
          5.499244,
          12.789169
        ]
      },
      "properties": {
        "label": "Lonafarnib",
        "level": 4,
        "pos": "-166689.52617219556,147650.36036236753",
        "src_id": "5610",
        "weight": "0.00017752496578234245"
      }
    },
    {
      "type": "Feature",
      "id": "4977",
      "geometry": {
        "type": "Point",
        "coordinates": [
          8.363127,
          11.542002
        ]
      },
      "properties": {
        "label": "Ranibizumab",
        "level": 5,
        "pos": "-131300.90585886355,132108.37905060366",
        "src_id": "1253",
        "weight": "7.193592153239254e-05"
      }
    },
    {
      "type": "Feature",
      "id": "3653",
      "geometry": {
        "type": "Point",
        "coordinates": [
          11.06072,
          24.968898
        ]
      },
      "properties": {
        "label": "Denileukin diftitox",
        "level": 5,
        "pos": "-97967.09899863688,304821.47758728056",
        "src_id": "4",
        "weight": "6.173813601964199e-05"
      }
    },
    {
      "type": "Feature",
      "id": "5",
      "geometry": {
        "type": "Point",
        "coordinates": [
          11.344097,
          25.1253
        ]
      },
      "properties": {
        "label": "Botulinum Toxin Type B",
        "level": 1,
        "pos": "-94465.45123761022,306924.4892244528",
        "src_id": "41",
        "weight": "0.0017680976760879523"
      }
    },
    {
      "type": "Feature",
      "id": "826",
      "geometry": {
        "type": "Point",
        "coordinates": [
          10.930831,
          24.890042
        ]
      },
      "properties": {
        "label": "Benserazide",
        "level": 4,
        "pos": "-99572.11979976778,303762.17551122664",
        "src_id": "10420",
        "weight": "0.00012417163885685033"
      }
    },
    {
      "type": "Feature",
      "id": "9",
      "geometry": {
        "type": "Point",
        "coordinates": [
          12.130079,
          25.603671
        ]
      },
      "properties": {
        "label": "Fondaparinux sodium",
        "level": 1,
        "pos": "-84753.17823988669,313373.5775757719",
        "src_id": "556",
        "weight": "0.0016358911710639495"
      }
    },
    {
      "type": "Feature",
      "id": "3399",
      "geometry": {
        "type": "Point",
        "coordinates": [
          11.109699,
          24.998614
        ]
      },
      "properties": {
        "label": "gallium maltolate",
        "level": 5,
        "pos": "-97361.87650148015,305220.8518549444",
        "src_id": "5046",
        "weight": "6.582915467494676e-05"
      }
    },
    {
      "type": "Feature",
      "id": "3388",
      "geometry": {
        "type": "Point",
        "coordinates": [
          11.525461,
          24.797965
        ]
      },
      "properties": {
        "label": "Exisulind",
        "level": 5,
        "pos": "-92224.3637947206,302526.1404076331",
        "src_id": "5508",
        "weight": "6.582915467494676e-05"
      }
    },
    {
      "type": "Feature",
      "id": "3383",
      "geometry": {
        "type": "Point",
        "coordinates": [
          11.643276,
          25.026172
        ]
      },
      "properties": {
        "label": "Repifermin",
        "level": 5,
        "pos": "-90768.54126298544,305591.29082035425",
        "src_id": "5599",
        "weight": "6.582915467494676e-05"
      }
    },
    {
      "type": "Feature",
      "id": "3599",
      "geometry": {
        "type": "Point",
        "coordinates": [
          11.110685,
          24.986505
        ]
      },
      "properties": {
        "label": "Zanamivir",
        "level": 5,
        "pos": "-97349.70329228524,305058.09651134827",
        "src_id": "545",
        "weight": "6.173813601964199e-05"
      }
    },
    {
      "type": "Feature",
      "id": "885",
      "geometry": {
        "type": "Point",
        "coordinates": [
          11.200965,
          22.283213
        ]
      },
      "properties": {
        "label": "Imiquimod",
        "level": 4,
        "pos": "-96234.11187547869,269107.5987333789",
        "src_id": "710",
        "weight": "0.0002258577975625458"
      }
    },
    {
      "type": "Feature",
      "id": "4894",
      "geometry": {
        "type": "Point",
        "coordinates": [
          11.429526,
          24.820432
        ]
      },
      "properties": {
        "label": "Licofelone",
        "level": 5,
        "pos": "-93409.81931295845,302827.6478468873",
        "src_id": "4449",
        "weight": "7.556014543455843e-05"
      }
    },
    {
      "type": "Feature",
      "id": "8669",
      "geometry": {
        "type": "Point",
        "coordinates": [
          11.486922,
          24.825619
        ]
      },
      "properties": {
        "label": "Binodenoson",
        "level": 5,
        "pos": "-92700.58026660903,302897.26698128175",
        "src_id": "4575",
        "weight": "4.5723005994057677e-05"
      }
    },
    {
      "type": "Feature",
      "id": "4879",
      "geometry": {
        "type": "Point",
        "coordinates": [
          10.820215,
          23.91908
        ]
      },
      "properties": {
        "label": "Ospemifene",
        "level": 5,
        "pos": "-100938.99407203676,290773.47608816024",
        "src_id": "4652",
        "weight": "8.164997005201981e-05"
      }
    },
    {
      "type": "Feature",
      "id": "8648",
      "geometry": {
        "type": "Point",
        "coordinates": [
          11.673437,
          24.954946
        ]
      },
      "properties": {
        "label": "Troxacitabine",
        "level": 5,
        "pos": "-90395.83857750139,304634.01041527826",
        "src_id": "4672",
        "weight": "6.028972134145543e-05"
      }
    },
    {
      "type": "Feature",
      "id": "4866",
      "geometry": {
        "type": "Point",
        "coordinates": [
          11.180648,
          24.85928
        ]
      },
      "properties": {
        "label": "Ciluprevir",
        "level": 5,
        "pos": "-96485.174149436,303349.1280705998",
        "src_id": "5317",
        "weight": "8.164997005201981e-05"
      }
    },
    {
      "type": "Feature",
      "id": "847",
      "geometry": {
        "type": "Point",
        "coordinates": [
          11.521181,
          25.240675
        ]
      },
      "properties": {
        "label": "Lanoteplase",
        "level": 4,
        "pos": "-92277.24739703268,308477.5655137315",
        "src_id": "5507",
        "weight": "0.0002258577975625458"
      }
    },
    {
      "type": "Feature",
      "id": "8602",
      "geometry": {
        "type": "Point",
        "coordinates": [
          11.610808,
          24.846039
        ]
      },
      "properties": {
        "label": "Arzoxifene",
        "level": 5,
        "pos": "-91169.73534798338,303171.36924874433",
        "src_id": "5511",
        "weight": "6.028972134145543e-05"
      }
    },
    {
      "type": "Feature",
      "id": "3380",
      "geometry": {
        "type": "Point",
        "coordinates": [
          11.643784,
          24.896741
        ]
      },
      "properties": {
        "label": "Enrasentan",
        "level": 5,
        "pos": "-90762.25515202762,303852.14779459103",
        "src_id": "5618",
        "weight": "6.173813601964199e-05"
      }
    },
    {
      "type": "Feature",
      "id": "4809",
      "geometry": {
        "type": "Point",
        "coordinates": [
          11.366199,
          24.815485
        ]
      },
      "properties": {
        "label": "Belimumab",
        "level": 5,
        "pos": "-94192.34491033926,302761.26368442865",
        "src_id": "7838",
        "weight": "4.911341606807983e-05"
      }
    },
    {
      "type": "Feature",
      "id": "3338",
      "geometry": {
        "type": "Point",
        "coordinates": [
          11.254383,
          24.830546
        ]
      },
      "properties": {
        "label": "Benidipine",
        "level": 5,
        "pos": "-95574.04295433339,302963.4024178637",
        "src_id": "8171",
        "weight": "6.173813601964199e-05"
      }
    },
    {
      "type": "Feature",
      "id": "3337",
      "geometry": {
        "type": "Point",
        "coordinates": [
          11.59889,
          25.15627
        ]
      },
      "properties": {
        "label": "Manidipine",
        "level": 5,
        "pos": "-91317.0086659607,307341.2398900599",
        "src_id": "8178",
        "weight": "6.173813601964199e-05"
      }
    },
    {
      "type": "Feature",
      "id": "3273",
      "geometry": {
        "type": "Point",
        "coordinates": [
          11.703038,
          25.072353
        ]
      },
      "properties": {
        "label": "Mizolastine",
        "level": 5,
        "pos": "-90030.0618048125,306212.26335821126",
        "src_id": "10171",
        "weight": "6.173813601964199e-05"
      }
    },
    {
      "type": "Feature",
      "id": "8015",
      "geometry": {
        "type": "Point",
        "coordinates": [
          11.179092,
          24.905153
        ]
      },
      "properties": {
        "label": "Estradiol acetate",
        "level": 5,
        "pos": "-96504.40357664191,303965.1300347962",
        "src_id": "10984",
        "weight": "4.5723005994057677e-05"
      }
    },
    {
      "type": "Feature",
      "id": "5314",
      "geometry": {
        "type": "Point",
        "coordinates": [
          10.76445,
          24.754269
        ]
      },
      "properties": {
        "label": "Cryptotympana",
        "level": 5,
        "pos": "-101628.07529658217,301939.8882814703",
        "src_id": "240190",
        "weight": "3.1146678435637025e-05"
      }
    },
    {
      "type": "Feature",
      "id": "55",
      "geometry": {
        "type": "Point",
        "coordinates": [
          13.225754,
          24.249287
        ]
      },
      "properties": {
        "label": "Telithromycin",
        "level": 1,
        "pos": "-71214.07417299421,295179.5406341035",
        "src_id": "962",
        "weight": "0.0008744693749667707"
      }
    },
    {
      "type": "Feature",
      "id": "2601",
      "geometry": {
        "type": "Point",
        "coordinates": [
          12.121814,
          25.346339
        ]
      },
      "properties": {
        "label": "Reteplase",
        "level": 5,
        "pos": "-84855.30498518891,309901.2176087833",
        "src_id": "15",
        "weight": "7.498023757137534e-05"
      }
    },
    {
      "type": "Feature",
      "id": "9118",
      "geometry": {
        "type": "Point",
        "coordinates": [
          12.331758,
          25.870852
        ]
      },
      "properties": {
        "label": "Insulin Human",
        "level": 5,
        "pos": "-82261.05602048872,316986.7487400009",
        "src_id": "30",
        "weight": "6.946344693465893e-05"
      }
    },
    {
      "type": "Feature",
      "id": "354",
      "geometry": {
        "type": "Point",
        "coordinates": [
          11.720834,
          25.848857
        ]
      },
      "properties": {
        "label": "Drotrecogin alfa",
        "level": 2,
        "pos": "-89810.16323271998,316688.99016824766",
        "src_id": "54",
        "weight": "0.0004170313071272185"
      }
    },
    {
      "type": "Feature",
      "id": "2562",
      "geometry": {
        "type": "Point",
        "coordinates": [
          12.217519,
          25.87344
        ]
      },
      "properties": {
        "label": "Dexrazoxane",
        "level": 5,
        "pos": "-83672.69418107676,317021.7782083024",
        "src_id": "370",
        "weight": "7.498023757137534e-05"
      }
    },
    {
      "type": "Feature",
      "id": "5114",
      "geometry": {
        "type": "Point",
        "coordinates": [
          11.968788,
          25.861561
        ]
      },
      "properties": {
        "label": "Cerivastatin",
        "level": 5,
        "pos": "-86746.22736967244,316860.95953033667",
        "src_id": "428",
        "weight": "7.305638896722559e-05"
      }
    },
    {
      "type": "Feature",
      "id": "2524",
      "geometry": {
        "type": "Point",
        "coordinates": [
          11.90328,
          25.858771
        ]
      },
      "properties": {
        "label": "Clofazimine",
        "level": 5,
        "pos": "-87555.69675115062,316823.20075365563",
        "src_id": "831",
        "weight": "7.606690841652016e-05"
      }
    },
    {
      "type": "Feature",
      "id": "2451",
      "geometry": {
        "type": "Point",
        "coordinates": [
          11.98954,
          25.381439
        ]
      },
      "properties": {
        "label": "Seocalcitol",
        "level": 5,
        "pos": "-86489.79801083505,310374.4110404708",
        "src_id": "4013",
        "weight": "7.606690841652016e-05"
      }
    },
    {
      "type": "Feature",
      "id": "3413",
      "geometry": {
        "type": "Point",
        "coordinates": [
          12.364608,
          25.418948
        ]
      },
      "properties": {
        "label": "Picoplatin",
        "level": 5,
        "pos": "-81855.13203919315,310880.2306585269",
        "src_id": "4596",
        "weight": "6.076997261599327e-05"
      }
    },
    {
      "type": "Feature",
      "id": "2444",
      "geometry": {
        "type": "Point",
        "coordinates": [
          12.431177,
          25.501855
        ]
      },
      "properties": {
        "label": "Oritavancin",
        "level": 5,
        "pos": "-81032.54660031028,311998.82009429496",
        "src_id": "4631",
        "weight": "7.759064694981998e-05"
      }
    },
    {
      "type": "Feature",
      "id": "4880",
      "geometry": {
        "type": "Point",
        "coordinates": [
          12.476363,
          25.527799
        ]
      },
      "properties": {
        "label": "Ceftobiprole",
        "level": 5,
        "pos": "-80474.19251753403,312349.00573708286",
        "src_id": "4636",
        "weight": "4.489104334582647e-05"
      }
    },
    {
      "type": "Feature",
      "id": "2443",
      "geometry": {
        "type": "Point",
        "coordinates": [
          11.732867,
          25.66314
        ]
      },
      "properties": {
        "label": "Clevidipine",
        "level": 5,
        "pos": "-89661.46570390396,314177.09572556266",
        "src_id": "4638",
        "weight": "8.785936240467434e-05"
      }
    },
    {
      "type": "Feature",
      "id": "2434",
      "geometry": {
        "type": "Point",
        "coordinates": [
          11.671051,
          25.721399
        ]
      },
      "properties": {
        "label": "Asimadoline",
        "level": 5,
        "pos": "-90425.32551577807,314964.65468404925",
        "src_id": "4794",
        "weight": "0.00011609785241913792"
      }
    },
    {
      "type": "Feature",
      "id": "3402",
      "geometry": {
        "type": "Point",
        "coordinates": [
          12.507298,
          25.557204
        ]
      },
      "properties": {
        "label": "Paclitaxel docosahexaenoic acid",
        "level": 5,
        "pos": "-80091.9289828313,312746.0206829596",
        "src_id": "4953",
        "weight": "6.076997261599327e-05"
      }
    },
    {
      "type": "Feature",
      "id": "2432",
      "geometry": {
        "type": "Point",
        "coordinates": [
          12.381428,
          25.879011
        ]
      },
      "properties": {
        "label": "Pradefovir Mesylate",
        "level": 5,
        "pos": "-81647.29289625585,317097.2133720125",
        "src_id": "5100",
        "weight": "7.606690841652016e-05"
      }
    },
    {
      "type": "Feature",
      "id": "2430",
      "geometry": {
        "type": "Point",
        "coordinates": [
          12.249968,
          25.874387
        ]
      },
      "properties": {
        "label": "Oglufanide",
        "level": 5,
        "pos": "-83271.72292194366,317034.6089879971",
        "src_id": "5243",
        "weight": "7.606690841652016e-05"
      }
    },
    {
      "type": "Feature",
      "id": "629",
      "geometry": {
        "type": "Point",
        "coordinates": [
          11.809265,
          25.408274
        ]
      },
      "properties": {
        "label": "Rimonabant",
        "level": 4,
        "pos": "-88717.43159291691,310736.28126385703",
        "src_id": "5443",
        "weight": "0.00021510377213365776"
      }
    },
    {
      "type": "Feature",
      "id": "3392",
      "geometry": {
        "type": "Point",
        "coordinates": [
          12.53023,
          25.658932
        ]
      },
      "properties": {
        "label": "Pixantrone",
        "level": 5,
        "pos": "-79808.56204582952,314120.2331999015",
        "src_id": "5468",
        "weight": "0.000104656874571284"
      }
    },
    {
      "type": "Feature",
      "id": "2421",
      "geometry": {
        "type": "Point",
        "coordinates": [
          11.734552,
          25.594759
        ]
      },
      "properties": {
        "label": "Bimosiamose",
        "level": 5,
        "pos": "-89640.64799131114,313253.2040326533",
        "src_id": "5472",
        "weight": "7.759064694981998e-05"
      }
    },
    {
      "type": "Feature",
      "id": "2417",
      "geometry": {
        "type": "Point",
        "coordinates": [
          12.499801,
          25.835308
        ]
      },
      "properties": {
        "label": "Ferumoxytol",
        "level": 5,
        "pos": "-80184.57272809638,316505.6086357153",
        "src_id": "5488",
        "weight": "8.109332118000062e-05"
      }
    },
    {
      "type": "Feature",
      "id": "2413",
      "geometry": {
        "type": "Point",
        "coordinates": [
          12.082641,
          25.868853
        ]
      },
      "properties": {
        "label": "Maribavir",
        "level": 5,
        "pos": "-85339.36472662838,316959.6867315211",
        "src_id": "5499",
        "weight": "7.606690841652016e-05"
      }
    },
    {
      "type": "Feature",
      "id": "2410",
      "geometry": {
        "type": "Point",
        "coordinates": [
          12.457318,
          25.872207
        ]
      },
      "properties": {
        "label": "Alvimopan",
        "level": 5,
        "pos": "-80709.53106266995,317005.088414073",
        "src_id": "5529",
        "weight": "7.606690841652016e-05"
      }
    },
    {
      "type": "Feature",
      "id": "2409",
      "geometry": {
        "type": "Point",
        "coordinates": [
          12.415243,
          25.87788
        ]
      },
      "properties": {
        "label": "Tanomastat",
        "level": 5,
        "pos": "-81229.4392237494,317081.89518064895",
        "src_id": "5530",
        "weight": "7.498023757137534e-05"
      }
    },
    {
      "type": "Feature",
      "id": "2405",
      "geometry": {
        "type": "Point",
        "coordinates": [
          11.822562,
          25.852898
        ]
      },
      "properties": {
        "label": "Semaxanib",
        "level": 5,
        "pos": "-88553.11759173231,316743.70388684934",
        "src_id": "5601",
        "weight": "7.498023757137534e-05"
      }
    },
    {
      "type": "Feature",
      "id": "2404",
      "geometry": {
        "type": "Point",
        "coordinates": [
          12.111138,
          25.870654
        ]
      },
      "properties": {
        "label": "Ravuconazole",
        "level": 5,
        "pos": "-84987.23163976117,316984.05521997943",
        "src_id": "5604",
        "weight": "7.498023757137534e-05"
      }
    },
    {
      "type": "Feature",
      "id": "2403",
      "geometry": {
        "type": "Point",
        "coordinates": [
          12.157001,
          25.382975
        ]
      },
      "properties": {
        "label": "Diethylnorspermine",
        "level": 5,
        "pos": "-84420.51028845052,310395.11639063474",
        "src_id": "5608",
        "weight": "7.759064694981998e-05"
      }
    },
    {
      "type": "Feature",
      "id": "3381",
      "geometry": {
        "type": "Point",
        "coordinates": [
          12.524017,
          25.769558
        ]
      },
      "properties": {
        "label": "Meclinertant",
        "level": 5,
        "pos": "-79885.33674069525,315615.95694024995",
        "src_id": "5615",
        "weight": "6.076997261599327e-05"
      }
    },
    {
      "type": "Feature",
      "id": "2402",
      "geometry": {
        "type": "Point",
        "coordinates": [
          11.937341,
          25.860648
        ]
      },
      "properties": {
        "label": "Cariporide",
        "level": 5,
        "pos": "-87134.81515253503,316848.6126963939",
        "src_id": "5621",
        "weight": "7.759064694981998e-05"
      }
    },
    {
      "type": "Feature",
      "id": "3376",
      "geometry": {
        "type": "Point",
        "coordinates": [
          12.275221,
          25.872902
        ]
      },
      "properties": {
        "label": "Bivatuzumab",
        "level": 5,
        "pos": "-82959.67857417486,317014.5026967735",
        "src_id": "5661",
        "weight": "6.076997261599327e-05"
      }
    },
    {
      "type": "Feature",
      "id": "3374",
      "geometry": {
        "type": "Point",
        "coordinates": [
          12.074832,
          25.33464
        ]
      },
      "properties": {
        "label": "Rostaporfin",
        "level": 5,
        "pos": "-85435.85848419263,309743.538277258",
        "src_id": "5729",
        "weight": "6.076997261599327e-05"
      }
    },
    {
      "type": "Feature",
      "id": "4828",
      "geometry": {
        "type": "Point",
        "coordinates": [
          12.177287,
          25.871416
        ]
      },
      "properties": {
        "label": "Fospropofol",
        "level": 5,
        "pos": "-84169.83075232976,316994.3800420791",
        "src_id": "5776",
        "weight": "4.489104334582647e-05"
      }
    },
    {
      "type": "Feature",
      "id": "3356",
      "geometry": {
        "type": "Point",
        "coordinates": [
          11.746034,
          25.780226
        ]
      },
      "properties": {
        "label": "Radium Ra 223 Dichloride",
        "level": 5,
        "pos": "-89498.77328631883,315760.2825699342",
        "src_id": "7872",
        "weight": "6.076997261599327e-05"
      }
    },
    {
      "type": "Feature",
      "id": "4711",
      "geometry": {
        "type": "Point",
        "coordinates": [
          11.859513,
          25.85479
        ]
      },
      "properties": {
        "label": "Incyclinide",
        "level": 5,
        "pos": "-88096.53417582934,316769.30632040795",
        "src_id": "9319",
        "weight": "4.489104334582647e-05"
      }
    },
    {
      "type": "Feature",
      "id": "3291",
      "geometry": {
        "type": "Point",
        "coordinates": [
          12.305444,
          25.874482
        ]
      },
      "properties": {
        "label": "Ortataxel",
        "level": 5,
        "pos": "-82586.20559152916,317035.8857714442",
        "src_id": "9341",
        "weight": "6.076997261599327e-05"
      }
    },
    {
      "type": "Feature",
      "id": "3286",
      "geometry": {
        "type": "Point",
        "coordinates": [
          12.044046,
          25.866041
        ]
      },
      "properties": {
        "label": "Mafosfamide",
        "level": 5,
        "pos": "-85816.27060344306,316921.6137524702",
        "src_id": "9747",
        "weight": "6.076997261599327e-05"
      }
    },
    {
      "type": "Feature",
      "id": "3283",
      "geometry": {
        "type": "Point",
        "coordinates": [
          12.219249,
          25.373067
        ]
      },
      "properties": {
        "label": "Exatecan",
        "level": 5,
        "pos": "-83651.32345247314,310261.5438868618",
        "src_id": "9845",
        "weight": "6.076997261599327e-05"
      }
    },
    {
      "type": "Feature",
      "id": "2313",
      "geometry": {
        "type": "Point",
        "coordinates": [
          12.272588,
          25.382949
        ]
      },
      "properties": {
        "label": "Bizelesin",
        "level": 5,
        "pos": "-82992.21097993865,310394.7841905711",
        "src_id": "10008",
        "weight": "7.759064694981998e-05"
      }
    },
    {
      "type": "Feature",
      "id": "4688",
      "geometry": {
        "type": "Point",
        "coordinates": [
          12.578484,
          25.686285
        ]
      },
      "properties": {
        "label": "Soblidotin",
        "level": 5,
        "pos": "-79212.28970749713,314489.9210725564",
        "src_id": "10317",
        "weight": "7.305638896722559e-05"
      }
    },
    {
      "type": "Feature",
      "id": "4686",
      "geometry": {
        "type": "Point",
        "coordinates": [
          12.38858,
          25.47293
        ]
      },
      "properties": {
        "label": "Bucindolol",
        "level": 5,
        "pos": "-81558.91315167613,311608.4742615228",
        "src_id": "10390",
        "weight": "4.489104334582647e-05"
      }
    },
    {
      "type": "Feature",
      "id": "2307",
      "geometry": {
        "type": "Point",
        "coordinates": [
          12.147389,
          25.872222
        ]
      },
      "properties": {
        "label": "Amithiozone",
        "level": 5,
        "pos": "-84539.28152066313,317005.29357181676",
        "src_id": "10462",
        "weight": "7.606690841652016e-05"
      }
    },
    {
      "type": "Feature",
      "id": "4682",
      "geometry": {
        "type": "Point",
        "coordinates": [
          12.48899,
          25.745804
        ]
      },
      "properties": {
        "label": "Urocortin-2",
        "level": 5,
        "pos": "-80318.15822084063,315294.6780202992",
        "src_id": "10660",
        "weight": "7.305638896722559e-05"
      }
    },
    {
      "type": "Feature",
      "id": "2289",
      "geometry": {
        "type": "Point",
        "coordinates": [
          12.489247,
          25.636924
        ]
      },
      "properties": {
        "label": "Valopicitabine",
        "level": 5,
        "pos": "-80314.9932970388,313822.8193281027",
        "src_id": "10955",
        "weight": "7.606690841652016e-05"
      }
    },
    {
      "type": "Feature",
      "id": "1813",
      "geometry": {
        "type": "Point",
        "coordinates": [
          10.767042,
          24.795659
        ]
      },
      "properties": {
        "label": "Zoledronic acid",
        "level": 4,
        "pos": "-101596.03940761792,302495.2044996642",
        "src_id": "388",
        "weight": "0.00020036407042785785"
      }
    },
    {
      "type": "Feature",
      "id": "8641",
      "geometry": {
        "type": "Point",
        "coordinates": [
          12.000916,
          25.864303
        ]
      },
      "properties": {
        "label": "Pleconaril",
        "level": 5,
        "pos": "-86349.22505919011,316898.08758378203",
        "src_id": "4795",
        "weight": "5.36664394942399e-05"
      }
    },
    {
      "type": "Feature",
      "id": "3387",
      "geometry": {
        "type": "Point",
        "coordinates": [
          11.289017,
          25.832714
        ]
      },
      "properties": {
        "label": "Sitaxentan",
        "level": 4,
        "pos": "-95146.06869823649,316470.49861128646",
        "src_id": "5524",
        "weight": "0.00016868809189648362"
      }
    },
    {
      "type": "Feature",
      "id": "2393",
      "geometry": {
        "type": "Point",
        "coordinates": [
          11.944579,
          25.488415
        ]
      },
      "properties": {
        "label": "Lanthanum carbonate",
        "level": 4,
        "pos": "-87045.37632021657,311817.4271583379",
        "src_id": "5847",
        "weight": "0.00020131205324331214"
      }
    },
    {
      "type": "Feature",
      "id": "2592",
      "geometry": {
        "type": "Point",
        "coordinates": [
          10.906609,
          23.612845
        ]
      },
      "properties": {
        "label": "Filgrastim",
        "level": 4,
        "pos": "-99871.4393997954,286697.35181252786",
        "src_id": "93",
        "weight": "0.00013152670802568493"
      }
    },
    {
      "type": "Feature",
      "id": "1781",
      "geometry": {
        "type": "Point",
        "coordinates": [
          10.149549,
          20.443007
        ]
      },
      "properties": {
        "label": "Clavulanate",
        "level": 4,
        "pos": "-109226.3303805214,245035.52085853738",
        "src_id": "752",
        "weight": "0.00020689491733573263"
      }
    },
    {
      "type": "Feature",
      "id": "5023",
      "geometry": {
        "type": "Point",
        "coordinates": [
          10.94808,
          23.058684
        ]
      },
      "properties": {
        "label": "Cytarabine",
        "level": 5,
        "pos": "-99358.97924683096,279345.29368721484",
        "src_id": "973",
        "weight": "4.750900700932336e-05"
      }
    },
    {
      "type": "Feature",
      "id": "460",
      "geometry": {
        "type": "Point",
        "coordinates": [
          10.638422,
          21.301522
        ]
      },
      "properties": {
        "label": "Enoxaparin",
        "level": 3,
        "pos": "-103185.3924602881,256228.33235123643",
        "src_id": "1209",
        "weight": "0.0002513218050073167"
      }
    },
    {
      "type": "Feature",
      "id": "212",
      "geometry": {
        "type": "Point",
        "coordinates": [
          10.703704,
          21.918052
        ]
      },
      "properties": {
        "label": "Astemizole",
        "level": 2,
        "pos": "-102378.69951798541,264306.5459969367",
        "src_id": "624",
        "weight": "0.00045234406969459827"
      }
    },
    {
      "type": "Feature",
      "id": "873",
      "geometry": {
        "type": "Point",
        "coordinates": [
          12.200972,
          24.054618
        ]
      },
      "properties": {
        "label": "Ezetimibe",
        "level": 2,
        "pos": "-83877.15623578364,292580.6349616986",
        "src_id": "959",
        "weight": "0.0004708845441895946"
      }
    },
    {
      "type": "Feature",
      "id": "107",
      "geometry": {
        "type": "Point",
        "coordinates": [
          13.460424,
          24.110381
        ]
      },
      "properties": {
        "label": "Levocetirizine",
        "level": 2,
        "pos": "-68314.27701417042,293324.69003942574",
        "src_id": "5533",
        "weight": "0.00047019661208850237"
      }
    },
    {
      "type": "Feature",
      "id": "2302",
      "geometry": {
        "type": "Point",
        "coordinates": [
          13.106228,
          24.965844
        ]
      },
      "properties": {
        "label": "Tucaresol",
        "level": 5,
        "pos": "-72691.02502862932,304780.4355196902",
        "src_id": "10654",
        "weight": "0.00011396494036492179"
      }
    },
    {
      "type": "Feature",
      "id": "2570",
      "geometry": {
        "type": "Point",
        "coordinates": [
          12.735883,
          24.855818
        ]
      },
      "properties": {
        "label": "Ertapenem",
        "level": 5,
        "pos": "-77267.34218431942,303302.65252794843",
        "src_id": "294",
        "weight": "0.00012346336312706776"
      }
    },
    {
      "type": "Feature",
      "id": "2317",
      "geometry": {
        "type": "Point",
        "coordinates": [
          13.814513,
          24.806384
        ]
      },
      "properties": {
        "label": "Lurtotecan",
        "level": 4,
        "pos": "-63938.848011255825,302639.1190078745",
        "src_id": "9880",
        "weight": "0.00017448811040476916"
      }
    },
    {
      "type": "Feature",
      "id": "3619",
      "geometry": {
        "type": "Point",
        "coordinates": [
          13.028095,
          24.211622
        ]
      },
      "properties": {
        "label": "Anidulafungin",
        "level": 5,
        "pos": "-73656.51294335077,294676.3861140714",
        "src_id": "352",
        "weight": "0.00010930470812246821"
      }
    },
    {
      "type": "Feature",
      "id": "3594",
      "geometry": {
        "type": "Point",
        "coordinates": [
          13.361592,
          25.163836
        ]
      },
      "properties": {
        "label": "Voriconazole",
        "level": 5,
        "pos": "-69535.52604144062,307443.06635192176",
        "src_id": "569",
        "weight": "8.92238040686589e-05"
      }
    },
    {
      "type": "Feature",
      "id": "4877",
      "geometry": {
        "type": "Point",
        "coordinates": [
          12.985971,
          24.856946
        ]
      },
      "properties": {
        "label": "Azimilide",
        "level": 5,
        "pos": "-74177.02977204329,303317.8037655995",
        "src_id": "4668",
        "weight": "0.00010632911653018698"
      }
    },
    {
      "type": "Feature",
      "id": "3573",
      "geometry": {
        "type": "Point",
        "coordinates": [
          12.960534,
          24.196952
        ]
      },
      "properties": {
        "label": "Eplerenone",
        "level": 4,
        "pos": "-74491.35301552915,294480.4627271066",
        "src_id": "686",
        "weight": "0.00017179742600361588"
      }
    },
    {
      "type": "Feature",
      "id": "3562",
      "geometry": {
        "type": "Point",
        "coordinates": [
          13.154237,
          24.987907
        ]
      },
      "properties": {
        "label": "Clopidogrel",
        "level": 5,
        "pos": "-72097.79416703714,305076.9408156076",
        "src_id": "744",
        "weight": "7.874594987531381e-05"
      }
    },
    {
      "type": "Feature",
      "id": "1736",
      "geometry": {
        "type": "Point",
        "coordinates": [
          13.461625,
          24.958106
        ]
      },
      "properties": {
        "label": "Idursulfase",
        "level": 5,
        "pos": "-68299.43702594789,304676.4690828539",
        "src_id": "1254",
        "weight": "9.114118874345503e-05"
      }
    },
    {
      "type": "Feature",
      "id": "1716",
      "geometry": {
        "type": "Point",
        "coordinates": [
          13.607458,
          24.967418
        ]
      },
      "properties": {
        "label": "Vildagliptin",
        "level": 5,
        "pos": "-66497.39558799214,304801.5919793013",
        "src_id": "4598",
        "weight": "9.114118874345503e-05"
      }
    },
    {
      "type": "Feature",
      "id": "1715",
      "geometry": {
        "type": "Point",
        "coordinates": [
          13.003818,
          24.924822
        ]
      },
      "properties": {
        "label": "Alfimeprase",
        "level": 5,
        "pos": "-73956.50180128723,304229.3052608938",
        "src_id": "4637",
        "weight": "9.114118874345503e-05"
      }
    },
    {
      "type": "Feature",
      "id": "1714",
      "geometry": {
        "type": "Point",
        "coordinates": [
          13.301884,
          24.989182
        ]
      },
      "properties": {
        "label": "Canfosfamide",
        "level": 5,
        "pos": "-70273.3417860894,305094.07214113185",
        "src_id": "4681",
        "weight": "9.114118874345503e-05"
      }
    },
    {
      "type": "Feature",
      "id": "1712",
      "geometry": {
        "type": "Point",
        "coordinates": [
          13.553617,
          25.00512
        ]
      },
      "properties": {
        "label": "Labetuzumab",
        "level": 5,
        "pos": "-67162.7089786688,305308.2889680671",
        "src_id": "4787",
        "weight": "9.114118874345503e-05"
      }
    },
    {
      "type": "Feature",
      "id": "1710",
      "geometry": {
        "type": "Point",
        "coordinates": [
          13.696898,
          24.855038
        ]
      },
      "properties": {
        "label": "Tetomilast",
        "level": 5,
        "pos": "-65392.19888871236,303292.18377489236",
        "src_id": "4954",
        "weight": "9.114118874345503e-05"
      }
    },
    {
      "type": "Feature",
      "id": "4853",
      "geometry": {
        "type": "Point",
        "coordinates": [
          13.204758,
          25.002767
        ]
      },
      "properties": {
        "label": "Torcetrapib",
        "level": 5,
        "pos": "-71473.50782662739,305276.65549530735",
        "src_id": "5532",
        "weight": "6.983420405544199e-05"
      }
    },
    {
      "type": "Feature",
      "id": "4849",
      "geometry": {
        "type": "Point",
        "coordinates": [
          12.465629,
          24.104802
        ]
      },