{
  "type": "FeatureCollection",
  "features": [
    {
      "type": "Feature",
      "id": "595",
      "geometry": {
        "type": "Point",
        "coordinates": [
          1.113077,
          -12.204908
        ]
      },
      "properties": {
        "label": "Cetuximab",
        "level": 4,
        "pos": "20063.993,-64126.056000000004",
        "src_id": "2",
        "weight": "0.00022494172928858011"
      }
    },
    {
      "type": "Feature",
      "id": "380",
      "geometry": {
        "type": "Point",
        "coordinates": [
          -6.319601,
          -10.678608
        ]
      },
      "properties": {
        "label": "Bevacizumab",
        "level": 3,
        "pos": "-10041.325,-56828.944",
        "src_id": "105",
        "weight": "0.00034291580416065805"
      }
    },
    {
      "type": "Feature",
      "id": "45",
      "geometry": {
        "type": "Point",
        "coordinates": [
          1.852204,
          -12.730981
        ]
      },
      "properties": {
        "label": "Encephalopathy",
        "level": 1,
        "pos": "23057.754,-66650.66",
        "src_id": "175833",
        "weight": "0.0007821211940547732"
      }
    },
    {
      "type": "Feature",
      "id": "212",
      "geometry": {
        "type": "Point",
        "coordinates": [
          -4.593411,
          -10.708468
        ]
      },
      "properties": {
        "label": "Necrosis",
        "level": 2,
        "pos": "-3049.573,-56971.327000000005",
        "src_id": "181561",
        "weight": "0.0004535247653085309"
      }
    },
    {
      "type": "Feature",
      "id": "1372",
      "geometry": {
        "type": "Point",
        "coordinates": [
          -8.280084,
          -7.941612
        ]
      },
      "properties": {
        "label": "Life support",
        "level": 4,
        "pos": "-17982.069,-43831.543000000005",
        "src_id": "179957",
        "weight": "0.00021661418903904528"
      }
    },
    {
      "type": "Feature",
      "id": "3784",
      "geometry": {
        "type": "Point",
        "coordinates": [
          -4.421342,
          -11.142431
        ]
      },
      "properties": {
        "label": "Radiation necrosis",
        "level": 5,
        "pos": "-2352.616,-59042.318999999996",
        "src_id": "184710",
        "weight": "0.00010811128730741483"
      }
    },
    {
      "type": "Feature",
      "id": "28",
      "geometry": {
        "type": "Point",
        "coordinates": [
          9.81922,
          -14.779763
        ]
      },
      "properties": {
        "label": "Childhood",
        "level": 1,
        "pos": "55327.353,-76534.814",
        "src_id": "173551",
        "weight": "0.0009367405335428458"
      }
    },
    {
      "type": "Feature",
      "id": "159",
      "geometry": {
        "type": "Point",
        "coordinates": [
          -2.305121,
          -11.633416
        ]
      },
      "properties": {
        "label": "Developmental delay",
        "level": 2,
        "pos": "6218.919,-61389.168",
        "src_id": "175069",
        "weight": "0.0005243544087795841"
      }
    },
    {
      "type": "Feature",
      "id": "9082",
      "geometry": {
        "type": "Point",
        "coordinates": [
          2.751353,
          -13.375958
        ]
      },
      "properties": {
        "label": "Furuncle",
        "level": 6,
        "pos": "26699.663999999997,-69753.054",
        "src_id": "176970",
        "weight": "1.6594633859693537e-05"
      }
    },
    {
      "type": "Feature",
      "id": "1964",
      "geometry": {
        "type": "Point",
        "coordinates": [
          4.97119,
          -12.907848
        ]
      },
      "properties": {
        "label": "Therapeutic procedure",
        "level": 4,
        "pos": "35690.895,-67500.60100000001",
        "src_id": "186884",
        "weight": "0.00013150206002276874"
      }
    },
    {
      "type": "Feature",
      "id": "325",
      "geometry": {
        "type": "Point",
        "coordinates": [
          -11.724813,
          -5.979696
        ]
      },
      "properties": {
        "label": "Respiratory failure",
        "level": 3,
        "pos": "-31934.595999999998,-34569.749",
        "src_id": "185134",
        "weight": "0.0003892629912142483"
      }
    },
    {
      "type": "Feature",
      "id": "2059",
      "geometry": {
        "type": "Point",
        "coordinates": [
          -2.656491,
          -9.234115
        ]
      },
      "properties": {
        "label": "Extracorporeal membrane oxygenation",
        "level": 4,
        "pos": "4795.73,-49956.707",
        "src_id": "176336",
        "weight": "0.00012154776894470162"
      }
    },
    {
      "type": "Feature",
      "id": "626",
      "geometry": {
        "type": "Point",
        "coordinates": [
          -5.987266,
          -8.964425
        ]
      },
      "properties": {
        "label": "Respiratory arrest",
        "level": 3,
        "pos": "-8695.244999999999,-48676.899",
        "src_id": "185125",
        "weight": "0.00026620694261935904"
      }
    },
    {
      "type": "Feature",
      "id": "596",
      "geometry": {
        "type": "Point",
        "coordinates": [
          -5.30697,
          -10.053899
        ]
      },
      "properties": {
        "label": "Obstruction",
        "level": 3,
        "pos": "-5939.773999999999,-53853.119",
        "src_id": "181995",
        "weight": "0.00034963931045028354"
      }
    },
    {
      "type": "Feature",
      "id": "523",
      "geometry": {
        "type": "Point",
        "coordinates": [
          -5.393275,
          -8.38149
        ]
      },
      "properties": {
        "label": "Respiratory distress",
        "level": 3,
        "pos": "-6289.344,-45913.803",
        "src_id": "185132",
        "weight": "0.00036623092666082505"
      }
    },
    {
      "type": "Feature",
      "id": "1482",
      "geometry": {
        "type": "Point",
        "coordinates": [
          -4.342752,
          -8.989919
        ]
      },
      "properties": {
        "label": "Obstructive airways disorder",
        "level": 3,
        "pos": "-2034.295,-48797.845",
        "src_id": "181997",
        "weight": "0.00024751643162266375"
      }
    },
    {
      "type": "Feature",
      "id": "7384",
      "geometry": {
        "type": "Point",
        "coordinates": [
          -0.553711,
          -11.958515
        ]
      },
      "properties": {
        "label": "Technetium Tc-99m sestamibi",
        "level": 5,
        "pos": "13312.826,-62945.368",
        "src_id": "8103",
        "weight": "2.363361858140069e-05"
      }
    },
    {
      "type": "Feature",
      "id": "430",
      "geometry": {
        "type": "Point",
        "coordinates": [
          -51.612962,
          42.781353
        ]
      },
      "properties": {
        "label": "Darbepoetin alfa",
        "level": 3,
        "pos": "-193497.545,215698.511",
        "src_id": "12",
        "weight": "0.0002603250226518554"
      }
    },
    {
      "type": "Feature",
      "id": "792",
      "geometry": {
        "type": "Point",
        "coordinates": [
          -50.684757,
          43.56044
        ]
      },
      "properties": {
        "label": "Alefacept",
        "level": 4,
        "pos": "-189737.954,220704.14800000002",
        "src_id": "87",
        "weight": "0.00019632903862899323"
      }
    },
    {
      "type": "Feature",
      "id": "630",
      "geometry": {
        "type": "Point",
        "coordinates": [
          -52.596183,
          43.17057
        ]
      },
      "properties": {
        "label": "Efalizumab",
        "level": 4,
        "pos": "-197479.992,218191.251",
        "src_id": "90",
        "weight": "0.00021727205480979086"
      }
    },
    {
      "type": "Feature",
      "id": "274",
      "geometry": {
        "type": "Point",
        "coordinates": [
          -48.844121,
          43.909703
        ]
      },
      "properties": {
        "label": "Imatinib",
        "level": 3,
        "pos": "-182282.63799999998,222969.16100000002",
        "src_id": "606",
        "weight": "0.00030889233894925794"
      }
    },
    {
      "type": "Feature",
      "id": "603",
      "geometry": {
        "type": "Point",
        "coordinates": [
          -52.576849,
          43.538187
        ]
      },
      "properties": {
        "label": "Ximelagatran",
        "level": 4,
        "pos": "-197401.676,220560.28399999999",
        "src_id": "4620",
        "weight": "0.0002236429076379799"
      }
    },
    {
      "type": "Feature",
      "id": "322",
      "geometry": {
        "type": "Point",
        "coordinates": [
          -53.595075,
          44.533899
        ]
      },
      "properties": {
        "label": "Alemtuzumab",
        "level": 3,
        "pos": "-201525.903,227050.5",
        "src_id": "82",
        "weight": "0.0002842171493759282"
      }
    },
    {
      "type": "Feature",
      "id": "510",
      "geometry": {
        "type": "Point",
        "coordinates": [
          -51.066418,
          41.790135
        ]
      },
      "properties": {
        "label": "Rosuvastatin",
        "level": 3,
        "pos": "-191283.827,209420.102",
        "src_id": "1082",
        "weight": "0.00024498429961936226"
      }
    },
    {
      "type": "Feature",
      "id": "376",
      "geometry": {
        "type": "Point",
        "coordinates": [
          -49.575696,
          43.15004
        ]
      },
      "properties": {
        "label": "Bosentan",
        "level": 3,
        "pos": "-185245.809,218059.36800000002",
        "src_id": "546",
        "weight": "0.0002676090036543762"
      }
    },
    {
      "type": "Feature",
      "id": "343",
      "geometry": {
        "type": "Point",
        "coordinates": [
          -54.621474,
          45.523772
        ]
      },
      "properties": {
        "label": "Gefitinib",
        "level": 3,
        "pos": "-205683.233,233613.597",
        "src_id": "308",
        "weight": "0.00027811603194987115"
      }
    },
    {
      "type": "Feature",
      "id": "277",
      "geometry": {
        "type": "Point",
        "coordinates": [
          -54.25039,
          45.133779
        ]
      },
      "properties": {
        "label": "Doxorubicin",
        "level": 3,
        "pos": "-204180.18699999998,231014.282",
        "src_id": "983",
        "weight": "0.00029839388729393666"
      }
    },
    {
      "type": "Feature",
      "id": "567",
      "geometry": {
        "type": "Point",
        "coordinates": [
          -52.096378,
          41.004293
        ]
      },
      "properties": {
        "label": "Lopinavir",
        "level": 4,
        "pos": "-195455.58,204511.247",
        "src_id": "1533",
        "weight": "0.00023336128745256597"
      }
    },
    {
      "type": "Feature",
      "id": "346",
      "geometry": {
        "type": "Point",
        "coordinates": [
          -41.377518,
          39.627835
        ]
      },
      "properties": {
        "label": "Tadalafil",
        "level": 3,
        "pos": "-152039.906,196051.918",
        "src_id": "806",
        "weight": "0.000392990589299031"
      }
    },
    {
      "type": "Feature",
      "id": "957",
      "geometry": {
        "type": "Point",
        "coordinates": [
          44.109186,
          -31.235768
        ]
      },
      "properties": {
        "label": "Erythropoietin",
        "level": 4,
        "pos": "194215.419,-160702.673",
        "src_id": "16",
        "weight": "0.00018056124309111373"
      }
    },
    {
      "type": "Feature",
      "id": "6920",
      "geometry": {
        "type": "Point",
        "coordinates": [
          47.288178,
          -31.069687
        ]
      },
      "properties": {
        "label": "Hysterotomy",
        "level": 6,
        "pos": "207091.614,-159793.321",
        "src_id": "178692",
        "weight": "2.04871704861858e-05"
      }
    },
    {
      "type": "Feature",
      "id": "3517",
      "geometry": {
        "type": "Point",
        "coordinates": [
          41.214039,
          -27.784645
        ]
      },
      "properties": {
        "label": "Iron deficiency",
        "level": 5,
        "pos": "182488.918,-142116.278",
        "src_id": "179432",
        "weight": "6.476103889805626e-05"
      }
    },
    {
      "type": "Feature",
      "id": "6900",
      "geometry": {
        "type": "Point",
        "coordinates": [
          47.932991,
          -31.502448
        ]
      },
      "properties": {
        "label": "Nephrogenic anaemia",
        "level": 5,
        "pos": "209703.358,-162166.18600000002",
        "src_id": "181659",
        "weight": "2.486484627525432e-05"
      }
    },
    {
      "type": "Feature",
      "id": "5185",
      "geometry": {
        "type": "Point",
        "coordinates": [
          37.862558,
          -27.479431
        ]
      },
      "properties": {
        "label": "Periodic limb movement disorder",
        "level": 5,
        "pos": "168914.08000000002,-140501.997",
        "src_id": "183150",
        "weight": "3.892133280498771e-05"
      }
    },
    {
      "type": "Feature",
      "id": "561",
      "geometry": {
        "type": "Point",
        "coordinates": [
          -62.635056,
          -7.297349
        ]
      },
      "properties": {
        "label": "Pegfilgrastim",
        "level": 4,
        "pos": "-238141.438,-40785.774000000005",
        "src_id": "19",
        "weight": "0.00023601735353400395"
      }
    },
    {
      "type": "Feature",
      "id": "469",
      "geometry": {
        "type": "Point",
        "coordinates": [
          -61.730827,
          -7.823329
        ]
      },
      "properties": {
        "label": "Etoricoxib",
        "level": 3,
        "pos": "-234478.949,-43272.01",
        "src_id": "1559",
        "weight": "0.00024709168534820826"
      }
    },
    {
      "type": "Feature",
      "id": "615",
      "geometry": {
        "type": "Point",
        "coordinates": [
          -60.740184,
          -6.720073
        ]
      },
      "properties": {
        "label": "Anakinra",
        "level": 4,
        "pos": "-230466.453,-38060.42",
        "src_id": "26",
        "weight": "0.00022600812372034452"
      }
    },
    {
      "type": "Feature",
      "id": "771",
      "geometry": {
        "type": "Point",
        "coordinates": [
          -58.559483,
          -5.87298
        ]
      },
      "properties": {
        "label": "Drotrecogin alfa",
        "level": 4,
        "pos": "-221633.736,-34067.019",
        "src_id": "54",
        "weight": "0.00020488286831137593"
      }
    },
    {
      "type": "Feature",
      "id": "960",
      "geometry": {
        "type": "Point",
        "coordinates": [
          -55.671065,
          -5.35426
        ]
      },
      "properties": {
        "label": "Lanthanum carbonate",
        "level": 4,
        "pos": "-209934.495,-31624.696",
        "src_id": "5847",
        "weight": "0.00018096124287511587"
      }
    },
    {
      "type": "Feature",
      "id": "1403",
      "geometry": {
        "type": "Point",
        "coordinates": [
          -52.915986,
          -5.87947
        ]
      },
      "properties": {
        "label": "Anidulafungin",
        "level": 4,
        "pos": "-198775.317,-34097.593",
        "src_id": "352",
        "weight": "0.00013832394394139907"
      }
    },
    {
      "type": "Feature",
      "id": "865",
      "geometry": {
        "type": "Point",
        "coordinates": [
          -58.699993,
          -4.627576
        ]
      },
      "properties": {
        "label": "Eplerenone",
        "level": 4,
        "pos": "-222202.857,-28206.648",
        "src_id": "686",
        "weight": "0.0001844817661206429"
      }
    },
    {
      "type": "Feature",
      "id": "1214",
      "geometry": {
        "type": "Point",
        "coordinates": [
          -55.8619,
          -4.810939
        ]
      },
      "properties": {
        "label": "Methyl aminolevulinate",
        "level": 4,
        "pos": "-210707.445,-29068.769",
        "src_id": "978",
        "weight": "0.00014973826249001985"
      }
    },
    {
      "type": "Feature",
      "id": "369",
      "geometry": {
        "type": "Point",
        "coordinates": [
          -37.630532,
          -22.774966
        ]
      },
      "properties": {
        "label": "Immune Globulin Human",
        "level": 3,
        "pos": "-136863.121,-116144.02900000001",
        "src_id": "28",
        "weight": "0.0003667364366407796"
      }
    },
    {
      "type": "Feature",
      "id": "4417",
      "geometry": {
        "type": "Point",
        "coordinates": [
          -36.874506,
          -20.770678
        ]
      },
      "properties": {
        "label": "Immunoglobulin therapy",
        "level": 5,
        "pos": "-133800.912,-106030.293",
        "src_id": "178774",
        "weight": "6.182435896140732e-05"
      }
    },
    {
      "type": "Feature",
      "id": "2770",
      "geometry": {
        "type": "Point",
        "coordinates": [
          -38.615993,
          -23.221862
        ]
      },
      "properties": {
        "label": "Hormone therapy",
        "level": 5,
        "pos": "-140854.628,-118418.897",
        "src_id": "178307",
        "weight": "9.149475153286171e-05"
      }
    },
    {
      "type": "Feature",
      "id": "3752",
      "geometry": {
        "type": "Point",
        "coordinates": [
          -39.89797,
          -23.728286
        ]
      },
      "properties": {
        "label": "Thyroiditis",
        "level": 5,
        "pos": "-146047.155,-121006.02",
        "src_id": "187049",
        "weight": "5.76201201466534e-05"
      }
    },
    {
      "type": "Feature",
      "id": "491",
      "geometry": {
        "type": "Point",
        "coordinates": [
          -37.227703,
          -19.752352
        ]
      },
      "properties": {
        "label": "Musculoskeletal stiffness",
        "level": 3,
        "pos": "-135231.499,-100943.845",
        "src_id": "181286",
        "weight": "0.00035703957202240955"
      }
    },
    {
      "type": "Feature",
      "id": "1854",
      "geometry": {
        "type": "Point",
        "coordinates": [
          -37.583166,
          -18.736338
        ]
      },
      "properties": {
        "label": "Stiff person syndrome",
        "level": 4,
        "pos": "-136671.268,-95901.192",
        "src_id": "186411",
        "weight": "0.00015454657481124117"
      }
    },
    {
      "type": "Feature",
      "id": "692",
      "geometry": {
        "type": "Point",
        "coordinates": [
          23.191387,
          6.499871
        ]
      },
      "properties": {
        "label": "Insulin Human",
        "level": 4,
        "pos": "109489.96699999999,24023.034",
        "src_id": "30",
        "weight": "0.00021006227514465823"
      }
    },
    {
      "type": "Feature",
      "id": "624",
      "geometry": {
        "type": "Point",
        "coordinates": [
          30.377368,
          6.879403
        ]
      },
      "properties": {
        "label": "Fondaparinux sodium",
        "level": 4,
        "pos": "138596.071,25813.623",
        "src_id": "556",
        "weight": "0.0002179722461525603"
      }
    },
    {
      "type": "Feature",
      "id": "641",
      "geometry": {
        "type": "Point",
        "coordinates": [
          28.763992,
          6.967186
        ]
      },
      "properties": {
        "label": "Ivabradine",
        "level": 4,
        "pos": "132061.249,26227.966",
        "src_id": "8028",
        "weight": "0.00021383795178342416"
      }
    },
    {
      "type": "Feature",
      "id": "85",
      "geometry": {
        "type": "Point",
        "coordinates": [
          18.963937,
          5.929562
        ]
      },
      "properties": {
        "label": "Blood insulin",
        "level": 2,
        "pos": "92367.107,21334.892",
        "src_id": "172218",
        "weight": "0.0005687904179390835"
      }
    },
    {
      "type": "Feature",
      "id": "554",
      "geometry": {
        "type": "Point",
        "coordinates": [
          41.18598,
          6.625924
        ]
      },
      "properties": {
        "label": "Botulinum Toxin Type B",
        "level": 4,
        "pos": "182375.272,24617.581000000002",
        "src_id": "41",
        "weight": "0.0002269911064785997"
      }
    },
    {
      "type": "Feature",
      "id": "873",
      "geometry": {
        "type": "Point",
        "coordinates": [
          26.594576,
          6.995079
        ]
      },
      "properties": {
        "label": "Insulin Aspart",
        "level": 4,
        "pos": "123274.254,26359.646",
        "src_id": "1280",
        "weight": "0.00021822629773968975"
      }
    },
    {
      "type": "Feature",
      "id": "57",
      "geometry": {
        "type": "Point",
        "coordinates": [
          17.596709,
          6.150506
        ]
      },
      "properties": {
        "label": "Glucose",
        "level": 1,
        "pos": "86829.293,22375.964",
        "src_id": "8280",
        "weight": "0.0007263364498648512"
      }
    },
    {
      "type": "Feature",
      "id": "1872",
      "geometry": {
        "type": "Point",
        "coordinates": [
          25.827835,
          7.364786
        ]
      },
      "properties": {
        "label": "Blood glucose decreased",
        "level": 4,
        "pos": "120168.637,28105.703999999998",
        "src_id": "172155",
        "weight": "0.00012258759053495908"
      }
    },
    {
      "type": "Feature",
      "id": "4064",
      "geometry": {
        "type": "Point",
        "coordinates": [
          20.906187,
          6.201073
        ]
      },
      "properties": {
        "label": "Indirect calorimetry",
        "level": 5,
        "pos": "100233.999,22614.286",
        "src_id": "178924",
        "weight": "6.131788703649188e-05"
      }
    },
    {
      "type": "Feature",
      "id": "8776",
      "geometry": {
        "type": "Point",
        "coordinates": [
          20.158587,
          6.497994
        ]
      },
      "properties": {
        "label": "Blood insulin increased",
        "level": 6,
        "pos": "97205.91500000001,24014.175000000003",
        "src_id": "172221",
        "weight": "1.7137441346141527e-05"
      }
    },
    {
      "type": "Feature",
      "id": "746",
      "geometry": {
        "type": "Point",
        "coordinates": [
          36.59119,
          7.040319
        ]
      },
      "properties": {
        "label": "Sorafenib",
        "level": 4,
        "pos": "163764.533,26573.229000000003",
        "src_id": "387",
        "weight": "0.0002044873522702295"
      }
    },
    {
      "type": "Feature",
      "id": "667",
      "geometry": {
        "type": "Point",
        "coordinates": [
          34.630136,
          7.083001
        ]
      },
      "properties": {
        "label": "Insulin Detemir",
        "level": 4,
        "pos": "155821.481,26774.760000000002",
        "src_id": "1281",
        "weight": "0.00021249166094547924"
      }
    },
    {
      "type": "Feature",
      "id": "8801",
      "geometry": {
        "type": "Point",
        "coordinates": [
          31.743461,
          7.305737
        ]
      },
      "properties": {
        "label": "Insulin Degludec",
        "level": 5,
        "pos": "144129.28600000002,27826.726000000002",
        "src_id": "8370",
        "weight": "4.086127541578363e-05"
      }
    },
    {
      "type": "Feature",
      "id": "1687",
      "geometry": {
        "type": "Point",
        "coordinates": [
          15.462313,
          5.672415
        ]
      },
      "properties": {
        "label": "Fructose",
        "level": 4,
        "pos": "78184.128,20123.757",
        "src_id": "3934",
        "weight": "0.00019257544990322097"
      }
    },
    {
      "type": "Feature",
      "id": "1015",
      "geometry": {
        "type": "Point",
        "coordinates": [
          18.85937,
          6.488073
        ]
      },
      "properties": {
        "label": "Hypometabolism",
        "level": 4,
        "pos": "91943.575,23967.389",
        "src_id": "178611",
        "weight": "0.00022224596894015626"
      }
    },
    {
      "type": "Feature",
      "id": "3691",
      "geometry": {
        "type": "Point",
        "coordinates": [
          28.195157,
          7.552585
        ]
      },
      "properties": {
        "label": "Low carbohydrate diet",
        "level": 4,
        "pos": "129757.23999999999,28993.192",
        "src_id": "180136",
        "weight": "0.00012809976525409033"
      }
    },
    {
      "type": "Feature",
      "id": "1137",
      "geometry": {
        "type": "Point",
        "coordinates": [
          28.110696,
          -35.522372
        ]
      },
      "properties": {
        "label": "Palifermin",
        "level": 4,
        "pos": "129415.138,-184766.83",
        "src_id": "38",
        "weight": "0.000156923725930528"
      }
    },
    {
      "type": "Feature",
      "id": "1195",
      "geometry": {
        "type": "Point",
        "coordinates": [
          26.850302,
          -32.96954
        ]
      },
      "properties": {
        "label": "Calcipotriol",
        "level": 4,
        "pos": "124310.04400000001,-170293.765",
        "src_id": "2182",
        "weight": "0.0001515165658971843"
      }
    },
    {
      "type": "Feature",
      "id": "2020",
      "geometry": {
        "type": "Point",
        "coordinates": [
          25.584948,
          -33.695997
        ]
      },
      "properties": {
        "label": "Desmoteplase",
        "level": 5,
        "pos": "119184.851,-174368.06000000003",
        "src_id": "4641",
        "weight": "9.99888376933604e-05"
      }
    },
    {
      "type": "Feature",
      "id": "1410",
      "geometry": {
        "type": "Point",
        "coordinates": [
          26.773184,
          -34.591175
        ]
      },
      "properties": {
        "label": "Ularitide",
        "level": 4,
        "pos": "123997.679,-179436.328",
        "src_id": "4733",
        "weight": "0.0001328890391285814"
      }
    },
    {
      "type": "Feature",
      "id": "401",
      "geometry": {
        "type": "Point",
        "coordinates": [
          24.330094,
          3.677445
        ]
      },
      "properties": {
        "label": "Omalizumab",
        "level": 3,
        "pos": "114102.18999999999,10744.128",
        "src_id": "42",
        "weight": "0.00026251344140656085"
      }
    },
    {
      "type": "Feature",
      "id": "382",
      "geometry": {
        "type": "Point",
        "coordinates": [
          26.508232,
          3.295955
        ]
      },
      "properties": {
        "label": "Adalimumab",
        "level": 3,
        "pos": "122924.521,8953.239",
        "src_id": "50",
        "weight": "0.00030117016777175625"
      }
    },
    {
      "type": "Feature",
      "id": "501",
      "geometry": {
        "type": "Point",
        "coordinates": [
          25.142809,
          3.202371
        ]
      },
      "properties": {
        "label": "Dutasteride",
        "level": 3,
        "pos": "117394.015,8514.016",
        "src_id": "1110",
        "weight": "0.0002438999986921266"
      }
    },
    {
      "type": "Feature",
      "id": "1423",
      "geometry": {
        "type": "Point",
        "coordinates": [
          21.995618,
          3.350876
        ]
      },
      "properties": {
        "label": "Crohn's disease",
        "level": 3,
        "pos": "104646.63,9211.021999999999",
        "src_id": "174559",
        "weight": "0.00026235015421342193"
      }
    },
    {
      "type": "Feature",
      "id": "217",
      "geometry": {
        "type": "Point",
        "coordinates": [
          25.357326,
          4.156713
        ]
      },
      "properties": {
        "label": "Pneumonia",
        "level": 2,
        "pos": "118262.89,12995.131000000001",
        "src_id": "183685",
        "weight": "0.0005194940687134727"
      }
    },
    {
      "type": "Feature",
      "id": "2137",
      "geometry": {
        "type": "Point",
        "coordinates": [
          17.446499,
          3.945948
        ]
      },
      "properties": {
        "label": "Colitis ulcerative",
        "level": 3,
        "pos": "86220.885,12005.059",
        "src_id": "173909",
        "weight": "0.0002580070188840772"
      }
    },
    {
      "type": "Feature",
      "id": "2159",
      "geometry": {
        "type": "Point",
        "coordinates": [
          26.873297,
          4.209501
        ]
      },
      "properties": {
        "label": "Bronchitis",
        "level": 4,
        "pos": "124403.182,13243.143999999998",
        "src_id": "172749",
        "weight": "0.00015431246333547037"
      }
    },
    {
      "type": "Feature",
      "id": "3151",
      "geometry": {
        "type": "Point",
        "coordinates": [
          28.842641,
          4.434222
        ]
      },
      "properties": {
        "label": "Wheezing",
        "level": 4,
        "pos": "132379.806,14299.126",
        "src_id": "188840",
        "weight": "0.00014724581621021598"
      }
    },
    {
      "type": "Feature",
      "id": "1798",
      "geometry": {
        "type": "Point",
        "coordinates": [
          27.00123,
          3.736854
        ]
      },
      "properties": {
        "label": "Retirement",
        "level": 4,
        "pos": "124921.36499999999,11023.087",
        "src_id": "185278",
        "weight": "0.00014322991402913223"
      }
    },
    {
      "type": "Feature",
      "id": "757",
      "geometry": {
        "type": "Point",
        "coordinates": [
          -9.299186,
          16.184028
        ]
      },
      "properties": {
        "label": "Lutropin alfa",
        "level": 4,
        "pos": "-22109.836000000003,70364.131",
        "src_id": "43",
        "weight": "0.00024071140053632582"
      }
    },
    {
      "type": "Feature",
      "id": "224",
      "geometry": {
        "type": "Point",
        "coordinates": [
          -3.979679,
          16.658171
        ]
      },
      "properties": {
        "label": "Testosterone",
        "level": 2,
        "pos": "-563.713,72680.34199999999",
        "src_id": "611",
        "weight": "0.000504638110682504"
      }
    },
    {
      "type": "Feature",
      "id": "435",
      "geometry": {
        "type": "Point",
        "coordinates": [
          -13.01258,
          14.792746
        ]
      },
      "properties": {
        "label": "Ultrasound scan",
        "level": 3,
        "pos": "-37150.570999999996,63599.064",
        "src_id": "187624",
        "weight": "0.00040526172963686294"
      }
    },
    {
      "type": "Feature",
      "id": "3194",
      "geometry": {
        "type": "Point",
        "coordinates": [
          -11.722811,
          15.267132
        ]
      },
      "properties": {
        "label": "Follitropin",
        "level": 5,
        "pos": "-31926.495,65900.65699999999",
        "src_id": "64",
        "weight": "8.726458755800818e-05"
      }
    },
    {
      "type": "Feature",
      "id": "323",
      "geometry": {
        "type": "Point",
        "coordinates": [
          -5.042937,
          20.313651
        ]
      },
      "properties": {
        "label": "Progesterone",
        "level": 2,
        "pos": "-4870.326999999999,90744.677",
        "src_id": "385",
        "weight": "0.0004737975089989258"
      }
    },
    {
      "type": "Feature",
      "id": "499",
      "geometry": {
        "type": "Point",
        "coordinates": [
          -11.058128,
          16.053816
        ]
      },
      "properties": {
        "label": "Blood oestrogen",
        "level": 3,
        "pos": "-29234.265,69729.015",
        "src_id": "172274",
        "weight": "0.0003847079720300325"
      }
    },
    {
      "type": "Feature",
      "id": "2953",
      "geometry": {
        "type": "Point",
        "coordinates": [
          -9.619478,
          15.239569
        ]
      },
      "properties": {
        "label": "Progesterone",
        "level": 5,
        "pos": "-23407.150999999998,65766.786",
        "src_id": "184202",
        "weight": "0.00010355557277842924"
      }
    },
    {
      "type": "Feature",
      "id": "1343",
      "geometry": {
        "type": "Point",
        "coordinates": [
          -3.592088,
          15.593557
        ]
      },
      "properties": {
        "label": "Hypogonadism",
        "level": 3,
        "pos": "1006.1880000000001,67487.415",
        "src_id": "178597",
        "weight": "0.00029454385066563524"
      }
    },
    {
      "type": "Feature",
      "id": "8475",
      "geometry": {
        "type": "Point",
        "coordinates": [
          -9.390515,
          16.705571
        ]
      },
      "properties": {
        "label": "Oxandrolone",
        "level": 5,
        "pos": "-22479.76,72912.197",
        "src_id": "608",
        "weight": "2.8638644203048405e-05"
      }
    },
    {
      "type": "Feature",
      "id": "9136",
      "geometry": {
        "type": "Point",
        "coordinates": [
          -6.59669,
          15.463643
        ]
      },
      "properties": {
        "label": "Testosterone cypionate",
        "level": 6,
        "pos": "-11163.652,66855.603",
        "src_id": "10976",
        "weight": "2.123964336141707e-05"
      }
    },
    {
      "type": "Feature",
      "id": "9017",
      "geometry": {
        "type": "Point",
        "coordinates": [
          -9.703146,
          14.13976
        ]
      },
      "properties": {
        "label": "Sarcopenia",
        "level": 6,
        "pos": "-23746.039,60439.121",
        "src_id": "185520",
        "weight": "2.123964336141707e-05"
      }
    },
    {
      "type": "Feature",
      "id": "5113",
      "geometry": {
        "type": "Point",
        "coordinates": [
          -15.925208,
          13.1929
        ]
      },
      "properties": {
        "label": "Gladiolus",
        "level": 5,
        "pos": "-48947.879,55873.032",
        "src_id": "240340",
        "weight": "2.893688001577324e-05"
      }
    },
    {
      "type": "Feature",
      "id": "1313",
      "geometry": {
        "type": "Point",
        "coordinates": [
          -4.662303,
          22.707362
        ]
      },
      "properties": {
        "label": "Allopregnanolone",
        "level": 4,
        "pos": "-3328.608,102801.883",
        "src_id": "9528",
        "weight": "0.0001909551469652044"
      }
    },
    {
      "type": "Feature",
      "id": "3548",
      "geometry": {
        "type": "Point",
        "coordinates": [
          -4.733498,
          19.203673
        ]
      },
      "properties": {
        "label": "Night sweats",
        "level": 5,
        "pos": "-3616.978,85218.109",
        "src_id": "181827",
        "weight": "7.320329276668975e-05"
      }
    },
    {
      "type": "Feature",
      "id": "7018",
      "geometry": {
        "type": "Point",
        "coordinates": [
          -5.050971,
          21.408778
        ]
      },
      "properties": {
        "label": "Chasteberry",
        "level": 6,
        "pos": "-4902.869,96236.279",
        "src_id": "239745",
        "weight": "2.0348851936421337e-05"
      }
    },
    {
      "type": "Feature",
      "id": "6197",
      "geometry": {
        "type": "Point",
        "coordinates": [
          -6.707723,
          18.457882
        ]
      },
      "properties": {
        "label": "Estradiol valerate",
        "level": 5,
        "pos": "-11613.379,81525.86499999999",
        "src_id": "10988",
        "weight": "4.1684216426340475e-05"
      }
    },
    {
      "type": "Feature",
      "id": "8968",
      "geometry": {
        "type": "Point",
        "coordinates": [
          -3.471623,
          18.611323
        ]
      },
      "properties": {
        "label": "Estrone sulfate",
        "level": 6,
        "pos": "1494.1180000000002,82284.18000000001",
        "src_id": "4305",
        "weight": "1.703740893659063e-05"
      }
    },
    {
      "type": "Feature",
      "id": "3845",
      "geometry": {
        "type": "Point",
        "coordinates": [
          -13.110889,
          13.313656
        ]
      },
      "properties": {
        "label": "Anovulatory cycle",
        "level": 5,
        "pos": "-37548.763,56454.352999999996",
        "src_id": "170456",
        "weight": "7.308971176998489e-05"
      }
    },
    {
      "type": "Feature",
      "id": "7559",
      "geometry": {
        "type": "Point",
        "coordinates": [
          -12.060029,
          13.839594
        ]
      },
      "properties": {
        "label": "Adrenal carcinoma",
        "level": 5,
        "pos": "-33292.357,58989.623",
        "src_id": "169846",
        "weight": "2.2916035502234984e-05"
      }
    },
    {
      "type": "Feature",
      "id": "453",
      "geometry": {
        "type": "Point",
        "coordinates": [
          -2.577842,
          15.088147
        ]
      },
      "properties": {
        "label": "Hypothyroidism",
        "level": 3,
        "pos": "5114.2919999999995,65031.667",
        "src_id": "178664",
        "weight": "0.00040417802909460817"
      }
    },
    {
      "type": "Feature",
      "id": "1575",
      "geometry": {
        "type": "Point",
        "coordinates": [
          -4.239725,
          17.711427
        ]
      },
      "properties": {
        "label": "Hypopituitarism",
        "level": 4,
        "pos": "-1616.997,77846.355",
        "src_id": "178634",
        "weight": "0.00021484445364149324"
      }
    },
    {
      "type": "Feature",
      "id": "5285",
      "geometry": {
        "type": "Point",
        "coordinates": [
          -3.717626,
          14.580681
        ]
      },
      "properties": {
        "label": "Dyscalculia",
        "level": 5,
        "pos": "497.712,62571.809",
        "src_id": "175470",
        "weight": "6.319287779332716e-05"
      }
    },
    {
      "type": "Feature",
      "id": "2965",
      "geometry": {
        "type": "Point",
        "coordinates": [
          32.053687,
          49.957002
        ]
      },
      "properties": {
        "label": "Insulin Lispro",
        "level": 5,
        "pos": "145385.835,264529.715",
        "src_id": "45",
        "weight": "7.751640460621842e-05"
      }
    },
    {
      "type": "Feature",
      "id": "3389",
      "geometry": {
        "type": "Point",
        "coordinates": [
          27.057279,
          46.110652
        ]
      },
      "properties": {
        "label": "Fidarestat",
        "level": 5,
        "pos": "125148.377,237559.392",
        "src_id": "1922",
        "weight": "6.728478216303507e-05"
      }
    },
    {
      "type": "Feature",
      "id": "1779",
      "geometry": {
        "type": "Point",
        "coordinates": [
          32.401361,
          49.279349
        ]
      },
      "properties": {
        "label": "Pegvisomant",
        "level": 5,
        "pos": "146794.05399999997,259628.51499999998",
        "src_id": "78",
        "weight": "0.00011183992937070803"
      }
    },
    {
      "type": "Feature",
      "id": "1768",
      "geometry": {
        "type": "Point",
        "coordinates": [
          29.51612,
          49.265507
        ]
      },
      "properties": {
        "label": "Abarelix",
        "level": 4,
        "pos": "135107.667,259529.09799999997",
        "src_id": "99",
        "weight": "0.00011553080795730482"
      }
    },
    {
      "type": "Feature",
      "id": "3193",
      "geometry": {
        "type": "Point",
        "coordinates": [
          26.354343,
          45.351629
        ]
      },
      "properties": {
        "label": "Raltitrexed",
        "level": 5,
        "pos": "122301.213,232464.054",
        "src_id": "284",
        "weight": "7.876390883486657e-05"
      }
    },
    {
      "type": "Feature",
      "id": "3388",
      "geometry": {
        "type": "Point",
        "coordinates": [
          30.715264,
          49.600443
        ]
      },
      "properties": {
        "label": "Voglibose",
        "level": 5,
        "pos": "139964.67799999999,261942.37199999997",
        "src_id": "4600",
        "weight": "6.728478216303507e-05"
      }
    },
    {
      "type": "Feature",
      "id": "3189",
      "geometry": {
        "type": "Point",
        "coordinates": [
          30.634938,
          48.453987
        ]
      },
      "properties": {
        "label": "Dexmethylphenidate",
        "level": 5,
        "pos": "139639.33,253749.083",
        "src_id": "5761",
        "weight": "7.268133461863184e-05"
      }
    },
    {
      "type": "Feature",
      "id": "3381",
      "geometry": {
        "type": "Point",
        "coordinates": [
          30.528907,
          48.966122
        ]
      },
      "properties": {
        "label": "Metreleptin",
        "level": 5,
        "pos": "139209.855,257385.809",
        "src_id": "7992",
        "weight": "6.728478216303507e-05"
      }
    },
    {
      "type": "Feature",
      "id": "3107",
      "geometry": {
        "type": "Point",
        "coordinates": [
          30.452462,
          48.04881
        ]
      },
      "properties": {
        "label": "Blonanserin",
        "level": 5,
        "pos": "138900.23400000003,250897.77599999998",
        "src_id": "8163",
        "weight": "7.138816801839132e-05"
      }
    },
    {
      "type": "Feature",
      "id": "1775",
      "geometry": {
        "type": "Point",
        "coordinates": [
          31.935121,
          51.251805
        ]
      },
      "properties": {
        "label": "anecortave acetate",
        "level": 5,
        "pos": "144905.594,274090.01999999996",
        "src_id": "4945",
        "weight": "0.00011183992937070803"
      }
    },
    {
      "type": "Feature",
      "id": "1131",
      "geometry": {
        "type": "Point",
        "coordinates": [
          32.573105,
          52.470041
        ]
      },
      "properties": {
        "label": "Naratriptan",
        "level": 4,
        "pos": "147489.68099999998,283333.985",
        "src_id": "938",
        "weight": "0.00015519763907562357"
      }
    },
    {
      "type": "Feature",
      "id": "7401",
      "geometry": {
        "type": "Point",
        "coordinates": [
          24.022035,
          42.561458
        ]
      },
      "properties": {
        "label": "Thymidine-5'-Phosphate",
        "level": 5,
        "pos": "112854.432,214297.11800000002",
        "src_id": "1574",
        "weight": "2.676093801768501e-05"
      }
    },
    {
      "type": "Feature",
      "id": "837",
      "geometry": {
        "type": "Point",
        "coordinates": [
          33.210346,
          7.016547
        ]
      },
      "properties": {
        "label": "Insulin Glargine",
        "level": 4,
        "pos": "150070.764,26460.999",
        "src_id": "46",
        "weight": "0.0001913417604590201"
      }
    },
    {
      "type": "Feature",
      "id": "581",
      "geometry": {
        "type": "Point",
        "coordinates": [
          43.57534,
          6.514143
        ]
      },
      "properties": {
        "label": "Pemetrexed",
        "level": 4,
        "pos": "192053.132,24090.338",
        "src_id": "629",
        "weight": "0.00023099939285521425"
      }
    },
    {
      "type": "Feature",
      "id": "880",
      "geometry": {
        "type": "Point",
        "coordinates": [
          4.338139,
          26.904363
        ]
      },
      "properties": {
        "label": "Rasburicase",
        "level": 4,
        "pos": "33126.781,124473.86899999999",
        "src_id": "48",
        "weight": "0.0001751999821199038"
      }
    },
    {
      "type": "Feature",
      "id": "1596",
      "geometry": {
        "type": "Point",
        "coordinates": [
          2.73214,
          27.713557
        ]
      },
      "properties": {
        "label": "Imiquimod",
        "level": 4,
        "pos": "26621.839,128741.217",
        "src_id": "710",
        "weight": "0.00012542087453116418"
      }
    },
    {
      "type": "Feature",
      "id": "1248",
      "geometry": {
        "type": "Point",
        "coordinates": [
          5.024141,
          26.455659
        ]
      },
      "properties": {
        "label": "Filgrastim",
        "level": 4,
        "pos": "35905.361,122120.813",
        "src_id": "93",
        "weight": "0.0001615042976612915"
      }
    },
    {
      "type": "Feature",
      "id": "1586",
      "geometry": {
        "type": "Point",
        "coordinates": [
          3.353296,
          28.71586
        ]
      },
      "properties": {
        "label": "Argatroban",
        "level": 4,
        "pos": "29137.767,134071.16400000002",
        "src_id": "269",
        "weight": "0.000125692384898762"
      }
    },
    {
      "type": "Feature",
      "id": "1276",
      "geometry": {
        "type": "Point",
        "coordinates": [
          3.513781,
          26.449669
        ]
      },
      "properties": {
        "label": "Zolmitriptan",
        "level": 4,
        "pos": "29787.8,122089.457",
        "src_id": "306",
        "weight": "0.00014438597891927495"
      }
    },
    {
      "type": "Feature",
      "id": "1595",
      "geometry": {
        "type": "Point",
        "coordinates": [
          4.0843,
          29.079126
        ]
      },
      "properties": {
        "label": "Lanoteplase",
        "level": 4,
        "pos": "32098.629,136015.433",
        "src_id": "5507",
        "weight": "0.0001254208745311642"
      }
    },
    {
      "type": "Feature",
      "id": "8795",
      "geometry": {
        "type": "Point",
        "coordinates": [
          3.496425,
          27.268787
        ]
      },
      "properties": {
        "label": "Molgramostim",
        "level": 6,
        "pos": "29717.496,126391.842",
        "src_id": "10173",
        "weight": "1.785861835057901e-05"
      }
    },
    {
      "type": "Feature",
      "id": "8149",
      "geometry": {
        "type": "Point",
        "coordinates": [
          5.355673,
          27.344159
        ]
      },
      "properties": {
        "label": "Cytapheresis",
        "level": 6,
        "pos": "37248.201,126789.314",
        "src_id": "174829",
        "weight": "1.913383624658615e-05"
      }
    },
    {
      "type": "Feature",
      "id": "1481",
      "geometry": {
        "type": "Point",
        "coordinates": [
          5.771995,
          26.101648
        ]
      },
      "properties": {
        "label": "Rhinorrhoea",
        "level": 3,
        "pos": "38934.465000000004,120270.804",
        "src_id": "185363",
        "weight": "0.0002553691796196426"
      }
    },
    {
      "type": "Feature",
      "id": "934",
      "geometry": {
        "type": "Point",
        "coordinates": [
          13.462503,
          2.572397
        ]
      },
      "properties": {
        "label": "Apple",
        "level": 3,
        "pos": "70084.095,5558.348",
        "src_id": "8575",
        "weight": "0.00036733944152330235"
      }
    },
    {
      "type": "Feature",
      "id": "1899",
      "geometry": {
        "type": "Point",
        "coordinates": [
          20.820147,
          3.360058
        ]
      },
      "properties": {
        "label": "Inflammatory bowel disease",
        "level": 4,
        "pos": "99885.49500000001,9254.118999999999",
        "src_id": "178997",
        "weight": "0.0001326567956068099"
      }
    },
    {
      "type": "Feature",
      "id": "8545",
      "geometry": {
        "type": "Point",
        "coordinates": [
          27.786217,
          3.840864
        ]
      },
      "properties": {
        "label": "Mendelson's syndrome",
        "level": 6,
        "pos": "128100.873,11511.523000000001",
        "src_id": "180698",
        "weight": "2.0664445828806487e-05"
      }
    },
    {
      "type": "Feature",
      "id": "5500",
      "geometry": {
        "type": "Point",
        "coordinates": [
          27.239459,
          4.767293
        ]
      },
      "properties": {
        "label": "Pharyngitis streptococcal",
        "level": 5,
        "pos": "125886.279,15864.874",
        "src_id": "183387",
        "weight": "5.268588509974119e-05"
      }
    },
    {
      "type": "Feature",
      "id": "3698",
      "geometry": {
        "type": "Point",
        "coordinates": [
          30.944258,
          4.707206
        ]
      },
      "properties": {
        "label": "Crepitations",
        "level": 5,
        "pos": "140892.2,15582.349",
        "src_id": "174549",
        "weight": "9.942108204014236e-05"
      }
    },
    {
      "type": "Feature",
      "id": "6631",
      "geometry": {
        "type": "Point",
        "coordinates": [
          25.960696,
          4.745487
        ]
      },
      "properties": {
        "label": "Adenoid cystic carcinoma",
        "level": 5,
        "pos": "120706.779,15762.340999999999",
        "src_id": "169791",
        "weight": "4.6051494830585534e-05"
      }
    },
    {
      "type": "Feature",
      "id": "8310",
      "geometry": {
        "type": "Point",
        "coordinates": [
          33.751821,
          4.450718
        ]
      },
      "properties": {
        "label": "Pulmonary eosinophilia",
        "level": 5,
        "pos": "152263.952,14376.664",
        "src_id": "184506",
        "weight": "2.7182752053568487e-05"
      }
    },
    {
      "type": "Feature",
      "id": "1509",
      "geometry": {
        "type": "Point",
        "coordinates": [
          -52.176797,
          -7.588805
        ]
      },
      "properties": {
        "label": "Ranibizumab",
        "level": 4,
        "pos": "-195781.314,-42163.071",
        "src_id": "1253",
        "weight": "0.00012654722878619183"
      }
    },
    {
      "type": "Feature",
      "id": "1070",
      "geometry": {
        "type": "Point",
        "coordinates": [
          -54.270598,
          -7.138039
        ]
      },
      "properties": {
        "label": "Solifenacin",
        "level": 4,
        "pos": "-204262.044,-40033.321",
        "src_id": "1524",
        "weight": "0.00016950356385776546"
      }
    },
    {
      "type": "Feature",
      "id": "2340",
      "geometry": {
        "type": "Point",
        "coordinates": [
          -50.701192,
          -4.994064
        ]
      },
      "properties": {
        "label": "Torcetrapib",
        "level": 5,
        "pos": "-189804.523,-29930.0",
        "src_id": "5532",
        "weight": "9.421489431103846e-05"
      }
    },
    {
      "type": "Feature",
      "id": "986",
      "geometry": {
        "type": "Point",
        "coordinates": [
          -26.756971,
          48.505822
        ]
      },
      "properties": {
        "label": "Gemtuzumab ozogamicin",
        "level": 4,
        "pos": "-92820.847,254115.49",
        "src_id": "55",
        "weight": "0.00017600494543908174"
      }
    },
    {
      "type": "Feature",
      "id": "964",
      "geometry": {
        "type": "Point",
        "coordinates": [
          -27.890642,
          50.866558
        ]
      },
      "properties": {
        "label": "Zoledronic acid",
        "level": 4,
        "pos": "-97412.66799999999,271217.882",
        "src_id": "388",
        "weight": "0.00017741263482434218"
      }
    },
    {
      "type": "Feature",
      "id": "963",
      "geometry": {
        "type": "Point",
        "coordinates": [
          -26.198671,
          51.266575
        ]
      },
      "properties": {
        "label": "Almotriptan",
        "level": 4,
        "pos": "-90559.50799999999,274200.611",
        "src_id": "904",
        "weight": "0.0001760239096139738"
      }
    },
    {
      "type": "Feature",
      "id": "1938",
      "geometry": {
        "type": "Point",
        "coordinates": [
          -24.685437,
          48.803138
        ]
      },
      "properties": {
        "label": "Maxacalcitol",
        "level": 5,
        "pos": "-84430.314,256224.41900000002",
        "src_id": "5527",
        "weight": "0.00010932925633578133"
      }
    },
    {
      "type": "Feature",
      "id": "1905",
      "geometry": {
        "type": "Point",
        "coordinates": [
          -26.561097,
          48.846467
        ]
      },
      "properties": {
        "label": "Micafungin",
        "level": 5,
        "pos": "-92027.476,256532.799",
        "src_id": "1125",
        "weight": "0.00011147172264088224"
      }
    },
    {
      "type": "Feature",
      "id": "1756",
      "geometry": {
        "type": "Point",
        "coordinates": [
          -26.097115,
          49.182234
        ]
      },
      "properties": {
        "label": "Zofenopril",
        "level": 4,
        "pos": "-90148.167,258931.65",
        "src_id": "10787",
        "weight": "0.0001194218643041712"
      }
    },
    {
      "type": "Feature",
      "id": "1518",
      "geometry": {
        "type": "Point",
        "coordinates": [
          -25.848384,
          49.528044
        ]
      },
      "properties": {
        "label": "Ranolazine",
        "level": 4,
        "pos": "-89140.70599999999,261419.316",
        "src_id": "234",
        "weight": "0.00013234754673247196"
      }
    },
    {
      "type": "Feature",
      "id": "2067",
      "geometry": {
        "type": "Point",
        "coordinates": [
          14.647845,
          -25.084
        ]
      },
      "properties": {
        "label": "Trastuzumab",
        "level": 4,
        "pos": "74885.21299999999,-127982.17300000001",
        "src_id": "70",
        "weight": "0.00012719355089990897"
      }
    },
    {
      "type": "Feature",
      "id": "5784",
      "geometry": {
        "type": "Point",
        "coordinates": [
          10.426311,
          -21.294055
        ]
      },
      "properties": {
        "label": "Bosutinib",
        "level": 5,
        "pos": "57786.312000000005,-108657.77",
        "src_id": "5702",
        "weight": "4.769060826305779e-05"
      }
    },
    {
      "type": "Feature",
      "id": "8825",
      "geometry": {
        "type": "Point",
        "coordinates": [
          19.241246,
          -29.10246
        ]
      },
      "properties": {
        "label": "Geldanamycin",
        "level": 6,
        "pos": "93490.321,-149139.218",
        "src_id": "2300",
        "weight": "1.92350133690762e-05"
      }
    },
    {
      "type": "Feature",
      "id": "2520",
      "geometry": {
        "type": "Point",
        "coordinates": [
          15.175477,
          -25.545823
        ]
      },
      "properties": {
        "label": "Ipilimumab",
        "level": 5,
        "pos": "77022.334,-130376.047",
        "src_id": "5462",
        "weight": "8.72540374201825e-05"
      }
    },
    {
      "type": "Feature",
      "id": "5309",
      "geometry": {
        "type": "Point",
        "coordinates": [
          6.056096,
          -18.284799
        ]
      },
      "properties": {
        "label": "Vemurafenib",
        "level": 5,
        "pos": "40085.194,-93669.951",
        "src_id": "7840",
        "weight": "5.976598617898379e-05"
      }
    },
    {
      "type": "Feature",
      "id": "5783",
      "geometry": {
        "type": "Point",
        "coordinates": [
          14.91055,
          -24.50491
        ]
      },
      "properties": {
        "label": "Ponatinib",
        "level": 5,
        "pos": "75949.275,-124993.138",
        "src_id": "7860",
        "weight": "4.769060826305778e-05"
      }
    },
    {
      "type": "Feature",
      "id": "763",
      "geometry": {
        "type": "Point",
        "coordinates": [
          -57.256024,
          42.356463
        ]
      },
      "properties": {
        "label": "Ibritumomab tiuxetan",
        "level": 4,
        "pos": "-216354.20500000002,212995.12999999998",
        "src_id": "75",
        "weight": "0.0002023627304635916"
      }
    },
    {
      "type": "Feature",
      "id": "521",
      "geometry": {
        "type": "Point",
        "coordinates": [
          -51.64859,
          40.468089
        ]
      },
      "properties": {
        "label": "Bortezomib",
        "level": 3,
        "pos": "-193641.863,201195.335",
        "src_id": "179",
        "weight": "0.00024441343714673045"
      }
    },
    {
      "type": "Feature",
      "id": "700",
      "geometry": {
        "type": "Point",
        "coordinates": [
          -53.716495,
          42.005643
        ]
      },
      "properties": {
        "label": "Adefovir Dipivoxil",
        "level": 4,
        "pos": "-202017.696,210776.771",
        "src_id": "704",
        "weight": "0.00020960462995981403"
      }
    },
    {
      "type": "Feature",
      "id": "745",
      "geometry": {
        "type": "Point",
        "coordinates": [
          -54.110658,
          42.71912
        ]
      },
      "properties": {
        "label": "Lenalidomide",
        "level": 4,
        "pos": "-203614.218,215301.401",
        "src_id": "469",
        "weight": "0.00020554501780872705"
      }
    },
    {
      "type": "Feature",
      "id": "367",
      "geometry": {
        "type": "Point",
        "coordinates": [
          -54.395576,
          43.170056
        ]
      },
      "properties": {
        "label": "Atazanavir",
        "level": 3,
        "pos": "-204768.249,218187.949",
        "src_id": "1056",
        "weight": "0.00026712745423593796"
      }
    },
    {
      "type": "Feature",
      "id": "870",
      "geometry": {
        "type": "Point",
        "coordinates": [
          -56.353854,
          42.737937
        ]
      },
      "properties": {
        "label": "Clevudine",
        "level": 4,
        "pos": "-212700.063,215421.42799999999",
        "src_id": "5745",
        "weight": "0.00019035226778660062"
      }
    },
    {
      "type": "Feature",
      "id": "896",
      "geometry": {
        "type": "Point",
        "coordinates": [
          -56.510167,
          44.595406
        ]
      },
      "properties": {
        "label": "Mecasermin",
        "level": 4,
        "pos": "-213333.189,227455.02",
        "src_id": "1260",
        "weight": "0.00018413238096631204"
      }
    },
    {
      "type": "Feature",
      "id": "628",
      "geometry": {
        "type": "Point",
        "coordinates": [
          -59.769783,
          44.583431
        ]
      },
      "properties": {
        "label": "Clofarabine",
        "level": 4,
        "pos": "-226535.944,227376.226",
        "src_id": "618",
        "weight": "0.00021575838766468597"
      }
    },
    {
      "type": "Feature",
      "id": "770",
      "geometry": {
        "type": "Point",
        "coordinates": [
          -59.494312,
          43.802698
        ]
      },
      "properties": {
        "label": "Fulvestrant",
        "level": 4,
        "pos": "-225420.175,222273.81",
        "src_id": "933",
        "weight": "0.00019643789284726448"
      }
    },
    {
      "type": "Feature",
      "id": "1042",
      "geometry": {
        "type": "Point",
        "coordinates": [
          -59.5149,
          44.974527
        ]
      },
      "properties": {
        "label": "Decitabine",
        "level": 4,
        "pos": "-225503.56199999998,229957.973",
        "src_id": "1245",
        "weight": "0.00017213164704614893"
      }
    },
    {
      "type": "Feature",
      "id": "1274",
      "geometry": {
        "type": "Point",
        "coordinates": [
          -58.121314,
          43.061118
        ]
      },
      "properties": {
        "label": "Telbivudine",
        "level": 4,
        "pos": "-219858.978,217488.669",
        "src_id": "1248",
        "weight": "0.00015301104988431404"
      }
    },
    {
      "type": "Feature",
      "id": "1136",
      "geometry": {
        "type": "Point",
        "coordinates": [
          -57.672887,
          44.96747
        ]
      },
      "properties": {
        "label": "Aliskiren",
        "level": 4,
        "pos": "-218042.665,229911.22999999998",
        "src_id": "7974",
        "weight": "0.00015243658071588598"
      }
    },
    {
      "type": "Feature",
      "id": "1371",
      "geometry": {
        "type": "Point",
        "coordinates": [
          -18.525302,
          29.465365
        ]
      },
      "properties": {
        "label": "Daptomycin",
        "level": 4,
        "pos": "-59479.30499999999,138090.194",
        "src_id": "76",
        "weight": "0.00012847203919727707"
      }
    },
    {
      "type": "Feature",
      "id": "1132",
      "geometry": {
        "type": "Point",
        "coordinates": [
          -20.129058,
          29.418854
        ]
      },
      "properties": {
        "label": "Stavudine",
        "level": 4,
        "pos": "-65975.149,137839.931",
        "src_id": "636",
        "weight": "0.00015303799615871933"
      }
    },
    {
      "type": "Feature",
      "id": "677",
      "geometry": {
        "type": "Point",
        "coordinates": [
          -17.209272,
          30.093634
        ]
      },
      "properties": {
        "label": "Nevirapine",
        "level": 4,
        "pos": "-54148.846,141482.054",
        "src_id": "229",
        "weight": "0.0002109060311969859"
      }
    },
    {
      "type": "Feature",
      "id": "788",
      "geometry": {
        "type": "Point",
        "coordinates": [
          -18.25368,
          29.975294
        ]
      },
      "properties": {
        "label": "Lamivudine",
        "level": 4,
        "pos": "-58379.116,140841.53100000002",
        "src_id": "695",
        "weight": "0.00019885044802136071"
      }
    },
    {
      "type": "Feature",
      "id": "35",
      "geometry": {
        "type": "Point",
        "coordinates": [
          -17.150969,
          29.216114
        ]
      },
      "properties": {
        "label": "Infant",
        "level": 1,
        "pos": "-53912.700000000004,136750.387",
        "src_id": "178934",
        "weight": "0.0009009347057125105"
      }
    },
    {
      "type": "Feature",
      "id": "969",
      "geometry": {
        "type": "Point",
        "coordinates": [
          -38.277844,
          4.346779
        ]
      },
      "properties": {
        "label": "Tositumomab",
        "level": 4,
        "pos": "-139484.99000000002,13888.192000000001",
        "src_id": "77",
        "weight": "0.00018107298539504578"
      }
    },
    {
      "type": "Feature",
      "id": "1203",
      "geometry": {
        "type": "Point",
        "coordinates": [
          -40.601886,
          3.75555
        ]
      },
      "properties": {
        "label": "Treprostinil",
        "level": 4,
        "pos": "-148898.28600000002,11110.877999999999",
        "src_id": "364",
        "weight": "0.00015287137134979765"
      }
    },
    {
      "type": "Feature",
      "id": "602",
      "geometry": {
        "type": "Point",
        "coordinates": [
          -35.338223,
          4.775394
        ]
      },
      "properties": {
        "label": "Iodine",
        "level": 4,
        "pos": "-127578.349,15902.965",
        "src_id": "5012",
        "weight": "0.00022953963111956003"
      }
    },
    {
      "type": "Feature",
      "id": "1684",
      "geometry": {
        "type": "Point",
        "coordinates": [
          -40.130885,
          4.317359
        ]
      },
      "properties": {
        "label": "Lurtotecan",
        "level": 4,
        "pos": "-146990.549,13749.939",
        "src_id": "9880",
        "weight": "0.00011606169768200768"
      }
    },
    {
      "type": "Feature",
      "id": "84",
      "geometry": {
        "type": "Point",
        "coordinates": [
          -31.412674,
          4.723842
        ]
      },
      "properties": {
        "label": "Blood phosphorus",
        "level": 2,
        "pos": "-111678.309,15660.568",
        "src_id": "172294",
        "weight": "0.0005914494043654501"
      }
    },
    {
      "type": "Feature",
      "id": "1404",
      "geometry": {
        "type": "Point",
        "coordinates": [
          -32.198024,
          4.167548
        ]
      },
      "properties": {
        "label": "Pyridoxal",
        "level": 4,
        "pos": "-114859.29000000001,13046.029",
        "src_id": "139",
        "weight": "0.00016153322770108008"
      }
    },
    {
      "type": "Feature",
      "id": "256",
      "geometry": {
        "type": "Point",
        "coordinates": [
          -33.837845,
          4.692721
        ]
      },
      "properties": {
        "label": "Creatinine",
        "level": 2,
        "pos": "-121501.218,15514.249",
        "src_id": "9515",
        "weight": "0.0004288728762301275"
      }
    },
    {
      "type": "Feature",
      "id": "2533",
      "geometry": {
        "type": "Point",
        "coordinates": [
          -33.382806,
          3.265325
        ]
      },
      "properties": {
        "label": "Chlorine",
        "level": 5,
        "pos": "-119658.13,8809.481",
        "src_id": "9054",
        "weight": "9.66873041789815e-05"
      }
    },
    {
      "type": "Feature",
      "id": "3475",
      "geometry": {
        "type": "Point",
        "coordinates": [
          -33.657989,
          5.28892
        ]
      },
      "properties": {
        "label": "Urine calcium",
        "level": 4,
        "pos": "-120772.727,18318.539",
        "src_id": "187901",
        "weight": "0.00013849241550387495"
      }
    },
    {
      "type": "Feature",
      "id": "4295",
      "geometry": {
        "type": "Point",
        "coordinates": [
          -31.336489,
          3.633508
        ]
      },
      "properties": {
        "label": "Sevelamer",
        "level": 5,
        "pos": "-111369.729,10537.829",
        "src_id": "645",
        "weight": "0.00010041013068257915"
      }
    },
    {
      "type": "Feature",
      "id": "533",
      "geometry": {
        "type": "Point",
        "coordinates": [
          -52.078503,
          42.373239
        ]
      },
      "properties": {
        "label": "Enfuvirtide",
        "level": 4,
        "pos": "-195383.17799999999,213101.516",
        "src_id": "102",
        "weight": "0.00023465365553437497"
      }
    },
    {
      "type": "Feature",
      "id": "694",
      "geometry": {
        "type": "Point",
        "coordinates": [
          -56.091077,
          44.226022
        ]
      },
      "properties": {
        "label": "Caspofungin",
        "level": 4,
        "pos": "-211635.709,225032.017",
        "src_id": "507",
        "weight": "0.00021254608585915733"
      }
    },
    {
      "type": "Feature",
      "id": "967",
      "geometry": {
        "type": "Point",
        "coordinates": [
          -53.940332,
          43.913436
        ]
      },
      "properties": {
        "label": "Fosamprenavir",
        "level": 4,
        "pos": "-202924.33,222993.44400000002",
        "src_id": "1283",
        "weight": "0.00017506984449755788"
      }
    },
    {
      "type": "Feature",
      "id": "1588",
      "geometry": {
        "type": "Point",
        "coordinates": [
          -25.607386,
          34.805242
        ]
      },
      "properties": {
        "label": "Choriogonadotropin alfa",
        "level": 4,
        "pos": "-88164.571,167657.698",
        "src_id": "91",
        "weight": "0.0001312369414626221"
      }
    },
    {
      "type": "Feature",
      "id": "1939",
      "geometry": {
        "type": "Point",
        "coordinates": [
          -27.512879,
          35.301857
        ]
      },
      "properties": {
        "label": "Ridaforolimus",
        "level": 5,
        "pos": "-95882.58399999999,170500.339",
        "src_id": "5498",
        "weight": "0.0001120309440545284"
      }
    },
    {
      "type": "Feature",
      "id": "1235",
      "geometry": {
        "type": "Point",
        "coordinates": [
          -26.843918,
          35.659228
        ]
      },
      "properties": {
        "label": "Degarelix",
        "level": 4,
        "pos": "-93173.019,172556.75400000002",
        "src_id": "5759",
        "weight": "0.0001609654736928572"
      }
    },
    {
      "type": "Feature",
      "id": "1473",
      "geometry": {
        "type": "Point",
        "coordinates": [
          -27.98903,
          35.707771
        ]
      },
      "properties": {
        "label": "Tanespimycin",
        "level": 4,
        "pos": "-97811.183,172836.786",
        "src_id": "4824",
        "weight": "0.00014056696228207838"
      }
    },
    {
      "type": "Feature",
      "id": "1927",
      "geometry": {
        "type": "Point",
        "coordinates": [
          -31.821636,
          37.652764
        ]
      },
      "properties": {
        "label": "Regadenoson",
        "level": 4,
        "pos": "-113334.775,184202.004",
        "src_id": "5487",
        "weight": "0.00011226289987743585"
      }
    },
    {
      "type": "Feature",
      "id": "2805",
      "geometry": {
        "type": "Point",
        "coordinates": [
          -26.263667,
          35.292785
        ]
      },
      "properties": {
        "label": "Fluticasone furoate",
        "level": 5,
        "pos": "-90822.77100000001,170448.261",
        "src_id": "7865",
        "weight": "9.638656351241034e-05"
      }
    },
    {
      "type": "Feature",
      "id": "2506",
      "geometry": {
        "type": "Point",
        "coordinates": [
          -23.376633,
          34.111875
        ]
      },
      "properties": {
        "label": "Ticagrelor",
        "level": 5,
        "pos": "-79129.13399999999,163717.308",
        "src_id": "7793",
        "weight": "0.0001064287651047334"
      }
    },
    {
      "type": "Feature",
      "id": "385",
      "geometry": {
        "type": "Point",
        "coordinates": [
          -45.560191,
          55.23098
        ]
      },
      "properties": {
        "label": "Natalizumab",
        "level": 3,
        "pos": "-168981.41100000002,305275.278",
        "src_id": "101",
        "weight": "0.00026588064964087996"
      }
    },
    {
      "type": "Feature",
      "id": "589",
      "geometry": {
        "type": "Point",
        "coordinates": [
          -42.24861,
          53.357897
        ]
      },
      "properties": {
        "label": "Lumiracoxib",
        "level": 4,
        "pos": "-155568.17799999999,290233.437",
        "src_id": "1266",
        "weight": "0.00022846080990390438"
      }
    },
    {
      "type": "Feature",
      "id": "992",
      "geometry": {
        "type": "Point",
        "coordinates": [
          -42.873476,
          54.480233
        ]
      },
      "properties": {
        "label": "Tipranavir",
        "level": 4,
        "pos": "-158099.138,299163.903",
        "src_id": "918",
        "weight": "0.00017892346334609486"
      }
    },
    {
      "type": "Feature",
      "id": "1240",
      "geometry": {
        "type": "Point",
        "coordinates": [
          -41.84142,
          52.667362
        ]
      },
      "properties": {
        "label": "Vatalanib",
        "level": 4,
        "pos": "-153918.899,284855.177",
        "src_id": "4601",
        "weight": "0.00015287427449921974"
      }
    },
    {
      "type": "Feature",
      "id": "2033",
      "geometry": {
        "type": "Point",
        "coordinates": [
          -11.230864,
          5.434045
        ]
      },
      "properties": {
        "label": "Daclizumab",
        "level": 4,
        "pos": "-29933.911,19001.553",
        "src_id": "104",
        "weight": "0.00011593499863867207"
      }
    },
    {
      "type": "Feature",
      "id": "1865",
      "geometry": {
        "type": "Point",
        "coordinates": [
          -9.703398,
          4.879771
        ]
      },
      "properties": {
        "label": "Raloxifene",
        "level": 4,
        "pos": "-23747.064000000002,16393.787",
        "src_id": "470",
        "weight": "0.00012015709145732095"
      }
    },
    {
      "type": "Feature",
      "id": "2031",
      "geometry": {
        "type": "Point",
        "coordinates": [
          -8.945344,
          5.345605
        ]
      },
      "properties": {
        "label": "Bicalutamide",
        "level": 4,
        "pos": "-20676.642,18585.3",
        "src_id": "1112",
        "weight": "0.00011804780518494318"
      }
    },
    {
      "type": "Feature",
      "id": "8195",
      "geometry": {
        "type": "Point",
        "coordinates": [
          -7.314315,
          4.520284
        ]
      },
      "properties": {
        "label": "Doxifluridine",
        "level": 5,
        "pos": "-14070.321,14703.633",
        "src_id": "10576",
        "weight": "2.141113309724494e-05"
      }
    },
    {
      "type": "Feature",
      "id": "2122",
      "geometry": {
        "type": "Point",
        "coordinates": [
          -3.286743,
          4.913519
        ]
      },
      "properties": {
        "label": "Genistein",
        "level": 5,
        "pos": "2242.957,16552.5",
        "src_id": "1576",
        "weight": "0.00011031916438901122"
      }
    },
    {
      "type": "Feature",
      "id": "132",
      "geometry": {
        "type": "Point",
        "coordinates": [
          17.585676,
          -17.615474
        ]
      },
      "properties": {
        "label": "Nervous system disorder",
        "level": 2,
        "pos": "86784.598,-90373.164",
        "src_id": "181695",
        "weight": "0.0005613090923687902"
      }
    },
    {
      "type": "Feature",
      "id": "7805",
      "geometry": {
        "type": "Point",
        "coordinates": [
          14.962379,
          -16.920078
        ]
      },
      "properties": {
        "label": "Sepia",
        "level": 6,
        "pos": "76159.201,-86960.883",
        "src_id": "240755",
        "weight": "1.9413514204479206e-05"
      }
    },
    {
      "type": "Feature",
      "id": "6796",
      "geometry": {
        "type": "Point",
        "coordinates": [
          13.494838,
          -15.457211
        ]
      },
      "properties": {
        "label": "Flounder",
        "level": 5,
        "pos": "70215.07400000001,-79823.003",
        "src_id": "8601",
        "weight": "7.347988085338771e-05"
      }
    },
    {
      "type": "Feature",
      "id": "8953",
      "geometry": {
        "type": "Point",
        "coordinates": [
          16.452425,
          -17.300049
        ]
      },
      "properties": {
        "label": "Hepatitis A Vaccine",
        "level": 6,
        "pos": "82194.476,-88823.788",
        "src_id": "8985",
        "weight": "1.698605701909142e-05"
      }
    },
    {
      "type": "Feature",
      "id": "9135",
      "geometry": {
        "type": "Point",
        "coordinates": [
          14.035409,
          -15.92099
        ]
      },
      "properties": {
        "label": "Acetonaemic vomiting",
        "level": 6,
        "pos": "72404.604,-82080.264",
        "src_id": "169624",
        "weight": "1.6600257220442452e-05"
      }
    },
    {
      "type": "Feature",
      "id": "8924",
      "geometry": {
        "type": "Point",
        "coordinates": [
          15.960683,
          -16.386196
        ]
      },
      "properties": {
        "label": "Cerebrosclerosis",
        "level": 6,
        "pos": "80202.72799999999,-84349.70800000001",
        "src_id": "173407",
        "weight": "1.692598843828624e-05"
      }
    },
    {
      "type": "Feature",
      "id": "8772",
      "geometry": {
        "type": "Point",
        "coordinates": [
          16.983259,
          -16.870312
        ]
      },
      "properties": {
        "label": "Clang associations",
        "level": 6,
        "pos": "84344.566,-86717.168",
        "src_id": "173773",
        "weight": "1.7784624163995375e-05"
      }
    },
    {
      "type": "Feature",
      "id": "8916",
      "geometry": {
        "type": "Point",
        "coordinates": [
          7.653032,
          -13.486137
        ]
      },
      "properties": {
        "label": "Congenital melanosis",
        "level": 6,
        "pos": "46553.419,-70283.842",
        "src_id": "174211",
        "weight": "1.704809966005707e-05"
      }
    },
    {
      "type": "Feature",
      "id": "7019",
      "geometry": {
        "type": "Point",
        "coordinates": [
          8.920635,
          -13.484022
        ]
      },
      "properties": {
        "label": "X-ray with contrast",
        "level": 5,
        "pos": "51687.716,-70273.654",
        "src_id": "188951",
        "weight": "2.2660746435595184e-05"
      }
    },
    {
      "type": "Feature",
      "id": "885",
      "geometry": {
        "type": "Point",
        "coordinates": [
          -14.589957,
          -7.287943
        ]
      },
      "properties": {
        "label": "Muscle contracture",
        "level": 3,
        "pos": "-43539.579000000005,-40741.341",
        "src_id": "181240",
        "weight": "0.0002976768431779877"
      }
    },
    {
      "type": "Feature",
      "id": "8214",
      "geometry": {
        "type": "Point",
        "coordinates": [
          -16.585879,
          -6.309274
        ]
      },
      "properties": {
        "label": "Idelalisib",
        "level": 6,
        "pos": "-51623.85600000001,-36123.005",
        "src_id": "8000",
        "weight": "1.8277147845691888e-05"
      }
    },
    {
      "type": "Feature",
      "id": "4030",
      "geometry": {
        "type": "Point",
        "coordinates": [
          -1.839085,
          -10.579226
        ]
      },
      "properties": {
        "label": "Propofol infusion syndrome",
        "level": 5,
        "pos": "8106.545000000001,-56355.128",
        "src_id": "184258",
        "weight": "4.296261863962736e-05"
      }
    },
    {
      "type": "Feature",
      "id": "285",
      "geometry": {
        "type": "Point",
        "coordinates": [
          2.536924,
          -11.964883
        ]
      },
      "properties": {
        "label": "Dyspnoea",
        "level": 2,
        "pos": "25831.136000000002,-62975.873",
        "src_id": "175501",
        "weight": "0.00047997898577498697"
      }
    },
    {
      "type": "Feature",
      "id": "1315",
      "geometry": {
        "type": "Point",
        "coordinates": [
          -1.910432,
          -11.074658
        ]
      },
      "properties": {
        "label": "Cardio-respiratory arrest",
        "level": 4,
        "pos": "7817.572,-58718.691999999995",
        "src_id": "173121",
        "weight": "0.00019431568901440494"
      }
    },
    {
      "type": "Feature",
      "id": "8366",
      "geometry": {
        "type": "Point",
        "coordinates": [
          4.003217,
          -12.395875
        ]
      },
      "properties": {
        "label": "Gastric neoplasm",
        "level": 6,
        "pos": "31770.207,-65041.91",
        "src_id": "177097",
        "weight": "1.8659314530213668e-05"
      }
    },
    {
      "type": "Feature",
      "id": "7906",
      "geometry": {
        "type": "Point",
        "coordinates": [
          -4.763241,
          -9.557279
        ]
      },
      "properties": {
        "label": "Glomus jugulare tumour",
        "level": 6,
        "pos": "-3737.45,-51491.573000000004",
        "src_id": "177416",
        "weight": "1.9709942744055297e-05"
      }
    },
    {
      "type": "Feature",
      "id": "1566",
      "geometry": {
        "type": "Point",
        "coordinates": [
          -54.637693,
          -0.86538
        ]
      },
      "properties": {
        "label": "Ademetionine",
        "level": 4,
        "pos": "-205748.916,-10554.446",
        "src_id": "111",
        "weight": "0.00013204000222189074"
      }
    },
    {
      "type": "Feature",
      "id": "1827",
      "geometry": {
        "type": "Point",
        "coordinates": [
          -56.434397,
          -2.530196
        ]
      },
      "properties": {
        "label": "Fenretinide",
        "level": 4,
        "pos": "-213026.295,-18359.085",
        "src_id": "4769",
        "weight": "0.00011634483705926179"
      }
    },
    {
      "type": "Feature",
      "id": "2388",
      "geometry": {
        "type": "Point",
        "coordinates": [
          -51.879943,
          -0.905228
        ]
      },
      "properties": {
        "label": "Combretastatin",
        "level": 5,
        "pos": "-194578.934,-10741.193000000001",
        "src_id": "10241",
        "weight": "8.941035527956687e-05"
      }
    },
    {
      "type": "Feature",
      "id": "6500",
      "geometry": {
        "type": "Point",
        "coordinates": [
          -56.122129,
          -1.375414
        ]
      },
      "properties": {
        "label": "S-adenosyl-L-homocysteine",
        "level": 5,
        "pos": "-211761.478,-12944.812",
        "src_id": "1674",
        "weight": "2.431140506644169e-05"
      }
    },
    {
      "type": "Feature",
      "id": "1627",
      "geometry": {
        "type": "Point",
        "coordinates": [
          -56.021,
          -1.929985
        ]
      },
      "properties": {
        "label": "Lixivaptan",
        "level": 4,
        "pos": "-211351.867,-15544.485999999999",
        "src_id": "5733",
        "weight": "0.0001243014211720699"
      }
    },
    {
      "type": "Feature",
      "id": "2108",
      "geometry": {
        "type": "Point",
        "coordinates": [
          -51.864764,
          -2.94833
        ]
      },
      "properties": {
        "label": "Irofulven",
        "level": 4,
        "pos": "-194517.449,-20320.602000000003",
        "src_id": "5246",
        "weight": "0.00011389926185849027"
      }
    },
    {
      "type": "Feature",
      "id": "3577",
      "geometry": {
        "type": "Point",
        "coordinates": [
          -47.382179,
          -0.182885
        ]
      },
      "properties": {
        "label": "Idursulfase",
        "level": 5,
        "pos": "-176361.191,-7356.290000000001",
        "src_id": "1254",
        "weight": "6.435598780472378e-05"
      }
    },
    {
      "type": "Feature",
      "id": "3576",
      "geometry": {
        "type": "Point",
        "coordinates": [
          -53.326415,
          -0.366934
        ]
      },
      "properties": {
        "label": "Vildagliptin",
        "level": 5,
        "pos": "-200437.716,-8218.705",
        "src_id": "4598",
        "weight": "6.435598780472378e-05"
      }
    },
    {
      "type": "Feature",
      "id": "3575",
      "geometry": {
        "type": "Point",
        "coordinates": [
          -50.964727,
          -0.158088
        ]
      },
      "properties": {
        "label": "Alfimeprase",
        "level": 5,
        "pos": "-190871.93899999998,-7240.1",
        "src_id": "4637",
        "weight": "6.435598780472378e-05"
      }
    },
    {
      "type": "Feature",
      "id": "3574",
      "geometry": {
        "type": "Point",
        "coordinates": [
          -52.111522,
          0.337823
        ]
      },
      "properties": {
        "label": "Canfosfamide",
        "level": 5,
        "pos": "-195516.924,-4916.374",
        "src_id": "4681",
        "weight": "6.435598780472378e-05"
      }
    },
    {
      "type": "Feature",
      "id": "3573",
      "geometry": {
        "type": "Point",
        "coordinates": [
          -55.362621,
          0.156695
        ]
      },
      "properties": {
        "label": "Labetuzumab",
        "level": 5,
        "pos": "-208685.17299999998,-5765.099",
        "src_id": "4787",
        "weight": "6.435598780472378e-05"
      }
    },
    {
      "type": "Feature",
      "id": "3572",
      "geometry": {
        "type": "Point",
        "coordinates": [
          -54.050057,
          0.697602
        ]
      },
      "properties": {
        "label": "Tetomilast",
        "level": 5,
        "pos": "-203368.764,-3230.4629999999997",
        "src_id": "4954",
        "weight": "6.435598780472378e-05"
      }
    },
    {
      "type": "Feature",
      "id": "3570",
      "geometry": {
        "type": "Point",
        "coordinates": [
          -54.586782,
          1.273067
        ]
      },
      "properties": {
        "label": "Repinotan",
        "level": 5,
        "pos": "-205542.712,-533.5569999999999",
        "src_id": "5640",
        "weight": "6.435598780472378e-05"
      }
    },
    {
      "type": "Feature",
      "id": "3569",
      "geometry": {
        "type": "Point",
        "coordinates": [
          -52.657671,
          1.19399
        ]
      },
      "properties": {
        "label": "Enclomiphene",
        "level": 5,
        "pos": "-197729.042,-904.181",
        "src_id": "5794",
        "weight": "6.435598780472378e-05"
      }
    },
    {
      "type": "Feature",
      "id": "418",
      "geometry": {
        "type": "Point",
        "coordinates": [
          7.214984,
          17.15924
        ]
      },
      "properties": {
        "label": "Choline",
        "level": 3,
        "pos": "44779.15,75134.32299999999",
        "src_id": "115",
        "weight": "0.00030260201974311395"
      }
    },
    {
      "type": "Feature",
      "id": "1067",
      "geometry": {
        "type": "Point",
        "coordinates": [
          7.492435,
          18.642074
        ]
      },
      "properties": {
        "label": "Nicotinamide",
        "level": 3,
        "pos": "45902.938,82436.238",
        "src_id": "2556",
        "weight": "0.0002697354707044546"
      }
    },
    {
      "type": "Feature",
      "id": "3568",
      "geometry": {
        "type": "Point",
        "coordinates": [
          5.333485,
          15.479487
        ]
      },
      "properties": {
        "label": "Inositol nicotinate",
        "level": 5,
        "pos": "37158.329000000005,66932.632",
        "src_id": "7903",
        "weight": "0.00010641349354430778"
      }
    },
    {
      "type": "Feature",
      "id": "2337",
      "geometry": {
        "type": "Point",
        "coordinates": [
          8.761337,
          19.516854
        ]
      },
      "properties": {
        "label": "Hot flush",
        "level": 4,
        "pos": "51042.495,86773.557",
        "src_id": "178313",
        "weight": "0.0001410410178104684"
      }
    },
    {
      "type": "Feature",
      "id": "1419",
      "geometry": {
        "type": "Point",
        "coordinates": [
          8.585888,
          19.917269
        ]
      },
      "properties": {
        "label": "Adenine",
        "level": 4,
        "pos": "50331.865,88766.671",
        "src_id": "164",
        "weight": "0.0001549455700200597"
      }
    },
    {
      "type": "Feature",
      "id": "919",
      "geometry": {
        "type": "Point",
        "coordinates": [
          12.52405,
          21.988665
        ]
      },
      "properties": {
        "label": "Glycerin",
        "level": 3,
        "pos": "66282.98700000001,99160.73199999999",
        "src_id": "8332",
        "weight": "0.0003195450107718545"
      }
    },
    {
      "type": "Feature",
      "id": "3773",
      "geometry": {
        "type": "Point",
        "coordinates": [
          10.170699,
          21.011245
        ]
      },
      "properties": {
        "label": "Dexpanthenol",
        "level": 5,
        "pos": "56750.978,94238.183",
        "src_id": "8294",
        "weight": "0.00010146661857313414"
      }
    },
    {
      "type": "Feature",
      "id": "8092",
      "geometry": {
        "type": "Point",
        "coordinates": [
          10.582473,
          21.635867
        ]
      },
      "properties": {
        "label": "Nicotinamide increased",
        "level": 6,
        "pos": "58418.83,97380.12000000001",
        "src_id": "181821",
        "weight": "1.9098125998216586e-05"
      }
    },
    {
      "type": "Feature",
      "id": "1297",
      "geometry": {
        "type": "Point",
        "coordinates": [
          3.530007,
          12.328626
        ]
      },
      "properties": {
        "label": "Biotin",
        "level": 3,
        "pos": "29853.524,51720.646",
        "src_id": "114",
        "weight": "0.0002454726789812667"
      }
    },
    {
      "type": "Feature",
      "id": "5553",
      "geometry": {
        "type": "Point",
        "coordinates": [
          7.292865,
          17.681422
        ]
      },
      "properties": {
        "label": "Nylidrin",
        "level": 5,
        "pos": "45094.599,77698.766",
        "src_id": "5440",
        "weight": "6.23910179112589e-05"
      }
    },
    {
      "type": "Feature",
      "id": "5292",
      "geometry": {
        "type": "Point",
        "coordinates": [
          11.901783,
          22.662921
        ]
      },
      "properties": {
        "label": "Blood gonadotrophin",
        "level": 5,
        "pos": "63762.562000000005,102576.178",
        "src_id": "172161",
        "weight": "3.729877219915747e-05"
      }
    },
    {
      "type": "Feature",
      "id": "1123",
      "geometry": {
        "type": "Point",
        "coordinates": [
          11.14925,
          20.426324
        ]
      },
      "properties": {
        "label": "Salicylic acid",
        "level": 4,
        "pos": "60714.498,91307.861",
        "src_id": "922",
        "weight": "0.00020636216278226475"
      }
    },
    {
      "type": "Feature",
      "id": "5366",
      "geometry": {
        "type": "Point",
        "coordinates": [
          15.079111,
          23.072158
        ]
      },
      "properties": {
        "label": "Analgesic drug level increased",
        "level": 5,
        "pos": "76632.011,104657.335",
        "src_id": "170271",
        "weight": "5.885434323470055e-05"
      }
    },
    {
      "type": "Feature",
      "id": "8141",
      "geometry": {
        "type": "Point",
        "coordinates": [
          15.132955,
          23.949823
        ]
      },
      "properties": {
        "label": "Electrocauterisation",
        "level": 6,
        "pos": "76850.095,109142.24",
        "src_id": "175710",
        "weight": "1.8823705468963807e-05"
      }
    },
    {
      "type": "Feature",
      "id": "3672",
      "geometry": {
        "type": "Point",
        "coordinates": [
          17.631585,
          25.566004
        ]
      },
      "properties": {
        "label": "Dry eye",
        "level": 4,
        "pos": "86970.552,117482.195",
        "src_id": "175418",
        "weight": "0.0002174001888972861"
      }
    },
    {
      "type": "Feature",
      "id": "3772",
      "geometry": {
        "type": "Point",
        "coordinates": [
          16.523882,
          24.958161
        ]
      },
      "properties": {
        "label": "Mineral oil",
        "level": 5,
        "pos": "82483.91100000001,114332.77699999999",
        "src_id": "9013",
        "weight": "7.528221652215332e-05"
      }
    },
    {
      "type": "Feature",
      "id": "923",
      "geometry": {
        "type": "Point",
        "coordinates": [
          2.649642,
          12.010112
        ]
      },
      "properties": {
        "label": "Cyanocobalamin",
        "level": 3,
        "pos": "26287.686999999998,50193.864",
        "src_id": "108",
        "weight": "0.0003313386872959438"
      }
    },
    {
      "type": "Feature",
      "id": "3161",
      "geometry": {
        "type": "Point",
        "coordinates": [
          5.623153,
          14.476643
        ]
      },
      "properties": {
        "label": "Biotinidase deficiency",
        "level": 5,
        "pos": "38331.598999999995,62068.209",
        "src_id": "171757",
        "weight": "9.252109935985566e-05"
      }
    },
    {
      "type": "Feature",
      "id": "4939",
      "geometry": {
        "type": "Point",
        "coordinates": [
          6.736791,
          16.188668
        ]
      },
      "properties": {
        "label": "Biotin deficiency",
        "level": 5,
        "pos": "42842.28,70386.771",
        "src_id": "171756",
        "weight": "5.721717311973241e-05"
      }
    },
    {
      "type": "Feature",
      "id": "8448",
      "geometry": {
        "type": "Point",
        "coordinates": [
          7.271129,
          18.183234
        ]
      },
      "properties": {
        "label": "Trapidil",
        "level": 5,
        "pos": "45006.559,80170.211",
        "src_id": "8223",
        "weight": "3.773835998953397e-05"
      }
    },
    {
      "type": "Feature",
      "id": "538",
      "geometry": {
        "type": "Point",
        "coordinates": [
          6.177802,
          17.186672
        ]
      },
      "properties": {
        "label": "L-Glutamine",
        "level": 3,
        "pos": "40578.152,75268.857",
        "src_id": "122",
        "weight": "0.0003761780210401374"
      }
    },
    {
      "type": "Feature",
      "id": "317",
      "geometry": {
        "type": "Point",
        "coordinates": [
          9.163347,
          20.613368
        ]
      },
      "properties": {
        "label": "Heparin",
        "level": 3,
        "pos": "52670.796,92243.67700000001",
        "src_id": "1093",
        "weight": "0.00039402288415170037"
      }
    },
    {
      "type": "Feature",
      "id": "924",
      "geometry": {
        "type": "Point",
        "coordinates": [
          9.684992,
          22.132882
        ]
      },
      "properties": {
        "label": "Creatine",
        "level": 3,
        "pos": "54783.67,99889.88100000001",
        "src_id": "140",
        "weight": "0.00028456885646962603"
      }
    },
    {
      "type": "Feature",
      "id": "699",
      "geometry": {
        "type": "Point",
        "coordinates": [
          7.653496,
          19.497476
        ]
      },
      "properties": {
        "label": "L-Carnitine",
        "level": 3,
        "pos": "46555.304,86677.234",
        "src_id": "570",
        "weight": "0.0003333736406650516"
      }
    },
    {
      "type": "Feature",
      "id": "404",
      "geometry": {
        "type": "Point",
        "coordinates": [
          6.538055,
          17.618899
        ]
      },
      "properties": {
        "label": "Ammonia",
        "level": 3,
        "pos": "42037.318,77391.327",
        "src_id": "9063",
        "weight": "0.0003723372945415884"
      }
    },
    {
      "type": "Feature",
      "id": "5391",
      "geometry": {
        "type": "Point",
        "coordinates": [
          5.915223,
          16.495969
        ]
      },
      "properties": {
        "label": "Glucosamine",
        "level": 5,
        "pos": "39514.596,71887.33600000001",
        "src_id": "1274",
        "weight": "6.742749672278239e-05"
      }
    },
    {
      "type": "Feature",
      "id": "6654",
      "geometry": {
        "type": "Point",
        "coordinates": [
          11.285239,
          22.156286
        ]
      },
      "properties": {
        "label": "Dequalinium",
        "level": 6,
        "pos": "61265.305,100008.284",
        "src_id": "3967",
        "weight": "2.0514029597094134e-05"
      }
    },
    {
      "type": "Feature",
      "id": "1696",
      "geometry": {
        "type": "Point",
        "coordinates": [
          11.386517,
          24.196716
        ]
      },
      "properties": {
        "label": "Phosphocreatine",
        "level": 4,
        "pos": "61675.534,110409.33499999999",
        "src_id": "10803",
        "weight": "0.0001394638616591468"
      }
    },
    {
      "type": "Feature",
      "id": "1649",
      "geometry": {
        "type": "Point",
        "coordinates": [
          11.898415,
          24.760923
        ]
      },
      "properties": {
        "label": "Pentoxifylline",
        "level": 4,
        "pos": "63748.919,113314.19099999999",
        "src_id": "792",
        "weight": "0.00017991489506371814"
      }
    },
    {
      "type": "Feature",
      "id": "284",
      "geometry": {
        "type": "Point",
        "coordinates": [
          13.909725,
          24.871833
        ]
      },
      "properties": {
        "label": "L-Arginine",
        "level": 3,
        "pos": "71895.527,113886.757",
        "src_id": "117",
        "weight": "0.00040843766941926556"
      }
    },
    {
      "type": "Feature",
      "id": "269",
      "geometry": {
        "type": "Point",
        "coordinates": [
          11.754227,
          23.138468
        ]
      },
      "properties": {
        "label": "Blood lactic acid",
        "level": 2,
        "pos": "63164.895000000004,104995.15100000001",
        "src_id": "172243",
        "weight": "0.00041494578986991037"
      }
    },
    {
      "type": "Feature",
      "id": "447",
      "geometry": {
        "type": "Point",
        "coordinates": [
          9.60815,
          21.671338
        ]
      },
      "properties": {
        "label": "Urea",
        "level": 3,
        "pos": "54472.428,97558.949",
        "src_id": "3677",
        "weight": "0.0003618682053070511"
      }
    },
    {
      "type": "Feature",
      "id": "1041",
      "geometry": {
        "type": "Point",
        "coordinates": [
          10.426864,
          22.095554
        ]
      },
      "properties": {
        "label": "Hepatic encephalopathy",
        "level": 4,
        "pos": "57788.545999999995,99701.083",
        "src_id": "177890",
        "weight": "0.00019677819870243034"
      }
    },
    {
      "type": "Feature",
      "id": "4582",
      "geometry": {
        "type": "Point",
        "coordinates": [
          5.868692,
          16.985016
        ]
      },
      "properties": {
        "label": "Pirlindole",
        "level": 5,
        "pos": "39326.13,74280.316",
        "src_id": "8184",
        "weight": "6.601872006635069e-05"
      }
    },
    {
      "type": "Feature",
      "id": "5169",
      "geometry": {
        "type": "Point",
        "coordinates": [
          5.75952,
          17.998383
        ]
      },
      "properties": {
        "label": "Benzylamine",
        "level": 5,
        "pos": "38883.941,79259.001",
        "src_id": "2336",
        "weight": "3.9796417687128764e-05"
      }
    },
    {
      "type": "Feature",
      "id": "2662",
      "geometry": {
        "type": "Point",
        "coordinates": [
          10.508313,
          23.162068
        ]
      },
      "properties": {
        "label": "Decapitation",
        "level": 5,
        "pos": "58118.448000000004,105115.418",
        "src_id": "174905",
        "weight": "7.823900233174873e-05"
      }
    },
    {
      "type": "Feature",
      "id": "1098",
      "geometry": {
        "type": "Point",
        "coordinates": [
          12.535658,
          25.829671
        ]
      },
      "properties": {
        "label": "Riluzole",
        "level": 4,
        "pos": "66330.015,118853.292",
        "src_id": "726",
        "weight": "0.00023909605944621588"
      }
    },
    {
      "type": "Feature",
      "id": "379",
      "geometry": {
        "type": "Point",
        "coordinates": [
          13.703442,
          26.894044
        ]
      },
      "properties": {
        "label": "Gliosis",
        "level": 3,
        "pos": "71059.99799999999,124419.647",
        "src_id": "177390",
        "weight": "0.0003449492849703198"
      }
    },
    {
      "type": "Feature",
      "id": "1924",
      "geometry": {
        "type": "Point",
        "coordinates": [
          9.426953,
          23.814057
        ]
      },
      "properties": {
        "label": "Amyotrophic lateral sclerosis",
        "level": 4,
        "pos": "53738.509999999995,108446.507",
        "src_id": "170187",
        "weight": "0.00018848803447836797"
      }
    },