{
  "type": "FeatureCollection",
  "features": [
    {
      "type": "Feature",
      "id": "1",
      "geometry": {
        "type": "Point",
        "coordinates": [
          -19.727137,
          5.347305
        ]
      },
      "properties": {
        "height": "0.23",
        "label": "Hypoxia",
        "level": 1,
        "pos": "-16628.34,4016.02",
        "weight": "39507.25",
        "width": "0.67"
      }
    },
    {
      "type": "Feature",
      "id": "281",
      "geometry": {
        "type": "Point",
        "coordinates": [
          -17.157267,
          4.515702
        ]
      },
      "properties": {
        "height": "0.23",
        "label": "Sudden unexplained death in epilepsy",
        "level": 1,
        "pos": "-15042.15,3385.83",
        "weight": "1428.0",
        "width": "2.95"
      }
    },
    {
      "type": "Feature",
      "id": "809",
      "geometry": {
        "type": "Point",
        "coordinates": [
          -12.35465,
          2.546301
        ]
      },
      "properties": {
        "height": "0.23",
        "label": "Drowning",
        "level": 1,
        "pos": "-12077.85,1896.05",
        "weight": "0.0",
        "width": "0.79"
      }
    },
    {
      "type": "Feature",
      "id": "722",
      "geometry": {
        "type": "Point",
        "coordinates": [
          -17.078026,
          6.944438
        ]
      },
      "properties": {
        "label": "Respiratory disorder",
        "level": 6,
        "pos": "-14993.24,5228.85",
        "weight": "0.0"
      }
    },
    {
      "type": "Feature",
      "id": "10",
      "geometry": {
        "type": "Point",
        "coordinates": [
          -1.015592,
          -33.14193
        ]
      },
      "properties": {
        "height": "0.23",
        "label": "Vomiting",
        "level": 1,
        "pos": "-5079.09,-26573.58",
        "weight": "40248.25",
        "width": "0.75"
      }
    },
    {
      "type": "Feature",
      "id": "38",
      "geometry": {
        "type": "Point",
        "coordinates": [
          0.254947,
          -31.199585
        ]
      },
      "properties": {
        "height": "0.23",
        "label": "Headache",
        "level": 1,
        "pos": "-4294.88,-24840.99",
        "weight": "6447.5",
        "width": "0.77"
      }
    },
    {
      "type": "Feature",
      "id": "898",
      "geometry": {
        "type": "Point",
        "coordinates": [
          -0.62196,
          -27.268311
        ]
      },
      "properties": {
        "height": "0.23",
        "label": "Aura",
        "level": 1,
        "pos": "-4836.13,-21438.62",
        "weight": "0.0",
        "width": "0.39"
      }
    },
    {
      "type": "Feature",
      "id": "82",
      "geometry": {
        "type": "Point",
        "coordinates": [
          -4.316701,
          -32.259805
        ]
      },
      "properties": {
        "height": "0.23",
        "label": "Dizziness",
        "level": 1,
        "pos": "-7116.62,-25782.13",
        "weight": "7059.0",
        "width": "0.76"
      }
    },
    {
      "type": "Feature",
      "id": "72",
      "geometry": {
        "type": "Point",
        "coordinates": [
          2.94871,
          -29.52161
        ]
      },
      "properties": {
        "label": "Nausea",
        "level": 2,
        "pos": "-2632.22,-23372.70",
        "weight": "5603.5"
      }
    },
    {
      "type": "Feature",
      "id": "100",
      "geometry": {
        "type": "Point",
        "coordinates": [
          31.62189,
          6.643923
        ]
      },
      "properties": {
        "label": "Karyotype analysis",
        "level": 4,
        "pos": "15065.61,5000.36",
        "weight": "0.0"
      }
    },
    {
      "type": "Feature",
      "id": "116",
      "geometry": {
        "type": "Point",
        "coordinates": [
          27.178395,
          8.778948
        ]
      },
      "properties": {
        "label": "Rituximab",
        "level": 4,
        "pos": "12322.97,6627.09",
        "weight": "0.0"
      }
    },
    {
      "type": "Feature",
      "id": "120",
      "geometry": {
        "type": "Point",
        "coordinates": [
          31.700516,
          11.952
        ]
      },
      "properties": {
        "label": "Blood pyruvic acid",
        "level": 4,
        "pos": "15114.14,9062.79",
        "weight": "0.0"
      }
    },
    {
      "type": "Feature",
      "id": "92",
      "geometry": {
        "type": "Point",
        "coordinates": [
          33.79338,
          11.054709
        ]
      },
      "properties": {
        "label": "Wegener's granulomatosis",
        "level": 4,
        "pos": "16405.91,8371.45",
        "weight": "0.0"
      }
    },
    {
      "type": "Feature",
      "id": "93",
      "geometry": {
        "type": "Point",
        "coordinates": [
          32.752805,
          7.487038
        ]
      },
      "properties": {
        "label": "Teratoma",
        "level": 4,
        "pos": "15763.64,5641.78",
        "weight": "0.0"
      }
    },
    {
      "type": "Feature",
      "id": "94",
      "geometry": {
        "type": "Point",
        "coordinates": [
          24.825432,
          5.466561
        ]
      },
      "properties": {
        "label": "Red blood cell sedimentation rate",
        "level": 4,
        "pos": "10870.66,4106.46",
        "weight": "0.0"
      }
    },
    {
      "type": "Feature",
      "id": "97",
      "geometry": {
        "type": "Point",
        "coordinates": [
          26.778882,
          5.402677
        ]
      },
      "properties": {
        "label": "Porphyria",
        "level": 4,
        "pos": "12076.38,4058.01",
        "weight": "0.0"
      }
    },
    {
      "type": "Feature",
      "id": "98",
      "geometry": {
        "type": "Point",
        "coordinates": [
          24.384718,
          6.176726
        ]
      },
      "properties": {
        "label": "Plasmapheresis",
        "level": 4,
        "pos": "10598.64,4645.41",
        "weight": "0.0"
      }
    },
    {
      "type": "Feature",
      "id": "99",
      "geometry": {
        "type": "Point",
        "coordinates": [
          33.221353,
          7.538422
        ]
      },
      "properties": {
        "label": "Non-Hodgkin's lymphoma",
        "level": 4,
        "pos": "16052.84,5680.91",
        "weight": "0.0"
      }
    },
    {
      "type": "Feature",
      "id": "1000",
      "geometry": {
        "type": "Point",
        "coordinates": [
          -20.563151,
          2.288686
        ]
      },
      "properties": {
        "label": "L-Alanine",
        "level": 5,
        "pos": "-17144.35,1701.38",
        "weight": "0.0"
      }
    },
    {
      "type": "Feature",
      "id": "1001",
      "geometry": {
        "type": "Point",
        "coordinates": [
          -21.281235,
          1.546846
        ]
      },
      "properties": {
        "label": "L-Threonine",
        "level": 4,
        "pos": "-17587.57,1140.98",
        "weight": "0.0"
      }
    },
    {
      "type": "Feature",
      "id": "653",
      "geometry": {
        "type": "Point",
        "coordinates": [
          -23.321671,
          2.93455
        ]
      },
      "properties": {
        "label": "Genetic polymorphism",
        "level": 4,
        "pos": "-18846.98,2189.51",
        "weight": "23.0"
      }
    },
    {
      "type": "Feature",
      "id": "855",
      "geometry": {
        "type": "Point",
        "coordinates": [
          -20.332652,
          -0.429916
        ]
      },
      "properties": {
        "label": "Gadolinium",
        "level": 4,
        "pos": "-17002.08,-351.60",
        "weight": "104.0"
      }
    },
    {
      "type": "Feature",
      "id": "873",
      "geometry": {
        "type": "Point",
        "coordinates": [
          -25.587568,
          0.96498
        ]
      },
      "properties": {
        "label": "Imipramine",
        "level": 3,
        "pos": "-20245.55,701.57",
        "weight": "0.0"
      }
    },
    {
      "type": "Feature",
      "id": "1002",
      "geometry": {
        "type": "Point",
        "coordinates": [
          11.968778,
          -12.243101
        ]
      },
      "properties": {
        "height": "0.23",
        "label": "Methionine",
        "level": 1,
        "pos": "2935.20,-9341.59",
        "weight": "0.0",
        "width": "0.90"
      }
    },
    {
      "type": "Feature",
      "id": "529",
      "geometry": {
        "type": "Point",
        "coordinates": [
          9.387989,
          -10.583471
        ]
      },
      "properties": {
        "height": "0.23",
        "label": "Arteriosclerosis",
        "level": 1,
        "pos": "1342.27,-8063.26",
        "weight": "0.0",
        "width": "1.23"
      }
    },
    {
      "type": "Feature",
      "id": "59",
      "geometry": {
        "type": "Point",
        "coordinates": [
          15.757261,
          -11.530539
        ]
      },
      "properties": {
        "label": "Lipids",
        "level": 2,
        "pos": "5273.55,-8791.82",
        "weight": "4521.0"
      }
    },
    {
      "type": "Feature",
      "id": "638",
      "geometry": {
        "type": "Point",
        "coordinates": [
          13.79921,
          -10.411417
        ]
      },
      "properties": {
        "label": "Folic Acid",
        "level": 3,
        "pos": "4064.99,-7931.15",
        "weight": "0.0"
      }
    },
    {
      "type": "Feature",
      "id": "718",
      "geometry": {
        "type": "Point",
        "coordinates": [
          11.97197,
          -15.195577
        ]
      },
      "properties": {
        "height": "0.23",
        "label": "Cyanocobalamin",
        "level": 1,
        "pos": "2937.17,-11636.43",
        "weight": "0.0",
        "width": "1.32"
      }
    },
    {
      "type": "Feature",
      "id": "969",
      "geometry": {
        "type": "Point",
        "coordinates": [
          10.460238,
          -10.383903
        ]
      },
      "properties": {
        "label": "Hyperhomocysteinaemia",
        "level": 4,
        "pos": "2004.09,-7910.03",
        "weight": "0.0"
      }
    },
    {
      "type": "Feature",
      "id": "985",
      "geometry": {
        "type": "Point",
        "coordinates": [
          14.212608,
          -14.132513
        ]
      },
      "properties": {
        "label": "Blood homocysteine",
        "level": 4,
        "pos": "4320.15,-10806.79",
        "weight": "0.0"
      }
    },
    {
      "type": "Feature",
      "id": "656",
      "geometry": {
        "type": "Point",
        "coordinates": [
          4.290487,
          -10.124742
        ]
      },
      "properties": {
        "height": "0.23",
        "label": "Coronary artery disease",
        "level": 1,
        "pos": "-1804.04,-7711.19",
        "weight": "0.0",
        "width": "1.85"
      }
    },
    {
      "type": "Feature",
      "id": "832",
      "geometry": {
        "type": "Point",
        "coordinates": [
          14.281529,
          -16.035419
        ]
      },
      "properties": {
        "height": "0.23",
        "label": "Peripheral sensory neuropathy",
        "level": 1,
        "pos": "4362.69,-12294.81",
        "weight": "0.0",
        "width": "2.36"
      }
    },
    {
      "type": "Feature",
      "id": "1003",
      "geometry": {
        "type": "Point",
        "coordinates": [
          24.269461,
          -0.77096
        ]
      },
      "properties": {
        "label": "Vasopressin",
        "level": 2,
        "pos": "10527.50,-609.10",
        "weight": "0.0"
      }
    },
    {
      "type": "Feature",
      "id": "140",
      "geometry": {
        "type": "Point",
        "coordinates": [
          25.964286,
          1.109184
        ]
      },
      "properties": {
        "label": "Carbon dioxide",
        "level": 2,
        "pos": "11573.59,810.46",
        "weight": "4464.0"
      }
    },
    {
      "type": "Feature",
      "id": "364",
      "geometry": {
        "type": "Point",
        "coordinates": [
          22.160346,
          -1.859453
        ]
      },
      "properties": {
        "label": "Blood chloride",
        "level": 4,
        "pos": "9225.70,-1431.13",
        "weight": "4.0"
      }
    },
    {
      "type": "Feature",
      "id": "419",
      "geometry": {
        "type": "Point",
        "coordinates": [
          23.329205,
          1.069323
        ]
      },
      "properties": {
        "label": "Blood prolactin",
        "level": 2,
        "pos": "9947.15,780.36",
        "weight": "0.0"
      }
    },
    {
      "type": "Feature",
      "id": "843",
      "geometry": {
        "type": "Point",
        "coordinates": [
          25.438595,
          -0.127505
        ]
      },
      "properties": {
        "label": "Death",
        "level": 4,
        "pos": "11249.12,-123.28",
        "weight": "256.0"
      }
    },
    {
      "type": "Feature",
      "id": "522",
      "geometry": {
        "type": "Point",
        "coordinates": [
          22.09635,
          2.470122
        ]
      },
      "properties": {
        "label": "Apomorphine",
        "level": 2,
        "pos": "9186.20,1838.48",
        "weight": "0.0"
      }
    },
    {
      "type": "Feature",
      "id": "1004",
      "geometry": {
        "type": "Point",
        "coordinates": [
          10.134199,
          19.087115
        ]
      },
      "properties": {
        "label": "Lutropin alfa",
        "level": 3,
        "pos": "1802.85,14657.75",
        "weight": "0.0"
      }
    },
    {
      "type": "Feature",
      "id": "282",
      "geometry": {
        "type": "Point",
        "coordinates": [
          9.479398,
          17.046561
        ]
      },
      "properties": {
        "label": "Sexual dysfunction",
        "level": 3,
        "pos": "1398.69,13037.15",
        "weight": "2555.0"
      }
    },
    {
      "type": "Feature",
      "id": "326",
      "geometry": {
        "type": "Point",
        "coordinates": [
          10.020318,
          17.980086
        ]
      },
      "properties": {
        "label": "Ultrasound scan",
        "level": 3,
        "pos": "1732.56,13776.22",
        "weight": "695.0"
      }
    },
    {
      "type": "Feature",
      "id": "956",
      "geometry": {
        "type": "Point",
        "coordinates": [
          10.466103,
          20.604327
        ]
      },
      "properties": {
        "label": "Semen analysis",
        "level": 4,
        "pos": "2007.71,15875.60",
        "weight": "0.0"
      }
    },
    {
      "type": "Feature",
      "id": "1005",
      "geometry": {
        "type": "Point",
        "coordinates": [
          3.403276,
          8.287215
        ]
      },
      "properties": {
        "label": "Venipuncture",
        "level": 3,
        "pos": "-2351.65,6251.68",
        "weight": "0.0"
      }
    },
    {
      "type": "Feature",
      "id": "122",
      "geometry": {
        "type": "Point",
        "coordinates": [
          6.450329,
          8.826684
        ]
      },
      "properties": {
        "label": "Induction of anaesthesia",
        "level": 3,
        "pos": "-470.93,6663.56",
        "weight": "890.0"
      }
    },
    {
      "type": "Feature",
      "id": "311",
      "geometry": {
        "type": "Point",
        "coordinates": [
          3.759094,
          10.679412
        ]
      },
      "properties": {
        "label": "Loss of consciousness",
        "level": 3,
        "pos": "-2132.03,8082.93",
        "weight": "3235.0"
      }
    },
    {
      "type": "Feature",
      "id": "1006",
      "geometry": {
        "type": "Point",
        "coordinates": [
          -16.938206,
          16.558469
        ]
      },
      "properties": {
        "label": "Urinary hesitation",
        "level": 6,
        "pos": "-14906.94,12652.21",
        "weight": "0.0"
      }
    },
    {
      "type": "Feature",
      "id": "1032",
      "geometry": {
        "type": "Point",
        "coordinates": [
          -20.580001,
          15.565599
        ]
      },
      "properties": {
        "label": "Dysuria",
        "level": 3,
        "pos": "-17154.75,11872.14",
        "weight": "0.0"
      }
    },
    {
      "type": "Feature",
      "id": "344",
      "geometry": {
        "type": "Point",
        "coordinates": [
          -17.638582,
          14.216268
        ]
      },
      "properties": {
        "label": "Potassium",
        "level": 4,
        "pos": "-15339.23,10817.98",
        "weight": "316.0"
      }
    },
    {
      "type": "Feature",
      "id": "395",
      "geometry": {
        "type": "Point",
        "coordinates": [
          -21.541302,
          18.160994
        ]
      },
      "properties": {
        "label": "Urinary retention",
        "level": 3,
        "pos": "-17748.09,13919.89",
        "weight": "0.0"
      }
    },
    {
      "type": "Feature",
      "id": "669",
      "geometry": {
        "type": "Point",
        "coordinates": [
          -23.460648,
          16.039811
        ]
      },
      "properties": {
        "label": "Ezogabine",
        "level": 3,
        "pos": "-18932.76,12244.23",
        "weight": "2541.0"
      }
    },
    {
      "type": "Feature",
      "id": "1007",
      "geometry": {
        "type": "Point",
        "coordinates": [
          -22.95853,
          -17.459039
        ]
      },
      "properties": {
        "label": "Terminal insomnia",
        "level": 7,
        "pos": "-18622.84,-13417.27",
        "weight": "0.0"
      }
    },
    {
      "type": "Feature",
      "id": "1029",
      "geometry": {
        "type": "Point",
        "coordinates": [
          -22.786454,
          -19.135724
        ]
      },
      "properties": {
        "label": "Flat affect",
        "level": 7,
        "pos": "-18516.63,-14750.62",
        "weight": "0.0"
      }
    },
    {
      "type": "Feature",
      "id": "1044",
      "geometry": {
        "type": "Point",
        "coordinates": [
          -25.243026,
          -19.981076
        ]
      },
      "properties": {
        "label": "Anhedonia",
        "level": 7,
        "pos": "-20032.89,-15427.94",
        "weight": "0.0"
      }
    },
    {
      "type": "Feature",
      "id": "257",
      "geometry": {
        "type": "Point",
        "coordinates": [
          -20.968433,
          -19.060277
        ]
      },
      "properties": {
        "label": "Bipolar I disorder",
        "level": 2,
        "pos": "-17394.50,-14690.34",
        "weight": "113.0"
      }
    },
    {
      "type": "Feature",
      "id": "1008",
      "geometry": {
        "type": "Point",
        "coordinates": [
          28.182874,
          -35.019039
        ]
      },
      "properties": {
        "label": "Synovial cyst",
        "level": 5,
        "pos": "12942.96,-28284.80",
        "weight": "0.0"
      }
    },
    {
      "type": "Feature",
      "id": "244",
      "geometry": {
        "type": "Point",
        "coordinates": [
          26.312829,
          -35.799838
        ]
      },
      "properties": {
        "label": "Neuropathy peripheral",
        "level": 4,
        "pos": "11788.72,-29008.09",
        "weight": "24.0"
      }
    },
    {
      "type": "Feature",
      "id": "891",
      "geometry": {
        "type": "Point",
        "coordinates": [
          30.082778,
          -34.469976
        ]
      },
      "properties": {
        "label": "Erythromelalgia",
        "level": 5,
        "pos": "14115.63,-27780.31",
        "weight": "0.0"
      }
    },
    {
      "type": "Feature",
      "id": "827",
      "geometry": {
        "type": "Point",
        "coordinates": [
          23.930298,
          -36.046183
        ]
      },
      "properties": {
        "label": "Teratogenicity",
        "level": 4,
        "pos": "10318.16,-29237.76",
        "weight": "0.0"
      }
    },
    {
      "type": "Feature",
      "id": "1009",
      "geometry": {
        "type": "Point",
        "coordinates": [
          -37.508438,
          -18.115379
        ]
      },
      "properties": {
        "label": "Secondary progressive multiple sclerosis",
        "level": 6,
        "pos": "-27603.42,-13937.68",
        "weight": "0.0"
      }
    },
    {
      "type": "Feature",
      "id": "1038",
      "geometry": {
        "type": "Point",
        "coordinates": [
          -35.647369,
          -18.514547
        ]
      },
      "properties": {
        "label": "Cerebral atrophy",
        "level": 6,
        "pos": "-26454.72,-14255.13",
        "weight": "0.0"
      }
    },
    {
      "type": "Feature",
      "id": "1049",
      "geometry": {
        "type": "Point",
        "coordinates": [
          -33.97487,
          -20.589548
        ]
      },
      "properties": {
        "label": "Flecainide",
        "level": 6,
        "pos": "-25422.41,-15917.71",
        "weight": "0.0"
      }
    },
    {
      "type": "Feature",
      "id": "1052",
      "geometry": {
        "type": "Point",
        "coordinates": [
          -32.305967,
          -19.070179
        ]
      },
      "properties": {
        "label": "Nitric Oxide",
        "level": 6,
        "pos": "-24392.32,-14698.25",
        "weight": "0.0"
      }
    },
    {
      "type": "Feature",
      "id": "323",
      "geometry": {
        "type": "Point",
        "coordinates": [
          -36.241414,
          -15.552839
        ]
      },
      "properties": {
        "height": "0.23",
        "label": "Atrophy",
        "level": 1,
        "pos": "-26821.38,-11916.17",
        "weight": "6539.0",
        "width": "0.65"
      }
    },
    {
      "type": "Feature",
      "id": "101",
      "geometry": {
        "type": "Point",
        "coordinates": [
          32.086323,
          11.920251
        ]
      },
      "properties": {
        "label": "Growth retardation",
        "level": 4,
        "pos": "15352.27,9038.29",
        "weight": "0.0"
      }
    },
    {
      "type": "Feature",
      "id": "1010",
      "geometry": {
        "type": "Point",
        "coordinates": [
          -2.282876,
          -35.903578
        ]
      },
      "properties": {
        "label": "Schizophreniform disorder",
        "level": 5,
        "pos": "-5861.29,-29104.72",
        "weight": "0.0"
      }
    },
    {
      "type": "Feature",
      "id": "338",
      "geometry": {
        "type": "Point",
        "coordinates": [
          0.232281,
          -35.943693
        ]
      },
      "properties": {
        "label": "Schizophrenia",
        "level": 4,
        "pos": "-4308.87,-29142.12",
        "weight": "19.0"
      }
    },
    {
      "type": "Feature",
      "id": "375",
      "geometry": {
        "type": "Point",
        "coordinates": [
          3.094426,
          -36.581707
        ]
      },
      "properties": {
        "label": "Schizoaffective disorder",
        "level": 4,
        "pos": "-2542.28,-29739.53",
        "weight": "0.0"
      }
    },
    {
      "type": "Feature",
      "id": "1011",
      "geometry": {
        "type": "Point",
        "coordinates": [
          -37.507903,
          3.442615
        ]
      },
      "properties": {
        "label": "Rehabilitation therapy",
        "level": 7,
        "pos": "-27603.09,2573.69",
        "weight": "0.0"
      }
    },
    {
      "type": "Feature",
      "id": "1026",
      "geometry": {
        "type": "Point",
        "coordinates": [
          -40.109447,
          2.292233
        ]
      },
      "properties": {
        "label": "Heat therapy",
        "level": 7,
        "pos": "-29208.83,1704.06",
        "weight": "0.0"
      }
    },
    {
      "type": "Feature",
      "id": "367",
      "geometry": {
        "type": "Point",
        "coordinates": [
          -36.169641,
          4.256487
        ]
      },
      "properties": {
        "label": "Pelvic pain",
        "level": 3,
        "pos": "-26777.08,3189.55",
        "weight": "0.0"
      }
    },
    {
      "type": "Feature",
      "id": "895",
      "geometry": {
        "type": "Point",
        "coordinates": [
          -31.90135,
          3.351621
        ]
      },
      "properties": {
        "label": "Delivery",
        "level": 3,
        "pos": "-24142.58,2504.87",
        "weight": "0.0"
      }
    },
    {
      "type": "Feature",
      "id": "1012",
      "geometry": {
        "type": "Point",
        "coordinates": [
          9.085555,
          -0.565462
        ]
      },
      "properties": {
        "label": "Preoperative care",
        "level": 6,
        "pos": "1155.60,-453.94",
        "weight": "0.0"
      }
    },
    {
      "type": "Feature",
      "id": "1020",
      "geometry": {
        "type": "Point",
        "coordinates": [
          7.293569,
          -0.860873
        ]
      },
      "properties": {
        "label": "Intraoperative care",
        "level": 6,
        "pos": "49.54,-676.99",
        "weight": "0.0"
      }
    },
    {
      "type": "Feature",
      "id": "294",
      "geometry": {
        "type": "Point",
        "coordinates": [
          6.7143,
          1.349449
        ]
      },
      "properties": {
        "label": "Ketamine",
        "level": 3,
        "pos": "-308.00,991.90",
        "weight": "394.0"
      }
    },
    {
      "type": "Feature",
      "id": "1013",
      "geometry": {
        "type": "Point",
        "coordinates": [
          5.307052,
          -1.904555
        ]
      },
      "properties": {
        "label": "Postoperative care",
        "level": 6,
        "pos": "-1176.59,-1465.20",
        "weight": "0.0"
      }
    },
    {
      "type": "Feature",
      "id": "1014",
      "geometry": {
        "type": "Point",
        "coordinates": [
          8.897877,
          30.718692
        ]
      },
      "properties": {
        "label": "Post procedural discomfort",
        "level": 5,
        "pos": "1039.76,24363.57",
        "weight": "0.0"
      }
    },
    {
      "type": "Feature",
      "id": "1021",
      "geometry": {
        "type": "Point",
        "coordinates": [
          10.306145,
          29.716296
        ]
      },
      "properties": {
        "label": "Intra-uterine contraceptive device",
        "level": 5,
        "pos": "1908.98,23487.75",
        "weight": "0.0"
      }
    },
    {
      "type": "Feature",
      "id": "545",
      "geometry": {
        "type": "Point",
        "coordinates": [
          12.845864,
          27.882843
        ]
      },
      "properties": {
        "label": "Contraception",
        "level": 2,
        "pos": "3476.56,21908.02",
        "weight": "0.0"
      }
    },
    {
      "type": "Feature",
      "id": "1015",
      "geometry": {
        "type": "Point",
        "coordinates": [
          46.5833,
          18.295593
        ]
      },
      "properties": {
        "label": "Phobia",
        "level": 5,
        "pos": "24300.18,14026.88",
        "weight": "0.0"
      }
    },
    {
      "type": "Feature",
      "id": "731",
      "geometry": {
        "type": "Point",
        "coordinates": [
          48.101723,
          20.039819
        ]
      },
      "properties": {
        "label": "Generalised anxiety disorder",
        "level": 3,
        "pos": "25237.39,15421.11",
        "weight": "0.0"
      }
    },
    {
      "type": "Feature",
      "id": "989",
      "geometry": {
        "type": "Point",
        "coordinates": [
          50.150033,
          18.520036
        ]
      },
      "properties": {
        "label": "Anorgasmia",
        "level": 3,
        "pos": "26501.66,14205.47",
        "weight": "0.0"
      }
    },
    {
      "type": "Feature",
      "id": "887",
      "geometry": {
        "type": "Point",
        "coordinates": [
          50.145545,
          22.106388
        ]
      },
      "properties": {
        "label": "Hypervigilance",
        "level": 3,
        "pos": "26498.89,17093.29",
        "weight": "0.0"
      }
    },
    {
      "type": "Feature",
      "id": "1016",
      "geometry": {
        "type": "Point",
        "coordinates": [
          35.76334,
          18.614154
        ]
      },
      "properties": {
        "height": "0.23",
        "label": "Pathogen resistance",
        "level": 1,
        "pos": "17621.82,14280.43",
        "weight": "0.0",
        "width": "1.54"
      }
    },
    {
      "type": "Feature",
      "id": "206",
      "geometry": {
        "type": "Point",
        "coordinates": [
          37.75044,
          16.26815
        ]
      },
      "properties": {
        "label": "Meningitis",
        "level": 3,
        "pos": "18848.31,12423.71",
        "weight": "0.0"
      }
    },
    {
      "type": "Feature",
      "id": "421",
      "geometry": {
        "type": "Point",
        "coordinates": [
          31.293339,
          15.462324
        ]
      },
      "properties": {
        "height": "0.23",
        "label": "Apoptosis",
        "level": 1,
        "pos": "14862.82,11791.22",
        "weight": "24.0",
        "width": "0.79"
      }
    },
    {
      "type": "Feature",
      "id": "532",
      "geometry": {
        "type": "Point",
        "coordinates": [
          39.124945,
          23.062109
        ]
      },
      "properties": {
        "height": "0.23",
        "label": "Corticotropin",
        "level": 1,
        "pos": "19696.69,17874.79",
        "weight": "0.0",
        "width": "1.05"
      }
    },
    {
      "type": "Feature",
      "id": "87",
      "geometry": {
        "type": "Point",
        "coordinates": [
          35.202589,
          20.34155
        ]
      },
      "properties": {
        "label": "Adolescence",
        "level": 3,
        "pos": "17275.71,15663.83",
        "weight": "1391.0"
      }
    },
    {
      "type": "Feature",
      "id": "80",
      "geometry": {
        "type": "Point",
        "coordinates": [
          40.36501,
          17.237198
        ]
      },
      "properties": {
        "label": "Sepsis",
        "level": 3,
        "pos": "20462.09,13187.77",
        "weight": "1607.0"
      }
    },
    {
      "type": "Feature",
      "id": "544",
      "geometry": {
        "type": "Point",
        "coordinates": [
          26.868995,
          18.046782
        ]
      },
      "properties": {
        "label": "Diagnostic procedure",
        "level": 4,
        "pos": "12132.00,13829.17",
        "weight": "0.0"
      }
    },
    {
      "type": "Feature",
      "id": "610",
      "geometry": {
        "type": "Point",
        "coordinates": [
          22.265915,
          17.064479
        ]
      },
      "properties": {
        "height": "0.23",
        "label": "Cerebral ischaemia",
        "level": 1,
        "pos": "9290.86,13051.30",
        "weight": "36.0",
        "width": "1.50"
      }
    },
    {
      "type": "Feature",
      "id": "539",
      "geometry": {
        "type": "Point",
        "coordinates": [
          42.451847,
          28.32975
        ]
      },
      "properties": {
        "height": "0.23",
        "label": "Low carbohydrate diet",
        "level": 1,
        "pos": "21750.14,22290.54",
        "weight": "0.0",
        "width": "1.76"
      }
    },
    {
      "type": "Feature",
      "id": "1017",
      "geometry": {
        "type": "Point",
        "coordinates": [
          -30.566879,
          7.111401
        ]
      },
      "properties": {
        "label": "Opiates",
        "level": 3,
        "pos": "-23318.91,5355.86",
        "weight": "533.0"
      }
    },
    {
      "type": "Feature",
      "id": "154",
      "geometry": {
        "type": "Point",
        "coordinates": [
          -32.356062,
          6.741573
        ]
      },
      "properties": {
        "label": "Emotional distress",
        "level": 3,
        "pos": "-24423.24,5074.59",
        "weight": "563.0"
      }
    },
    {
      "type": "Feature",
      "id": "1018",
      "geometry": {
        "type": "Point",
        "coordinates": [
          37.087701,
          41.178042
        ]
      },
      "properties": {
        "height": "0.23",
        "label": "Metastases to central nervous system",
        "level": 1,
        "pos": "18439.25,34145.99",
        "weight": "0.0",
        "width": "2.88"
      }
    },
    {
      "type": "Feature",
      "id": "630",
      "geometry": {
        "type": "Point",
        "coordinates": [
          34.070588,
          40.278383
        ]
      },
      "properties": {
        "height": "0.23",
        "label": "Ischaemic stroke",
        "level": 1,
        "pos": "16577.01,33249.66",
        "weight": "0.0",
        "width": "1.31"
      }
    },
    {
      "type": "Feature",
      "id": "919",
      "geometry": {
        "type": "Point",
        "coordinates": [
          44.197253,
          40.211303
        ]
      },
      "properties": {
        "height": "0.23",
        "label": "Post-traumatic epilepsy",
        "level": 1,
        "pos": "22827.45,33183.31",
        "weight": "0.0",
        "width": "1.83"
      }
    },
    {
      "type": "Feature",
      "id": "767",
      "geometry": {
        "type": "Point",
        "coordinates": [
          37.196996,
          36.011799
        ]
      },
      "properties": {
        "height": "0.23",
        "label": "Nasal obstruction",
        "level": 1,
        "pos": "18506.71,29151.63",
        "weight": "0.0",
        "width": "1.37"
      }
    },
    {
      "type": "Feature",
      "id": "1019",
      "geometry": {
        "type": "Point",
        "coordinates": [
          37.246249,
          10.328358
        ]
      },
      "properties": {
        "label": "Lissencephaly",
        "level": 7,
        "pos": "18537.11,7813.37",
        "weight": "0.0"
      }
    },
    {
      "type": "Feature",
      "id": "1122",
      "geometry": {
        "type": "Point",
        "coordinates": [
          40.581511,
          10.607921
        ]
      },
      "properties": {
        "label": "Cerebellar hypoplasia",
        "level": 7,
        "pos": "20595.72,8028.01",
        "weight": "0.0"
      }
    },
    {
      "type": "Feature",
      "id": "1124",
      "geometry": {
        "type": "Point",
        "coordinates": [
          38.133379,
          8.297438
        ]
      },
      "properties": {
        "label": "Brain malformation",
        "level": 7,
        "pos": "19084.67,6259.48",
        "weight": "0.0"
      }
    },
    {
      "type": "Feature",
      "id": "276",
      "geometry": {
        "type": "Point",
        "coordinates": [
          38.211989,
          7.42547
        ]
      },
      "properties": {
        "label": "Autism",
        "level": 2,
        "pos": "19133.19,5594.90",
        "weight": "313.0"
      }
    },
    {
      "type": "Feature",
      "id": "102",
      "geometry": {
        "type": "Point",
        "coordinates": [
          29.404566,
          6.340948
        ]
      },
      "properties": {
        "label": "Dysmorphism",
        "level": 4,
        "pos": "13697.02,4770.14",
        "weight": "0.0"
      }
    },
    {
      "type": "Feature",
      "id": "959",
      "geometry": {
        "type": "Point",
        "coordinates": [
          12.325714,
          24.586468
        ]
      },
      "properties": {
        "label": "Phlebotomy",
        "level": 2,
        "pos": "3155.51,19132.92",
        "weight": "0.0"
      }
    },
    {
      "type": "Feature",
      "id": "1022",
      "geometry": {
        "type": "Point",
        "coordinates": [
          40.482616,
          -47.767818
        ]
      },
      "properties": {
        "label": "Hypovitaminosis",
        "level": 3,
        "pos": "20534.68,-41183.48",
        "weight": "0.0"
      }
    },
    {
      "type": "Feature",
      "id": "358",
      "geometry": {
        "type": "Point",
        "coordinates": [
          39.547432,
          -45.45592
        ]
      },
      "properties": {
        "label": "Weight increased",
        "level": 3,
        "pos": "19957.46,-38641.99",
        "weight": "2002.0"
      }
    },
    {
      "type": "Feature",
      "id": "573",
      "geometry": {
        "type": "Point",
        "coordinates": [
          41.918574,
          -49.667519
        ]
      },
      "properties": {
        "label": "Cholecalciferol",
        "level": 3,
        "pos": "21420.99,-43357.71",
        "weight": "0.0"
      }
    },
    {
      "type": "Feature",
      "id": "926",
      "geometry": {
        "type": "Point",
        "coordinates": [
          41.443108,
          -44.611601
        ]
      },
      "properties": {
        "label": "Fluid retention",
        "level": 6,
        "pos": "21127.52,-37739.94",
        "weight": "0.0"
      }
    },
    {
      "type": "Feature",
      "id": "593",
      "geometry": {
        "type": "Point",
        "coordinates": [
          44.788204,
          -52.354031
        ]
      },
      "properties": {
        "label": "Blood calcium",
        "level": 3,
        "pos": "23192.20,-46582.64",
        "weight": "0.0"
      }
    },
    {
      "type": "Feature",
      "id": "1023",
      "geometry": {
        "type": "Point",
        "coordinates": [
          29.145309,
          3.227877
        ]
      },
      "properties": {
        "label": "Hypercapnia",
        "level": 7,
        "pos": "13537.00,2411.29",
        "weight": "0.0"
      }
    },
    {
      "type": "Feature",
      "id": "1039",
      "geometry": {
        "type": "Point",
        "coordinates": [
          27.745692,
          2.041972
        ]
      },
      "properties": {
        "label": "Breath holding",
        "level": 7,
        "pos": "12673.12,1514.98",
        "weight": "0.0"
      }
    },
    {
      "type": "Feature",
      "id": "1024",
      "geometry": {
        "type": "Point",
        "coordinates": [
          -31.057591,
          -6.227592
        ]
      },
      "properties": {
        "label": "Hip arthroplasty",
        "level": 4,
        "pos": "-23621.79,-4738.07",
        "weight": "236.0"
      }
    },
    {
      "type": "Feature",
      "id": "183",
      "geometry": {
        "type": "Point",
        "coordinates": [
          -32.977066,
          -6.473429
        ]
      },
      "properties": {
        "label": "Diabetes mellitus",
        "level": 3,
        "pos": "-24806.54,-4924.82",
        "weight": "1700.0"
      }
    },
    {
      "type": "Feature",
      "id": "194",
      "geometry": {
        "type": "Point",
        "coordinates": [
          -35.843942,
          -5.981773
        ]
      },
      "properties": {
        "label": "Lacosamide",
        "level": 2,
        "pos": "-26576.05,-4551.42",
        "weight": "3084.0"
      }
    },
    {
      "type": "Feature",
      "id": "1025",
      "geometry": {
        "type": "Point",
        "coordinates": [
          15.45891,
          24.679777
        ]
      },
      "properties": {
        "label": "Herpes virus infection",
        "level": 6,
        "pos": "5089.40,19210.42",
        "weight": "0.0"
      }
    },
    {
      "type": "Feature",
      "id": "679",
      "geometry": {
        "type": "Point",
        "coordinates": [
          15.359838,
          24.1554
        ]
      },
      "properties": {
        "label": "Scar",
        "level": 4,
        "pos": "5028.25,18775.63",
        "weight": "65.0"
      }
    },
    {
      "type": "Feature",
      "id": "990",
      "geometry": {
        "type": "Point",
        "coordinates": [
          17.442106,
          24.732962
        ]
      },
      "properties": {
        "label": "Acute generalised exanthematous pustulosis",
        "level": 2,
        "pos": "6313.48,19254.62",
        "weight": "0.0"
      }
    },
    {
      "type": "Feature",
      "id": "1027",
      "geometry": {
        "type": "Point",
        "coordinates": [
          45.49924,
          39.117011
        ]
      },
      "properties": {
        "label": "Head injury",
        "level": 7,
        "pos": "23631.07,32110.03",
        "weight": "0.0"
      }
    },
    {
      "type": "Feature",
      "id": "1028",
      "geometry": {
        "type": "Point",
        "coordinates": [
          -14.133917,
          13.581502
        ]
      },
      "properties": {
        "label": "Haemorrhage intracranial",
        "level": 6,
        "pos": "-13176.06,10324.28",
        "weight": "0.0"
      }
    },
    {
      "type": "Feature",
      "id": "1042",
      "geometry": {
        "type": "Point",
        "coordinates": [
          -15.533081,
          14.180636
        ]
      },
      "properties": {
        "label": "Benign familial neonatal convulsions",
        "level": 6,
        "pos": "-14039.66,10790.23",
        "weight": "0.0"
      }
    },
    {
      "type": "Feature",
      "id": "660",
      "geometry": {
        "type": "Point",
        "coordinates": [
          -26.585306,
          -22.386096
        ]
      },
      "properties": {
        "label": "Bipolar II disorder",
        "level": 2,
        "pos": "-20861.38,-17375.48",
        "weight": "0.0"
      }
    },
    {
      "type": "Feature",
      "id": "322",
      "geometry": {
        "type": "Point",
        "coordinates": [
          -17.848019,
          -17.613853
        ]
      },
      "properties": {
        "label": "Electroconvulsive therapy",
        "level": 2,
        "pos": "-15468.50,-13539.85",
        "weight": "15.0"
      }
    },
    {
      "type": "Feature",
      "id": "407",
      "geometry": {
        "type": "Point",
        "coordinates": [
          -22.269658,
          -14.981087
        ]
      },
      "properties": {
        "label": "Aripiprazole",
        "level": 3,
        "pos": "-18197.65,-11468.71",
        "weight": "0.0"
      }
    },
    {
      "type": "Feature",
      "id": "543",
      "geometry": {
        "type": "Point",
        "coordinates": [
          -17.154302,
          -19.959639
        ]
      },
      "properties": {
        "label": "Elevated mood",
        "level": 4,
        "pos": "-15040.32,-15410.72",
        "weight": "4.0"
      }
    },
    {
      "type": "Feature",
      "id": "103",
      "geometry": {
        "type": "Point",
        "coordinates": [
          34.175542,
          8.635676
        ]
      },
      "properties": {
        "label": "Diapedesis",
        "level": 4,
        "pos": "16641.79,6517.66",
        "weight": "0.0"
      }
    },
    {
      "type": "Feature",
      "id": "1030",
      "geometry": {
        "type": "Point",
        "coordinates": [
          -36.477843,
          -20.227277
        ]
      },
      "properties": {
        "label": "Encephalomyelitis",
        "level": 6,
        "pos": "-26967.31,-15625.88",
        "weight": "0.0"
      }
    },
    {
      "type": "Feature",
      "id": "1031",
      "geometry": {
        "type": "Point",
        "coordinates": [
          -16.009114,
          -6.492932
        ]
      },
      "properties": {
        "label": "Educational problem",
        "level": 7,
        "pos": "-14333.48,-4939.64",
        "weight": "0.0"
      }
    },
    {
      "type": "Feature",
      "id": "697",
      "geometry": {
        "type": "Point",
        "coordinates": [
          -17.334723,
          -7.493526
        ]
      },
      "properties": {
        "label": "Disinhibition",
        "level": 7,
        "pos": "-15151.68,-5700.75",
        "weight": "0.0"
      }
    },
    {
      "type": "Feature",
      "id": "848",
      "geometry": {
        "type": "Point",
        "coordinates": [
          -16.459435,
          -8.038473
        ]
      },
      "properties": {
        "height": "0.23",
        "label": "Blunted affect",
        "level": 1,
        "pos": "-14611.43,-6115.99",
        "weight": "0.0",
        "width": "1.11"
      }
    },
    {
      "type": "Feature",
      "id": "897",
      "geometry": {
        "type": "Point",
        "coordinates": [
          -22.91801,
          19.336141
        ]
      },
      "properties": {
        "height": "0.23",
        "label": "Bronchospasm",
        "level": 1,
        "pos": "-18597.83,14856.85",
        "weight": "0.0",
        "width": "1.16"
      }
    },
    {
      "type": "Feature",
      "id": "1033",
      "geometry": {
        "type": "Point",
        "coordinates": [
          -9.917455,
          -1.905058
        ]
      },
      "properties": {
        "label": "Dysthymic disorder",
        "level": 7,
        "pos": "-10573.55,-1465.58",
        "weight": "0.0"
      }
    },
    {
      "type": "Feature",
      "id": "484",
      "geometry": {
        "type": "Point",
        "coordinates": [
          -10.292698,
          -4.355651
        ]
      },
      "properties": {
        "height": "0.23",
        "label": "Feeling of relaxation",
        "level": 1,
        "pos": "-10805.16,-3318.66",
        "weight": "1249.0",
        "width": "1.62"
      }
    },
    {
      "type": "Feature",
      "id": "859",
      "geometry": {
        "type": "Point",
        "coordinates": [
          -3.458118,
          -12.078636
        ]
      },
      "properties": {
        "height": "0.23",
        "label": "Romidepsin",
        "level": 1,
        "pos": "-6586.68,-9214.57",
        "weight": "0.0",
        "width": "0.94"
      }
    },
    {
      "type": "Feature",
      "id": "1034",
      "geometry": {
        "type": "Point",
        "coordinates": [
          14.429077,
          8.424263
        ]
      },
      "properties": {
        "label": "Dermatitis allergic",
        "level": 2,
        "pos": "4453.76,6356.26",
        "weight": "0.0"
      }
    },
    {
      "type": "Feature",
      "id": "402",
      "geometry": {
        "type": "Point",
        "coordinates": [
          11.863096,
          9.453123
        ]
      },
      "properties": {
        "label": "Body temperature",
        "level": 2,
        "pos": "2869.97,7142.60",
        "weight": "78.0"
      }
    },
    {
      "type": "Feature",
      "id": "436",
      "geometry": {
        "type": "Point",
        "coordinates": [
          16.213723,
          7.11654
        ]
      },
      "properties": {
        "label": "Menorrhagia",
        "level": 2,
        "pos": "5555.29,5359.77",
        "weight": "10.0"
      }
    },
    {
      "type": "Feature",
      "id": "921",
      "geometry": {
        "type": "Point",
        "coordinates": [
          10.548439,
          9.550956
        ]
      },
      "properties": {
        "label": "Panic attack",
        "level": 5,
        "pos": "2058.53,7217.49",
        "weight": "0.0"
      }
    },
    {
      "type": "Feature",
      "id": "970",
      "geometry": {
        "type": "Point",
        "coordinates": [
          12.461288,
          11.027487
        ]
      },
      "properties": {
        "label": "Glaucoma",
        "level": 2,
        "pos": "3239.19,8350.51",
        "weight": "0.0"
      }
    },
    {
      "type": "Feature",
      "id": "676",
      "geometry": {
        "type": "Point",
        "coordinates": [
          18.208714,
          4.363338
        ]
      },
      "properties": {
        "label": "Thermal burn",
        "level": 2,
        "pos": "6786.65,3270.45",
        "weight": "0.0"
      }
    },
    {
      "type": "Feature",
      "id": "1035",
      "geometry": {
        "type": "Point",
        "coordinates": [
          0.192474,
          -17.076634
        ]
      },
      "properties": {
        "label": "Decreased activity",
        "level": 7,
        "pos": "-4333.44,-13114.93",
        "weight": "0.0"
      }
    },
    {
      "type": "Feature",
      "id": "1037",
      "geometry": {
        "type": "Point",
        "coordinates": [
          -0.039078,
          -17.803975
        ]
      },
      "properties": {
        "label": "Cluster headache",
        "level": 7,
        "pos": "-4476.36,-13690.53",
        "weight": "0.0"
      }
    },
    {
      "type": "Feature",
      "id": "95",
      "geometry": {
        "type": "Point",
        "coordinates": [
          -2.278598,
          -19.813824
        ]
      },
      "properties": {
        "label": "Psychomotor hyperactivity",
        "level": 2,
        "pos": "-5858.65,-15293.65",
        "weight": "9054.0"
      }
    },
    {
      "type": "Feature",
      "id": "1036",
      "geometry": {
        "type": "Point",
        "coordinates": [
          11.537931,
          13.719698
        ]
      },
      "properties": {
        "label": "Computerised tomogram head",
        "level": 7,
        "pos": "2669.27,10431.65",
        "weight": "0.0"
      }
    },
    {
      "type": "Feature",
      "id": "1040",
      "geometry": {
        "type": "Point",
        "coordinates": [
          12.483079,
          14.413372
        ]
      },
      "properties": {
        "height": "0.23",
        "label": "Brain oedema",
        "level": 1,
        "pos": "3252.64,10971.56",
        "weight": "0.0",
        "width": "1.09"
      }
    },
    {
      "type": "Feature",
      "id": "209",
      "geometry": {
        "type": "Point",
        "coordinates": [
          11.676908,
          16.965891
        ]
      },
      "properties": {
        "label": "Computerised tomogram",
        "level": 4,
        "pos": "2755.05,12973.46",
        "weight": "140.0"
      }
    },
    {
      "type": "Feature",
      "id": "812",
      "geometry": {
        "type": "Point",
        "coordinates": [
          14.622588,
          14.944426
        ]
      },
      "properties": {
        "height": "0.23",
        "label": "Cerebral haemorrhage",
        "level": 1,
        "pos": "4573.20,11386.03",
        "weight": "0.0",
        "width": "1.73"
      }
    },
    {
      "type": "Feature",
      "id": "856",
      "geometry": {
        "type": "Point",
        "coordinates": [
          7.617454,
          12.9129
        ]
      },
      "properties": {
        "height": "0.23",
        "label": "Peach",
        "level": 1,
        "pos": "249.45,9805.69",
        "weight": "0.0",
        "width": "0.46"
      }
    },
    {
      "type": "Feature",
      "id": "5",
      "geometry": {
        "type": "Point",
        "coordinates": [
          -38.723423,
          -13.107033
        ]
      },
      "properties": {
        "height": "0.23",
        "label": "Treatment failure",
        "level": 1,
        "pos": "-28353.34,-10010.15",
        "weight": "19487.25",
        "width": "1.36"
      }
    },
    {
      "type": "Feature",
      "id": "104",
      "geometry": {
        "type": "Point",
        "coordinates": [
          28.210513,
          5.861305
        ]
      },
      "properties": {
        "label": "CSF culture",
        "level": 4,
        "pos": "12960.02,4405.95",
        "weight": "0.0"
      }
    },
    {
      "type": "Feature",
      "id": "1041",
      "geometry": {
        "type": "Point",
        "coordinates": [
          0.727886,
          22.7097
        ]
      },
      "properties": {
        "label": "Benign rolandic epilepsy",
        "level": 3,
        "pos": "-4002.97,17585.99",
        "weight": "0.0"
      }
    },
    {
      "type": "Feature",
      "id": "1132",
      "geometry": {
        "type": "Point",
        "coordinates": [
          -0.25114,
          19.939208
        ]
      },
      "properties": {
        "label": "Acquired epileptic aphasia",
        "level": 3,
        "pos": "-4607.25,15340.28",
        "weight": "1271.0"
      }
    },
    {
      "type": "Feature",
      "id": "915",
      "geometry": {
        "type": "Point",
        "coordinates": [
          1.110258,
          24.684037
        ]
      },
      "properties": {
        "label": "Simple partial seizures",
        "level": 3,
        "pos": "-3766.96,19213.96",
        "weight": "0.0"
      }
    },
    {
      "type": "Feature",
      "id": "1265",
      "geometry": {
        "type": "Point",
        "coordinates": [
          -0.692048,
          19.709453
        ]
      },
      "properties": {
        "label": "Acetazolamide",
        "level": 6,
        "pos": "-4879.39,15155.89",
        "weight": "0.0"
      }
    },
    {
      "type": "Feature",
      "id": "362",
      "geometry": {
        "type": "Point",
        "coordinates": [
          2.806849,
          19.187046
        ]
      },
      "properties": {
        "label": "Frontal lobe epilepsy",
        "level": 3,
        "pos": "-2719.78,14737.61",
        "weight": "2585.0"
      }
    },
    {
      "type": "Feature",
      "id": "1043",
      "geometry": {
        "type": "Point",
        "coordinates": [
          14.668033,
          39.930662
        ]
      },
      "properties": {
        "label": "Apolipoprotein E",
        "level": 2,
        "pos": "4601.25,32906.43",
        "weight": "0.0"
      }
    },
    {
      "type": "Feature",
      "id": "314",
      "geometry": {
        "type": "Point",
        "coordinates": [
          18.171256,
          40.764216
        ]
      },
      "properties": {
        "label": "Blood test",
        "level": 2,
        "pos": "6763.53,33732.19",
        "weight": "41.5"
      }
    },
    {
      "type": "Feature",
      "id": "680",
      "geometry": {
        "type": "Point",
        "coordinates": [
          10.085578,
          39.968252
        ]
      },
      "properties": {
        "height": "0.23",
        "label": "Rapid eye movements sleep abnormal",
        "level": 1,
        "pos": "1772.84,32943.45",
        "weight": "0.0",
        "width": "2.96"
      }
    },
    {
      "type": "Feature",
      "id": "936",
      "geometry": {
        "type": "Point",
        "coordinates": [
          21.330196,
          42.314943
        ]
      },
      "properties": {
        "label": "Blood creatine phosphokinase",
        "level": 2,
        "pos": "8713.31,35296.49",
        "weight": "0.0"
      }
    },
    {
      "type": "Feature",
      "id": "833",
      "geometry": {
        "type": "Point",
        "coordinates": [
          8.880039,
          36.927746
        ]
      },
      "properties": {
        "height": "0.23",
        "label": "Parasomnia",
        "level": 1,
        "pos": "1028.75,30011.58",
        "weight": "0.0",
        "width": "0.91"
      }
    },
    {
      "type": "Feature",
      "id": "1045",
      "geometry": {
        "type": "Point",
        "coordinates": [
          29.409118,
          -6.151178
        ]
      },
      "properties": {
        "label": "Abortion induced",
        "level": 4,
        "pos": "13699.83,-4680.04",
        "weight": "75.0"
      }
    },
    {
      "type": "Feature",
      "id": "1060",
      "geometry": {
        "type": "Point",
        "coordinates": [
          30.799306,
          -6.818278
        ]
      },
      "properties": {
        "label": "Maternal exposure during pregnancy",
        "level": 4,
        "pos": "14557.89,-5186.94",
        "weight": "0.0"
      }
    },
    {
      "type": "Feature",
      "id": "250",
      "geometry": {
        "type": "Point",
        "coordinates": [
          32.235895,
          -7.767715
        ]
      },
      "properties": {
        "label": "Congenital anomaly",
        "level": 3,
        "pos": "15444.59,-5909.61",
        "weight": "22.0"
      }
    },
    {
      "type": "Feature",
      "id": "1046",
      "geometry": {
        "type": "Point",
        "coordinates": [
          -11.059435,
          19.769332
        ]
      },
      "properties": {
        "height": "0.23",
        "label": "Abdominal pain upper",
        "level": 1,
        "pos": "-11278.41,15203.92",
        "weight": "0.0",
        "width": "1.75"
      }
    },
    {
      "type": "Feature",
      "id": "571",
      "geometry": {
        "type": "Point",
        "coordinates": [
          -6.511619,
          20.122868
        ]
      },
      "properties": {
        "height": "0.23",
        "label": "Dronabinol",
        "level": 1,
        "pos": "-8471.38,15487.87",
        "weight": "0.0",
        "width": "0.89"
      }
    },
    {
      "type": "Feature",
      "id": "643",
      "geometry": {
        "type": "Point",
        "coordinates": [
          -11.902319,
          15.655928
        ]
      },
      "properties": {
        "height": "0.23",
        "label": "Pancreatitis chronic",
        "level": 1,
        "pos": "-11798.66,11942.95",
        "weight": "0.0",
        "width": "1.54"
      }
    },
    {
      "type": "Feature",
      "id": "746",
      "geometry": {
        "type": "Point",
        "coordinates": [
          -14.536687,
          24.626184
        ]
      },
      "properties": {
        "height": "0.23",
        "label": "Pain management",
        "level": 1,
        "pos": "-13424.66,19165.90",
        "weight": "0.0",
        "width": "1.39"
      }
    },
    {
      "type": "Feature",
      "id": "907",
      "geometry": {
        "type": "Point",
        "coordinates": [
          -7.458063,
          22.2091
        ]
      },
      "properties": {
        "label": "Botulinum Toxin Type A",
        "level": 2,
        "pos": "-9055.55,17177.02",
        "weight": "0.0"
      }
    },
    {
      "type": "Feature",
      "id": "777",
      "geometry": {
        "type": "Point",
        "coordinates": [
          -5.362429,
          13.886348
        ]
      },
      "properties": {
        "height": "0.23",
        "label": "Colitis ulcerative",
        "level": 1,
        "pos": "-7762.07,10561.21",
        "weight": "0.0",
        "width": "1.33"
      }
    },
    {
      "type": "Feature",
      "id": "982",
      "geometry": {
        "type": "Point",
        "coordinates": [
          -16.087011,
          29.540337
        ]
      },
      "properties": {
        "height": "0.23",
        "label": "Breast reconstruction",
        "level": 1,
        "pos": "-14381.56,23334.92",
        "weight": "0.0",
        "width": "1.66"
      }
    },
    {
      "type": "Feature",
      "id": "1047",
      "geometry": {
        "type": "Point",
        "coordinates": [
          6.623328,
          -26.565322
        ]
      },
      "properties": {
        "label": "Sulthiame",
        "level": 4,
        "pos": "-364.15,-20843.38",
        "weight": "74.25"
      }
    },
    {
      "type": "Feature",
      "id": "870",
      "geometry": {
        "type": "Point",
        "coordinates": [
          4.68702,
          -24.548137
        ]
      },
      "properties": {
        "height": "0.23",
        "label": "Ethosuximide",
        "level": 1,
        "pos": "-1559.29,-19155.13",
        "weight": "0.0",
        "width": "1.08"
      }
    },
    {
      "type": "Feature",
      "id": "917",
      "geometry": {
        "type": "Point",
        "coordinates": [
          8.604921,
          -23.259279
        ]
      },
      "properties": {
        "height": "0.23",
        "label": "Puberty",
        "level": 1,
        "pos": "858.94,-18090.73",
        "weight": "0.0",
        "width": "0.60"
      }
    },
    {
      "type": "Feature",
      "id": "1048",
      "geometry": {
        "type": "Point",
        "coordinates": [
          24.896152,
          23.98683
        ]
      },
      "properties": {
        "label": "Hypoxanthine",
        "level": 6,
        "pos": "10914.31,18636.24",
        "weight": "0.0"
      }
    },
    {
      "type": "Feature",
      "id": "1051",
      "geometry": {
        "type": "Point",
        "coordinates": [
          26.966949,
          21.681933
        ]
      },
      "properties": {
        "label": "Allopurinol",
        "level": 4,
        "pos": "12192.46,16747.92",
        "weight": "0.0"
      }
    },
    {
      "type": "Feature",
      "id": "283",
      "geometry": {
        "type": "Point",
        "coordinates": [
          27.690007,
          23.61504
        ]
      },
      "properties": {
        "label": "Renal failure",
        "level": 4,
        "pos": "12638.75,18329.45",
        "weight": "44.0"
      }
    },
    {
      "type": "Feature",
      "id": "457",
      "geometry": {
        "type": "Point",
        "coordinates": [
          26.46953,
          20.713886
        ]
      },
      "properties": {
        "label": "Psychiatric evaluation",
        "level": 4,
        "pos": "11885.44,15964.00",
        "weight": "326.0"
      }
    },
    {
      "type": "Feature",
      "id": "105",
      "geometry": {
        "type": "Point",
        "coordinates": [
          25.941474,
          5.663024
        ]
      },
      "properties": {
        "label": "Coeliac disease",
        "level": 4,
        "pos": "11559.51,4255.49",
        "weight": "0.0"
      }
    },
    {
      "type": "Feature",
      "id": "1050",
      "geometry": {
        "type": "Point",
        "coordinates": [
          -4.223397,
          25.377414
        ]
      },
      "properties": {
        "label": "Fenfluramine",
        "level": 6,
        "pos": "-7059.03,19791.72",
        "weight": "0.0"
      }
    },
    {
      "type": "Feature",
      "id": "373",
      "geometry": {
        "type": "Point",
        "coordinates": [
          -3.723774,
          27.434461
        ]
      },
      "properties": {
        "label": "Clobazam",
        "level": 3,
        "pos": "-6750.65,21525.82",
        "weight": "1282.0"
      }
    },
    {
      "type": "Feature",
      "id": "468",
      "geometry": {
        "type": "Point",
        "coordinates": [
          -0.510461,
          26.486976
        ]
      },
      "properties": {
        "height": "0.23",
        "label": "Cannabidiol",
        "level": 1,
        "pos": "-4767.31,20723.24",
        "weight": "0.0",
        "width": "0.95"
      }
    },
    {
      "type": "Feature",
      "id": "91",
      "geometry": {
        "type": "Point",
        "coordinates": [
          -4.13377,
          28.462927
        ]
      },
      "properties": {
        "label": "Lennox-Gastaut syndrome",
        "level": 3,
        "pos": "-7003.71,22404.84",
        "weight": "927.0"
      }
    },
    {
      "type": "Feature",
      "id": "1053",
      "geometry": {
        "type": "Point",
        "coordinates": [
          -1.582484,
          -2.428623
        ]
      },
      "properties": {
        "label": "Phosphatidyl serine",
        "level": 4,
        "pos": "-5428.99,-1861.15",
        "weight": "0.0"
      }
    },
    {
      "type": "Feature",
      "id": "308",
      "geometry": {
        "type": "Point",
        "coordinates": [
          -2.583106,
          -2.484095
        ]
      },
      "properties": {
        "label": "Attention deficit/hyperactivity disorder",
        "level": 4,
        "pos": "-6046.60,-1903.07",
        "weight": "62.5"
      }
    },
    {
      "type": "Feature",
      "id": "756",
      "geometry": {
        "type": "Point",
        "coordinates": [
          0.250006,
          -3.910912
        ]
      },
      "properties": {
        "label": "Icosapent",
        "level": 4,
        "pos": "-4297.93,-2982.01",
        "weight": "0.0"
      }
    },
    {
      "type": "Feature",
      "id": "876",
      "geometry": {
        "type": "Point",
        "coordinates": [
          -2.761485,
          -5.126809
        ]
      },
      "properties": {
        "height": "0.23",
        "label": "Sudden cardiac death",
        "level": 1,
        "pos": "-6156.70,-3902.88",
        "weight": "0.0",
        "width": "1.66"
      }
    },
    {
      "type": "Feature",
      "id": "1054",
      "geometry": {
        "type": "Point",
        "coordinates": [
          4.776339,
          11.080226
        ]
      },
      "properties": {
        "label": "Cinnamon",
        "level": 7,
        "pos": "-1504.16,8391.08",
        "weight": "0.0"
      }
    },
    {
      "type": "Feature",
      "id": "1057",
      "geometry": {
        "type": "Point",
        "coordinates": [
          4.121635,
          11.694687
        ]
      },
      "properties": {
        "height": "0.23",
        "label": "Phytotherapy",
        "level": 1,
        "pos": "-1908.26,8864.31",
        "weight": "0.0",
        "width": "1.04"
      }
    },
    {
      "type": "Feature",
      "id": "684",
      "geometry": {
        "type": "Point",
        "coordinates": [
          1.133102,
          12.774581
        ]
      },
      "properties": {
        "height": "0.23",
        "label": "Menopause",
        "level": 1,
        "pos": "-3752.86,9698.58",
        "weight": "1271.0",
        "width": "0.90"
      }
    },
    {
      "type": "Feature",
      "id": "1055",
      "geometry": {
        "type": "Point",
        "coordinates": [
          27.398396,
          1.533182
        ]
      },
      "properties": {
        "label": "Torticollis",
        "level": 7,
        "pos": "12458.76,1130.66",
        "weight": "0.0"
      }
    },
    {
      "type": "Feature",
      "id": "142",
      "geometry": {
        "type": "Point",
        "coordinates": [
          27.591,
          0.108922
        ]
      },
      "properties": {
        "label": "Discomfort",
        "level": 2,
        "pos": "12577.64,55.22",
        "weight": "8178.0"
      }
    },
    {
      "type": "Feature",
      "id": "406",
      "geometry": {
        "type": "Point",
        "coordinates": [
          29.377525,
          -0.268724
        ]
      },
      "properties": {
        "label": "Nitrous oxide",
        "level": 2,
        "pos": "13680.33,-229.90",
        "weight": "18.0"
      }
    },
    {
      "type": "Feature",
      "id": "65",
      "geometry": {
        "type": "Point",
        "coordinates": [
          26.838779,
          -2.069928
        ]
      },
      "properties": {
        "label": "Pain assessment",
        "level": 3,
        "pos": "12113.35,-1590.13",
        "weight": "1672.75"
      }
    },
    {
      "type": "Feature",
      "id": "1056",
      "geometry": {
        "type": "Point",
        "coordinates": [
          18.727697,
          20.628588
        ]
      },
      "properties": {
        "label": "Retinal injury",
        "level": 7,
        "pos": "7106.98,15895.17",
        "weight": "0.0"
      }
    },
    {
      "type": "Feature",
      "id": "1079",
      "geometry": {
        "type": "Point",
        "coordinates": [
          21.724898,
          20.40125
        ]
      },
      "properties": {
        "height": "0.23",
        "label": "Age-related macular degeneration",
        "level": 1,
        "pos": "8956.93,15711.91",
        "weight": "0.0",
        "width": "2.65"
      }
    },
    {
      "type": "Feature",
      "id": "575",
      "geometry": {
        "type": "Point",
        "coordinates": [
          20.952182,
          18.529556
        ]
      },
      "properties": {
        "height": "0.23",
        "label": "Vascular occlusion",
        "level": 1,
        "pos": "8479.99,14213.05",
        "weight": "0.0",
        "width": "1.48"
      }
    },
    {
      "type": "Feature",
      "id": "799",
      "geometry": {
        "type": "Point",
        "coordinates": [
          23.089666,
          21.740164
        ]
      },
      "properties": {
        "height": "0.23",
        "label": "Photosensitivity reaction",
        "level": 1,
        "pos": "9799.30,16795.24",
        "weight": "0.0",
        "width": "1.93"
      }
    },
    {
      "type": "Feature",
      "id": "941",
      "geometry": {
        "type": "Point",
        "coordinates": [
          -0.008166,
          16.289853
        ]
      },
      "properties": {
        "height": "0.23",
        "label": "Atrophic vulvovaginitis",
        "level": 1,
        "pos": "-4457.28,12440.78",
        "weight": "0.0",
        "width": "1.85"
      }
    },
    {
      "type": "Feature",
      "id": "1058",
      "geometry": {
        "type": "Point",
        "coordinates": [
          41.348134,
          46.133083
        ]
      },
      "properties": {
        "label": "Necrosis",
        "level": 7,
        "pos": "21068.90,39321.23",
        "weight": "0.0"
      }
    },
    {
      "type": "Feature",
      "id": "1142",
      "geometry": {
        "type": "Point",
        "coordinates": [
          39.397244,
          46.54905
        ]
      },
      "properties": {
        "label": "Therapeutic procedure",
        "level": 7,
        "pos": "19864.76,39776.14",
        "weight": "0.0"
      }
    },
    {
      "type": "Feature",
      "id": "50",
      "geometry": {
        "type": "Point",
        "coordinates": [
          43.718676,
          45.426246
        ]
      },
      "properties": {
        "height": "0.23",
        "label": "Injury",
        "level": 1,
        "pos": "22532.06,38556.03",
        "weight": "26057.5",
        "width": "0.48"
      }
    },
    {
      "type": "Feature",
      "id": "1059",
      "geometry": {
        "type": "Point",
        "coordinates": [
          61.148988,
          22.654804
        ]
      },
      "properties": {
        "label": "Medical observation",
        "level": 4,
        "pos": "33290.50,17541.07",
        "weight": "85.0"
      }
    },
    {
      "type": "Feature",
      "id": "254",
      "geometry": {
        "type": "Point",
        "coordinates": [
          60.484499,
          20.635902
        ]
      },
      "properties": {
        "height": "0.23",
        "label": "Laboratory test",
        "level": 1,
        "pos": "32880.36,15901.07",
        "weight": "894.5",
        "width": "1.18"
      }
    },
    {
      "type": "Feature",
      "id": "297",
      "geometry": {
        "type": "Point",
        "coordinates": [
          64.630436,
          18.085906
        ]
      },
      "properties": {
        "label": "Urine analysis",
        "level": 2,
        "pos": "35439.34,13860.24",
        "weight": "119.0"
      }
    },
    {
      "type": "Feature",
      "id": "854",
      "geometry": {
        "type": "Point",
        "coordinates": [
          57.972728,
          25.17481
        ]
      },
      "properties": {
        "height": "0.23",
        "label": "Carisbamate",
        "level": 1,
        "pos": "31330.03,19622.56",
        "weight": "1271.0",
        "width": "0.97"
      }
    },
    {
      "type": "Feature",
      "id": "348",
      "geometry": {
        "type": "Point",
        "coordinates": [
          59.721828,
          12.657341
        ]
      },
      "properties": {
        "height": "0.23",
        "label": "Topiramate",
        "level": 1,
        "pos": "32409.62,9607.84",
        "weight": "6073.0",
        "width": "0.90"
      }
    },
    {
      "type": "Feature",
      "id": "106",
      "geometry": {
        "type": "Point",
        "coordinates": [
          31.019971,
          6.738731
        ]
      },
      "properties": {
        "label": "Cataplexy",
        "level": 4,
        "pos": "14694.09,5072.43",
        "weight": "0.0"
      }
    },
    {
      "type": "Feature",
      "id": "81",
      "geometry": {
        "type": "Point",
        "coordinates": [
          35.43534,
          -7.714718
        ]
      },
      "properties": {
        "label": "Neural tube defect",
        "level": 3,
        "pos": "17419.37,-5869.23",
        "weight": "1744.0"
      }
    },
    {
      "type": "Feature",
      "id": "814",
      "geometry": {
        "type": "Point",
        "coordinates": [
          25.469815,
          -8.508737
        ]
      },
      "properties": {
        "label": "Biopsy skin",
        "level": 2,
        "pos": "11268.39,-6474.77",
        "weight": "0.0"
      }
    },
    {
      "type": "Feature",
      "id": "1061",
      "geometry": {
        "type": "Point",
        "coordinates": [
          -71.619724,
          2.981203
        ]
      },
      "properties": {
        "label": "Malaria",
        "level": 4,
        "pos": "-48657.79,2224.78",
        "weight": "2.0"
      }
    },
    {
      "type": "Feature",
      "id": "1074",
      "geometry": {
        "type": "Point",
        "coordinates": [
          -69.265546,
          3.04587
        ]
      },
      "properties": {
        "label": "Cerebral malaria",
        "level": 4,
        "pos": "-47204.73,2273.67",
        "weight": "2.0"
      }
    },
    {
      "type": "Feature",
      "id": "275",
      "geometry": {
        "type": "Point",
        "coordinates": [
          -66.32215,
          2.932195
        ]
      },
      "properties": {
        "label": "Mechanical ventilation",
        "level": 4,
        "pos": "-45387.99,2187.73",
        "weight": "40.0"
      }
    },
    {
      "type": "Feature",
      "id": "1062",
      "geometry": {
        "type": "Point",
        "coordinates": [
          -17.744459,
          32.019796
        ]
      },
      "properties": {
        "label": "Low income",
        "level": 7,
        "pos": "-15404.58,25514.10",
        "weight": "0.0"
      }
    },
    {
      "type": "Feature",
      "id": "1063",
      "geometry": {
        "type": "Point",
        "coordinates": [
          -19.539572,
          32.903195
        ]
      },
      "properties": {
        "label": "Infection parasitic",
        "level": 3,
        "pos": "-16512.57,26304.58",
        "weight": "0.0"
      }
    },
    {
      "type": "Feature",
      "id": "181",
      "geometry": {
        "type": "Point",
        "coordinates": [
          -17.328922,
          34.549652
        ]
      },
      "properties": {
        "label": "Neurotoxicity",
        "level": 3,
        "pos": "-15148.10,27799.28",
        "weight": "3183.0"
      }
    },
    {
      "type": "Feature",
      "id": "317",
      "geometry": {
        "type": "Point",
        "coordinates": [
          -22.030037,
          31.523641
        ]
      },
      "properties": {
        "label": "Onchocerciasis",
        "level": 3,
        "pos": "-18049.75,25073.48",
        "weight": "0.0"
      }
    },
    {
      "type": "Feature",
      "id": "355",
      "geometry": {
        "type": "Point",
        "coordinates": [
          -25.066187,
          32.165144
        ]
      },
      "properties": {
        "height": "0.23",
        "label": "Ivermectin",
        "level": 1,
        "pos": "-19923.74,25643.63",
        "weight": "1.0",
        "width": "0.84"
      }
    },
    {
      "type": "Feature",
      "id": "1064",
      "geometry": {
        "type": "Point",
        "coordinates": [
          -12.751182,
          -8.166023
        ]
      },
      "properties": {
        "label": "Immunosuppression",
        "level": 6,
        "pos": "-12322.60,-6213.26",
        "weight": "0.0"
      }
    },
    {
      "type": "Feature",
      "id": "386",
      "geometry": {
        "type": "Point",
        "coordinates": [
          -11.465348,
          -9.300643
        ]
      },
      "properties": {
        "height": "0.23",
        "label": "Electroencephalogram abnormal",
        "level": 1,
        "pos": "-11528.95,-7079.95",
        "weight": "0.0",
        "width": "2.53"
      }
    },
    {
      "type": "Feature",
      "id": "920",
      "geometry": {
        "type": "Point",
        "coordinates": [
          -8.564417,
          -13.824582
        ]
      },
      "properties": {
        "height": "0.23",
        "label": "Paralysis",
        "level": 1,
        "pos": "-9738.42,-10567.21",
        "weight": "0.0",
        "width": "0.70"
      }
    },
    {
      "type": "Feature",
      "id": "879",
      "geometry": {
        "type": "Point",
        "coordinates": [
          -10.379392,
          -10.041334
        ]
      },
      "properties": {
        "label": "Pre-existing disease",
        "level": 7,
        "pos": "-10858.67,-7647.23",
        "weight": "0.0"
      }
    },
    {
      "type": "Feature",
      "id": "1065",
      "geometry": {
        "type": "Point",
        "coordinates": [
          9.456359,
          15.494414
        ]
      },
      "properties": {
        "label": "Hypogonadism",
        "level": 6,
        "pos": "1384.47,11816.36",
        "weight": "0.0"
      }
    },
    {
      "type": "Feature",
      "id": "1087",
      "geometry": {
        "type": "Point",
        "coordinates": [
          9.04092,
          14.761464
        ]
      },
      "properties": {
        "label": "Anastrozole",
        "level": 3,
        "pos": "1128.05,11243.12",
        "weight": "0.0"
      }
    },
    {
      "type": "Feature",
      "id": "997",
      "geometry": {
        "type": "Point",
        "coordinates": [
          5.421694,
          14.658347
        ]
      },
      "properties": {
        "label": "Testosterone",
        "level": 3,
        "pos": "-1105.83,11162.63",
        "weight": "0.0"
      }
    },
    {
      "type": "Feature",
      "id": "1066",
      "geometry": {
        "type": "Point",
        "coordinates": [
          -1.448643,
          49.1276
        ]
      },
      "properties": {
        "label": "Hepatic enzyme",
        "level": 5,
        "pos": "-5346.38,42677.32",
        "weight": "0.0"
      }
    },
    {
      "type": "Feature",
      "id": "153",
      "geometry": {
        "type": "Point",
        "coordinates": [
          -4.287636,
          49.272565
        ]
      },
      "properties": {
        "height": "0.23",
        "label": "Fasting",
        "level": 1,
        "pos": "-7098.68,42844.82",
        "weight": "6035.0",
        "width": "0.57"
      }
    },
    {
      "type": "Feature",
      "id": "208",
      "geometry": {
        "type": "Point",
        "coordinates": [
          -5.103188,
          45.612033
        ]
      },
      "properties": {
        "height": "0.23",
        "label": "Constipation",
        "level": 1,
        "pos": "-7602.06,38756.22",
        "weight": "278.0",
        "width": "0.99"
      }
    },
    {
      "type": "Feature",
      "id": "73",
      "geometry": {
        "type": "Point",
        "coordinates": [
          -6.129992,
          52.729575
        ]
      },
      "properties": {
        "height": "0.23",
        "label": "Glucose",
        "level": 1,
        "pos": "-8235.83,46994.81",
        "weight": "6541.0",
        "width": "0.64"
      }
    },
    {
      "type": "Feature",
      "id": "1067",
      "geometry": {
        "type": "Point",
        "coordinates": [
          38.767896,
          3.237927
        ]
      },
      "properties": {
        "height": "0.23",
        "label": "Eating disorder",
        "level": 1,
        "pos": "19476.31,2418.89",
        "weight": "0.0",
        "width": "1.19"
      }
    },
    {
      "type": "Feature",
      "id": "466",
      "geometry": {
        "type": "Point",
        "coordinates": [
          41.306318,
          3.010118
        ]
      },
      "properties": {
        "label": "Alcohol use",
        "level": 2,
        "pos": "21043.09,2246.64",
        "weight": "434.75"
      }
    },
    {
      "type": "Feature",
      "id": "516",
      "geometry": {
        "type": "Point",
        "coordinates": [
          46.188906,
          5.146755
        ]
      },
      "properties": {
        "height": "0.23",
        "label": "Substance use",
        "level": 1,
        "pos": "24056.75,3863.97",
        "weight": "0.0",
        "width": "1.10"
      }
    },
    {
      "type": "Feature",
      "id": "745",
      "geometry": {
        "type": "Point",
        "coordinates": [
          23.200257,
          4.841425
        ]
      },
      "properties": {
        "height": "0.23",
        "label": "Personality disorder",
        "level": 1,
        "pos": "9867.56,3632.57",
        "weight": "0.0",
        "width": "1.56"
      }
    },
    {
      "type": "Feature",
      "id": "934",
      "geometry": {
        "type": "Point",
        "coordinates": [
          44.405491,
          2.203175
        ]
      },
      "properties": {
        "label": "Circulatory collapse",
        "level": 2,
        "pos": "22955.98,1636.77",
        "weight": "0.0"
      }
    },
    {
      "type": "Feature",
      "id": "589",
      "geometry": {
        "type": "Point",
        "coordinates": [
          48.387404,
          6.040469
        ]
      },
      "properties": {
        "label": "Dermatitis exfoliative",
        "level": 6,
        "pos": "25413.72,4541.95",
        "weight": "0.0"
      }
    },
    {
      "type": "Feature",
      "id": "900",
      "geometry": {
        "type": "Point",
        "coordinates": [
          26.631529,
          13.957455
        ]
      },
      "properties": {
        "height": "0.23",
        "label": "Acetylcysteine",
        "level": 1,
        "pos": "11985.43,10616.52",
        "weight": "0.0",
        "width": "1.16"
      }
    },
    {
      "type": "Feature",
      "id": "1068",
      "geometry": {
        "type": "Point",
        "coordinates": [
          -19.555514,
          -21.296819
        ]
      },
      "properties": {
        "label": "Drug tolerance decreased",
        "level": 6,
        "pos": "-16522.41,-16489.47",
        "weight": "0.0"
      }
    },
    {
      "type": "Feature",
      "id": "1069",
      "geometry": {
        "type": "Point",
        "coordinates": [
          20.80747,
          24.022766
        ]
      },
      "properties": {
        "label": "Drug rash with eosinophilia and systemic symptoms",
        "level": 6,
        "pos": "8390.67,18665.94",
        "weight": "0.0"
      }
    },
    {
      "type": "Feature",
      "id": "792",
      "geometry": {
        "type": "Point",
        "coordinates": [
          18.990745,
          22.518656
        ]
      },
      "properties": {
        "label": "Toxic epidermal necrolysis",
        "level": 2,
        "pos": "7269.34,17429.74",
        "weight": "46.0"
      }
    },
    {
      "type": "Feature",
      "id": "107",
      "geometry": {
        "type": "Point",
        "coordinates": [
          29.854126,
          5.46105
        ]
      },
      "properties": {
        "label": "Carnitine deficiency",
        "level": 4,
        "pos": "13974.50,4102.28",
        "weight": "0.0"
      }
    },
    {
      "type": "Feature",
      "id": "1070",
      "geometry": {
        "type": "Point",
        "coordinates": [
          6.571062,
          -21.887356
        ]
      },
      "properties": {
        "label": "Drug eruption",
        "level": 7,
        "pos": "-396.41,-16968.97",
        "weight": "0.0"
      }
    },
    {
      "type": "Feature",
      "id": "85",
      "geometry": {
        "type": "Point",
        "coordinates": [
          6.700205,
          -20.247335
        ]
      },
      "properties": {
        "label": "Drug tolerance",
        "level": 2,
        "pos": "-316.70,-15642.02",
        "weight": "7252.75"
      }
    },
    {
      "type": "Feature",
      "id": "1071",
      "geometry": {
        "type": "Point",
        "coordinates": [
          1.390058,
          18.740647
        ]
      },
      "properties": {
        "label": "Crying",
        "level": 3,
        "pos": "-3594.26,14381.24",
        "weight": "0.0"
      }
    },
    {
      "type": "Feature",
      "id": "269",
      "geometry": {
        "type": "Point",
        "coordinates": [
          2.333343,
          16.723902
        ]
      },
      "properties": {
        "label": "Fear",
        "level": 3,
        "pos": "-3012.04,12782.57",
        "weight": "2641.0"
      }
    },
    {
      "type": "Feature",
      "id": "993",
      "geometry": {
        "type": "Point",
        "coordinates": [
          4.186052,
          18.759962
        ]
      },
      "properties": {
        "label": "Acetylcholine",
        "level": 3,
        "pos": "-1868.50,14396.64",
        "weight": "0.0"
      }
    },
    {
      "type": "Feature",
      "id": "1072",
      "geometry": {
        "type": "Point",
        "coordinates": [
          42.188054,
          -1.248957
        ]
      },
      "properties": {
        "label": "Creatinine renal clearance",
        "level": 7,
        "pos": "21587.32,-970.04",
        "weight": "0.0"
      }
    },
    {
      "type": "Feature",
      "id": "762",
      "geometry": {
        "type": "Point",
        "coordinates": [
          44.62324,
          0.708541
        ]
      },
      "properties": {
        "label": "Renal impairment",
        "level": 3,
        "pos": "23090.38,507.94",
        "weight": "0.0"
      }
    },
    {
      "type": "Feature",
      "id": "1073",
      "geometry": {
        "type": "Point",
        "coordinates": [
          -2.320382,
          -21.52439
        ]
      },
      "properties": {
        "label": "Cognitive rehabilitation",
        "level": 4,
        "pos": "-5884.44,-16674.02",
        "weight": "0.0"
      }
    },
    {
      "type": "Feature",
      "id": "339",
      "geometry": {
        "type": "Point",
        "coordinates": [
          -4.378154,
          -20.877753
        ]
      },
      "properties": {
        "label": "Neuropsychological test",
        "level": 4,
        "pos": "-7154.55,-16150.37",
        "weight": "44.0"
      }
    },
    {
      "type": "Feature",
      "id": "648",
      "geometry": {
        "type": "Point",
        "coordinates": [
          0.082936,
          -20.894546
        ]
      },
      "properties": {
        "label": "Memory impairment",
        "level": 2,
        "pos": "-4401.05,-16163.94",
        "weight": "2541.0"
      }
    },
    {
      "type": "Feature",
      "id": "678",
      "geometry": {
        "type": "Point",
        "coordinates": [
          -0.532593,
          -23.977403
        ]
      },
      "properties": {
        "height": "0.23",
        "label": "Staring",
        "level": 1,
        "pos": "-4780.97,-18682.48",
        "weight": "0.0",
        "width": "0.56"
      }
    },
    {
      "type": "Feature",
      "id": "750",
      "geometry": {
        "type": "Point",
        "coordinates": [
          -63.156745,
          2.909641
        ]
      },
      "properties": {
        "label": "Drug abuser",
        "level": 4,
        "pos": "-43434.22,2170.68",
        "weight": "1.0"
      }
    },
    {
      "type": "Feature",
      "id": "1075",
      "geometry": {
        "type": "Point",
        "coordinates": [
          -15.761538,
          35.240328
        ]
      },
      "properties": {
        "label": "Cerebral infarction",
        "level": 7,
        "pos": "-14180.67,28435.05",
        "weight": "0.0"
      }
    },
    {
      "type": "Feature",
      "id": "1076",
      "geometry": {
        "type": "Point",
        "coordinates": [
          5.975737,
          1.76162
        ]
      },
      "properties": {
        "label": "Cataract",
        "level": 3,
        "pos": "-763.86,1303.20",
        "weight": "0.0"
      }
    },
    {
      "type": "Feature",
      "id": "393",
      "geometry": {
        "type": "Point",
        "coordinates": [
          3.010308,
          0.165717
        ]
      },
      "properties": {
        "label": "Tramadol",
        "level": 3,
        "pos": "-2594.20,98.10",
        "weight": "0.0"
      }
    },
    {
      "type": "Feature",
      "id": "913",
      "geometry": {
        "type": "Point",
        "coordinates": [
          0.845946,
          -0.345228
        ]
      },
      "properties": {
        "label": "Spinal cord injury",
        "level": 3,
        "pos": "-3930.10,-287.66",
        "weight": "0.0"
      }
    },
    {
      "type": "Feature",
      "id": "1077",
      "geometry": {
        "type": "Point",
        "coordinates": [
          -42.388742,
          -10.97366
        ]
      },
      "properties": {
        "label": "Cardiac function disturbance postoperative",
        "level": 3,
        "pos": "-30615.67,-8363.14",
        "weight": "401.5"
      }
    },
    {
      "type": "Feature",
      "id": "635",
      "geometry": {
        "type": "Point",
        "coordinates": [
          -43.614938,
          -9.23587
        ]
      },
      "properties": {
        "label": "Cardiac monitoring",
        "level": 3,
        "pos": "-31372.51,-7030.40",
        "weight": "23.0"
      }
    },
    {
      "type": "Feature",
      "id": "734",
      "geometry": {
        "type": "Point",
        "coordinates": [
          -45.817065,
          -7.029669
        ]
      },
      "properties": {
        "label": "Aspiration",
        "level": 3,
        "pos": "-32731.72,-5347.71",
        "weight": "0.0"
      }
    },
    {
      "type": "Feature",
      "id": "1078",
      "geometry": {
        "type": "Point",
        "coordinates": [
          55.48244,
          31.915802
        ]
      },
      "properties": {
        "label": "Caesarean section",
        "level": 4,
        "pos": "29792.96,25421.55",
        "weight": "234.0"
      }
    },
    {
      "type": "Feature",
      "id": "53",
      "geometry": {
        "type": "Point",
        "coordinates": [
          56.681774,
          30.433433
        ]
      },
      "properties": {
        "height": "0.23",
        "label": "Pregnancy",
        "level": 1,
        "pos": "30533.22,24113.42",
        "weight": "29897.25",
        "width": "0.82"
      }
    },
    {
      "type": "Feature",
      "id": "683",
      "geometry": {
        "type": "Point",
        "coordinates": [
          19.727088,
          15.217702
        ]
      },
      "properties": {
        "height": "0.23",
        "label": "Motor neurone disease",
        "level": 1,
        "pos": "7723.83,11599.71",
        "weight": "0.0",
        "width": "1.77"
      }
    },
    {
      "type": "Feature",
      "id": "946",
      "geometry": {
        "type": "Point",
        "coordinates": [
          23.48683,
          20.549295
        ]
      },
      "properties": {
        "label": "Brivaracetam",
        "level": 5,
        "pos": "10044.44,15831.22",
        "weight": "0.0"
      }
    },
    {
      "type": "Feature",
      "id": "108",
      "geometry": {
        "type": "Point",
        "coordinates": [
          27.884782,
          11.666683
        ]
      },
      "properties": {
        "label": "Blood copper",
        "level": 4,
        "pos": "12758.97,8842.72",
        "weight": "0.0"
      }
    },
    {
      "type": "Feature",
      "id": "1080",
      "geometry": {
        "type": "Point",
        "coordinates": [
          44.587045,
          16.289294
        ]
      },
      "properties": {
        "height": "0.23",
        "label": "Affect lability",
        "level": 1,
        "pos": "23068.04,12440.34",
        "weight": "0.0",
        "width": "1.10"
      }
    },
    {
      "type": "Feature",
      "id": "554",
      "geometry": {
        "type": "Point",
        "coordinates": [
          47.955893,
          22.726719
        ]
      },
      "properties": {
        "height": "0.23",
        "label": "Post-traumatic stress disorder",
        "level": 1,
        "pos": "25147.38,17599.92",
        "weight": "0.0",
        "width": "2.30"
      }
    },
    {
      "type": "Feature",
      "id": "846",
      "geometry": {
        "type": "Point",
        "coordinates": [
          36.850867,
          14.156659
        ]
      },
      "properties": {
        "height": "0.23",
        "label": "Borderline personality disorder",
        "level": 1,
        "pos": "18293.07,10771.56",
        "weight": "0.0",
        "width": "2.43"
      }
    },
    {
      "type": "Feature",
      "id": "83",
      "geometry": {
        "type": "Point",
        "coordinates": [
          50.791354,
          26.143705
        ]
      },
      "properties": {
        "height": "0.23",
        "label": "Stress",
        "level": 1,
        "pos": "26897.50,20434.11",
        "weight": "15933.75",
        "width": "0.46"
      }
    },
    {
      "type": "Feature",
      "id": "931",
      "geometry": {
        "type": "Point",
        "coordinates": [
          45.37094,
          24.803246
        ]
      },
      "properties": {
        "label": "Conversion disorder",
        "level": 7,
        "pos": "23551.88,19313.06",
        "weight": "0.0"
      }
    },
    {
      "type": "Feature",
      "id": "1081",
      "geometry": {
        "type": "Point",
        "coordinates": [
          65.4479,
          -11.673895
        ]
      },
      "properties": {
        "label": "Chicken",
        "level": 4,
        "pos": "35943.90,-8902.31",
        "weight": "37.0"
      }
    },
    {
      "type": "Feature",
      "id": "4",
      "geometry": {
        "type": "Point",
        "coordinates": [
          64.382601,
          -13.496023
        ]
      },
      "properties": {
        "height": "0.23",
        "label": "Drug therapy",
        "level": 1,
        "pos": "35286.37,-10311.93",
        "weight": "39855.0",
        "width": "1.03"
      }
    },
    {
      "type": "Feature",
      "id": "61",
      "geometry": {
        "type": "Point",
        "coordinates": [
          57.82275,
          -17.188842
        ]
      },
      "properties": {
        "height": "0.23",
        "label": "Ketosis",
        "level": 1,
        "pos": "31237.46,-13203.58",
        "weight": "5620.5",
        "width": "0.58"
      }
    },
    {
      "type": "Feature",
      "id": "1082",
      "geometry": {
        "type": "Point",
        "coordinates": [
          50.868506,
          -14.403571
        ]
      },
      "properties": {
        "label": "Cenobamate",
        "level": 7,
        "pos": "26945.12,-11017.95",
        "weight": "0.0"
      }
    },
    {
      "type": "Feature",
      "id": "845",
      "geometry": {
        "type": "Point",
        "coordinates": [
          51.918397,
          -14.75611
        ]
      },
      "properties": {
        "label": "Central nervous system lesion",
        "level": 6,
        "pos": "27593.14,-11292.97",
        "weight": "0.0"
      }
    },
    {
      "type": "Feature",
      "id": "935",
      "geometry": {
        "type": "Point",
        "coordinates": [
          53.158704,
          -11.591879
        ]
      },
      "properties": {
        "label": "Child abuse",
        "level": 6,
        "pos": "28358.69,-8839.09",
        "weight": "0.0"
      }
    },
    {
      "type": "Feature",
      "id": "1083",
      "geometry": {
        "type": "Point",
        "coordinates": [
          -16.202106,
          -27.16738
        ]
      },
      "properties": {
        "label": "Iloperidone",
        "level": 5,
        "pos": "-14452.60,-21352.93",
        "weight": "0.0"
      }
    },
    {
      "type": "Feature",
      "id": "192",
      "geometry": {
        "type": "Point",
        "coordinates": [
          -18.273147,
          -26.601509
        ]
      },
      "properties": {
        "label": "Mania",
        "level": 2,
        "pos": "-15730.90,-20873.93",
        "weight": "3135.75"
      }
    },
    {
      "type": "Feature",
      "id": "62",
      "geometry": {
        "type": "Point",
        "coordinates": [
          -21.913921,
          -27.842972
        ]
      },
      "properties": {
        "label": "Irritability",
        "level": 2,
        "pos": "-17978.08,-21928.00",
        "weight": "5951.5"
      }
    },
    {
      "type": "Feature",
      "id": "939",
      "geometry": {
        "type": "Point",
        "coordinates": [
          -16.246952,
          -25.203288
        ]
      },
      "properties": {
        "label": "Aversion",
        "level": 4,
        "pos": "-14480.28,-19700.35",
        "weight": "270.0"
      }
    },
    {
      "type": "Feature",
      "id": "1084",
      "geometry": {
        "type": "Point",
        "coordinates": [
          43.270591,
          23.965494
        ]
      },
      "properties": {
        "label": "Nitrazepam",
        "level": 5,
        "pos": "22255.49,18618.61",
        "weight": "0.0"
      }
    },
    {
      "type": "Feature",
      "id": "385",
      "geometry": {
        "type": "Point",
        "coordinates": [
          44.17146,
          25.264153
        ]
      },
      "properties": {
        "label": "Hemiparesis",
        "level": 5,
        "pos": "22811.53,19697.12",
        "weight": "0.0"
      }
    },
    {
      "type": "Feature",
      "id": "1085",
      "geometry": {
        "type": "Point",
        "coordinates": [
          27.706387,
          25.223527
        ]
      },
      "properties": {
        "label": "Epoprostenol",
        "level": 4,
        "pos": "12648.86,19663.21",
        "weight": "40.0"
      }
    },
    {
      "type": "Feature",
      "id": "1086",
      "geometry": {
        "type": "Point",
        "coordinates": [
          2.465289,
          -3.304627
        ]
      },
      "properties": {
        "label": "Dantrolene",
        "level": 6,
        "pos": "-2930.60,-2523.36",
        "weight": "0.0"
      }
    },
    {
      "type": "Feature",
      "id": "822",
      "geometry": {
        "type": "Point",
        "coordinates": [
          2.683977,
          -0.740353
        ]
      },
      "properties": {
        "label": "Tizanidine",
        "level": 3,
        "pos": "-2795.62,-585.99",
        "weight": "0.0"
      }
    },
    {
      "type": "Feature",
      "id": "1088",
      "geometry": {
        "type": "Point",
        "coordinates": [
          -26.12588,
          -2.781943
        ]
      },
      "properties": {
        "label": "Naproxen",
        "level": 6,
        "pos": "-20577.81,-2128.18",
        "weight": "0.0"
      }
    },
    {
      "type": "Feature",
      "id": "703",
      "geometry": {
        "type": "Point",
        "coordinates": [
          -24.542019,
          -1.370225
        ]
      },
      "properties": {
        "label": "Back pain",
        "level": 3,
        "pos": "-19600.21,-1061.62",
        "weight": "1.0"
      }
    },
    {
      "type": "Feature",
      "id": "1089",
      "geometry": {
        "type": "Point",
        "coordinates": [
          36.448389,
          11.293047
        ]
      },
      "properties": {
        "label": "L-Cysteine",
        "level": 2,
        "pos": "18044.65,8554.87",
        "weight": "0.0"
      }
    },
    {
      "type": "Feature",
      "id": "685",
      "geometry": {
        "type": "Point",
        "coordinates": [
          33.383903,
          13.363766
        ]
      },
      "properties": {
        "label": "Medical diet",
        "level": 2,
        "pos": "16153.17,10155.24",
        "weight": "0.0"
      }
    },
    {
      "type": "Feature",
      "id": "976",
      "geometry": {
        "type": "Point",
        "coordinates": [
          35.798497,
          6.396932
        ]
      },
      "properties": {
        "label": "Dystonia",
        "level": 7,
        "pos": "17643.52,4812.67",
        "weight": "0.0"
      }
    },
    {
      "type": "Feature",
      "id": "42",
      "geometry": {
        "type": "Point",
        "coordinates": [
          37.260895,
          4.706713
        ]
      },
      "properties": {
        "label": "Tuberous sclerosis",
        "level": 2,
        "pos": "18546.15,3530.51",
        "weight": "5190.0"
      }
    },
    {
      "type": "Feature",
      "id": "109",
      "geometry": {
        "type": "Point",
        "coordinates": [
          27.003921,
          6.066561
        ]
      },
      "properties": {
        "label": "Autoimmune disorder",
        "level": 4,
        "pos": "12215.28,4561.76",
        "weight": "0.0"
      }
    },