{
  "type": "FeatureCollection",
  "features": [
    {
      "type": "Feature",
      "id": "731",
      "geometry": {
        "type": "Point",
        "coordinates": [
          -59.366658,
          6.864615
        ]
      },
      "properties": {
        "label": "Leuprolide",
        "level": 3,
        "pos": "-173113.46917391382,-8390.264543709713",
        "src_id": "7",
        "weight": "0.00044124164017156657"
      }
    },
    {
      "type": "Feature",
      "id": "636",
      "geometry": {
        "type": "Point",
        "coordinates": [
          -60.470684,
          6.561562
        ]
      },
      "properties": {
        "label": "Endometriosis",
        "level": 3,
        "pos": "-176099.17222777876,-9201.390388428203",
        "src_id": "175911",
        "weight": "0.00029605179264923854"
      }
    },
    {
      "type": "Feature",
      "id": "205",
      "geometry": {
        "type": "Point",
        "coordinates": [
          -58.200447,
          6.753683
        ]
      },
      "properties": {
        "label": "Hysterectomy",
        "level": 2,
        "pos": "-169959.60424374667,-8687.23035472527",
        "src_id": "178681",
        "weight": "0.0012588873929955308"
      }
    },
    {
      "type": "Feature",
      "id": "152",
      "geometry": {
        "type": "Point",
        "coordinates": [
          -56.030895,
          5.034563
        ]
      },
      "properties": {
        "label": "Blood oestrogen",
        "level": 2,
        "pos": "-164092.32428792035,-13281.409563295892",
        "src_id": "172274",
        "weight": "0.0020426610987560032"
      }
    },
    {
      "type": "Feature",
      "id": "543",
      "geometry": {
        "type": "Point",
        "coordinates": [
          -60.292602,
          8.067076
        ]
      },
      "properties": {
        "label": "Conjugated estrogens",
        "level": 3,
        "pos": "-175617.56622513692,-5166.523816577422",
        "src_id": "277",
        "weight": "0.0007383008591053057"
      }
    },
    {
      "type": "Feature",
      "id": "1090",
      "geometry": {
        "type": "Point",
        "coordinates": [
          -58.034816,
          7.949607
        ]
      },
      "properties": {
        "label": "Uterine leiomyoma",
        "level": 4,
        "pos": "-169511.67436806424,-5481.8496420499605",
        "src_id": "188107",
        "weight": "0.00012862426078286786"
      }
    },
    {
      "type": "Feature",
      "id": "1373",
      "geometry": {
        "type": "Point",
        "coordinates": [
          -58.929529,
          6.15303
        ]
      },
      "properties": {
        "label": "Uterine cancer",
        "level": 4,
        "pos": "-171931.30694935596,-10294.05821777426",
        "src_id": "188072",
        "weight": "0.00010703090247025224"
      }
    },
    {
      "type": "Feature",
      "id": "126",
      "geometry": {
        "type": "Point",
        "coordinates": [
          -53.49653,
          4.188694
        ]
      },
      "properties": {
        "label": "Contraception",
        "level": 1,
        "pos": "-157238.44561372825,-15537.200983385246",
        "src_id": "174350",
        "weight": "0.002071574534298967"
      }
    },
    {
      "type": "Feature",
      "id": "522",
      "geometry": {
        "type": "Point",
        "coordinates": [
          -56.277533,
          3.228477
        ]
      },
      "properties": {
        "label": "Testosterone",
        "level": 3,
        "pos": "-164759.31988587085,-18095.01048145973",
        "src_id": "611",
        "weight": "0.0006213599762224777"
      }
    },
    {
      "type": "Feature",
      "id": "890",
      "geometry": {
        "type": "Point",
        "coordinates": [
          -55.736868,
          4.087247
        ]
      },
      "properties": {
        "label": "Estradiol",
        "level": 4,
        "pos": "-163297.16148890523,-15807.568175062674",
        "src_id": "769",
        "weight": "0.00013506657246164068"
      }
    },
    {
      "type": "Feature",
      "id": "840",
      "geometry": {
        "type": "Point",
        "coordinates": [
          -55.281465,
          4.451652
        ]
      },
      "properties": {
        "label": "Hormone replacement therapy",
        "level": 4,
        "pos": "-162065.58181837012,-14836.218634884723",
        "src_id": "178305",
        "weight": "0.00016105801317328202"
      }
    },
    {
      "type": "Feature",
      "id": "711",
      "geometry": {
        "type": "Point",
        "coordinates": [
          -56.435773,
          6.145751
        ]
      },
      "properties": {
        "label": "Hormone therapy",
        "level": 3,
        "pos": "-165187.25915299883,-10313.519564343635",
        "src_id": "178307",
        "weight": "0.00021185087857386597"
      }
    },
    {
      "type": "Feature",
      "id": "689",
      "geometry": {
        "type": "Point",
        "coordinates": [
          -55.837298,
          6.460273
        ]
      },
      "properties": {
        "label": "Progesterone",
        "level": 3,
        "pos": "-163568.760992928,-9472.381970915809",
        "src_id": "184202",
        "weight": "0.0004217577555368052"
      }
    },
    {
      "type": "Feature",
      "id": "791",
      "geometry": {
        "type": "Point",
        "coordinates": [
          -55.082628,
          6.108649
        ]
      },
      "properties": {
        "label": "Hormone level abnormal",
        "level": 4,
        "pos": "-161527.85249882445,-10412.709654701137",
        "src_id": "178304",
        "weight": "0.0001418456615592529"
      }
    },
    {
      "type": "Feature",
      "id": "703",
      "geometry": {
        "type": "Point",
        "coordinates": [
          -62.680013,
          7.773751
        ]
      },
      "properties": {
        "label": "Desipramine",
        "level": 3,
        "pos": "-182074.02089484571,-5953.74407151119",
        "src_id": "1135",
        "weight": "0.00047941659942876935"
      }
    },
    {
      "type": "Feature",
      "id": "309",
      "geometry": {
        "type": "Point",
        "coordinates": [
          -60.170737,
          9.252022
        ]
      },
      "properties": {
        "label": "Anxiety disorder",
        "level": 3,
        "pos": "-175288.00367366394,-1980.347865726523",
        "src_id": "170662",
        "weight": "0.0004990320491142283"
      }
    },
    {
      "type": "Feature",
      "id": "240",
      "geometry": {
        "type": "Point",
        "coordinates": [
          -61.079838,
          9.212873
        ]
      },
      "properties": {
        "label": "Major depression",
        "level": 3,
        "pos": "-177746.54535971832,-2085.7843858292676",
        "src_id": "180375",
        "weight": "0.0007731197267248739"
      }
    },
    {
      "type": "Feature",
      "id": "906",
      "geometry": {
        "type": "Point",
        "coordinates": [
          -60.987347,
          7.505345
        ]
      },
      "properties": {
        "label": "Muscle atrophy",
        "level": 3,
        "pos": "-177496.42212402544,-6673.595327144363",
        "src_id": "181237",
        "weight": "0.00025500940650400694"
      }
    },
    {
      "type": "Feature",
      "id": "574",
      "geometry": {
        "type": "Point",
        "coordinates": [
          -49.868382,
          6.186628
        ]
      },
      "properties": {
        "label": "Levonorgestrel",
        "level": 3,
        "pos": "-147426.5807882119,-10204.225787935504",
        "src_id": "357",
        "weight": "0.0008772141505905092"
      }
    },
    {
      "type": "Feature",
      "id": "493",
      "geometry": {
        "type": "Point",
        "coordinates": [
          -49.811238,
          1.907362
        ]
      },
      "properties": {
        "label": "Intra-uterine contraceptive device",
        "level": 3,
        "pos": "-147272.0409304684,-21610.369830952575",
        "src_id": "179325",
        "weight": "0.0007818801590556453"
      }
    },
    {
      "type": "Feature",
      "id": "215",
      "geometry": {
        "type": "Point",
        "coordinates": [
          -48.848786,
          6.77937
        ]
      },
      "properties": {
        "label": "Drug interaction",
        "level": 3,
        "pos": "-144669.2050707172,-8618.473551102761",
        "src_id": "175376",
        "weight": "0.0007269626444743708"
      }
    },
    {
      "type": "Feature",
      "id": "448",
      "geometry": {
        "type": "Point",
        "coordinates": [
          -50.122419,
          8.968723
        ]
      },
      "properties": {
        "label": "Ethinyl Estradiol",
        "level": 2,
        "pos": "-148113.5921890244,-2743.029127682185",
        "src_id": "963",
        "weight": "0.0015619850407318854"
      }
    },
    {
      "type": "Feature",
      "id": "639",
      "geometry": {
        "type": "Point",
        "coordinates": [
          -44.055399,
          -7.285877
        ]
      },
      "properties": {
        "label": "Blood copper",
        "level": 3,
        "pos": "-131706.10125555954,-46100.92513808102",
        "src_id": "172045",
        "weight": "0.0002598357149332294"
      }
    },
    {
      "type": "Feature",
      "id": "719",
      "geometry": {
        "type": "Point",
        "coordinates": [
          -51.102024,
          9.444
        ]
      },
      "properties": {
        "label": "Etonogestrel",
        "level": 3,
        "pos": "-150762.81286007445,-1463.1673567781072",
        "src_id": "285",
        "weight": "0.0007740226345636086"
      }
    },
    {
      "type": "Feature",
      "id": "1358",
      "geometry": {
        "type": "Point",
        "coordinates": [
          -49.263396,
          9.411027
        ]
      },
      "properties": {
        "label": "Norethisterone",
        "level": 4,
        "pos": "-145790.465204006,-1552.0208378296427",
        "src_id": "703",
        "weight": "0.00013104723863926608"
      }
    },
    {
      "type": "Feature",
      "id": "1252",
      "geometry": {
        "type": "Point",
        "coordinates": [
          -49.575612,
          10.205225
        ]
      },
      "properties": {
        "label": "Norgestimate",
        "level": 3,
        "pos": "-146634.8158154612,590.4291463096469",
        "src_id": "943",
        "weight": "0.00018979645829932888"
      }
    },
    {
      "type": "Feature",
      "id": "1147",
      "geometry": {
        "type": "Point",
        "coordinates": [
          -50.329746,
          10.365124
        ]
      },
      "properties": {
        "label": "Drospirenone",
        "level": 3,
        "pos": "-148674.2849636897,1022.4053899758496",
        "src_id": "1340",
        "weight": "0.00018121569313257025"
      }
    },
    {
      "type": "Feature",
      "id": "1145",
      "geometry": {
        "type": "Point",
        "coordinates": [
          -50.738561,
          9.98323
        ]
      },
      "properties": {
        "label": "Norelgestromin",
        "level": 4,
        "pos": "-149779.86986453814,-8.950042733356696",
        "src_id": "5773",
        "weight": "0.00016871326631049546"
      }
    },
    {
      "type": "Feature",
      "id": "163",
      "geometry": {
        "type": "Point",
        "coordinates": [
          -53.534639,
          5.511365
        ]
      },
      "properties": {
        "label": "Oral contraception",
        "level": 2,
        "pos": "-157341.5063465754,-12008.600086217912",
        "src_id": "182298",
        "weight": "0.0012175079132257802"
      }
    },
    {
      "type": "Feature",
      "id": "973",
      "geometry": {
        "type": "Point",
        "coordinates": [
          -52.801985,
          5.294132
        ]
      },
      "properties": {
        "label": "Sexually active",
        "level": 4,
        "pos": "-155360.14002830707,-12588.617684682209",
        "src_id": "185816",
        "weight": "0.0001097255559067561"
      }
    },
    {
      "type": "Feature",
      "id": "955",
      "geometry": {
        "type": "Point",
        "coordinates": [
          -54.155215,
          3.201463
        ]
      },
      "properties": {
        "label": "Condom",
        "level": 4,
        "pos": "-159019.77951081333,-18166.933795045403",
        "src_id": "174062",
        "weight": "0.00012029560618740893"
      }
    },
    {
      "type": "Feature",
      "id": "1106",
      "geometry": {
        "type": "Point",
        "coordinates": [
          -52.900174,
          3.41193
        ]
      },
      "properties": {
        "label": "Metrorrhagia",
        "level": 4,
        "pos": "-155625.67817733198,-17606.54293862081",
        "src_id": "180938",
        "weight": "0.00010260914790877862"
      }
    },
    {
      "type": "Feature",
      "id": "1364",
      "geometry": {
        "type": "Point",
        "coordinates": [
          -52.348239,
          4.714108
        ]
      },
      "properties": {
        "label": "Desogestrel",
        "level": 4,
        "pos": "-154133.03558951963,-14136.329279450229",
        "src_id": "295",
        "weight": "9.847897295514072e-05"
      }
    },
    {
      "type": "Feature",
      "id": "947",
      "geometry": {
        "type": "Point",
        "coordinates": [
          -53.461517,
          3.067797
        ]
      },
      "properties": {
        "label": "Menorrhagia",
        "level": 4,
        "pos": "-157143.75883820534,-18522.77244708299",
        "src_id": "180772",
        "weight": "0.00011947248769228464"
      }
    },
    {
      "type": "Feature",
      "id": "311",
      "geometry": {
        "type": "Point",
        "coordinates": [
          -37.166618,
          -16.141741
        ]
      },
      "properties": {
        "label": "Zinc",
        "level": 2,
        "pos": "-113076.25929559086,-70168.06283338956",
        "src_id": "1526",
        "weight": "0.0011279096779673163"
      }
    },
    {
      "type": "Feature",
      "id": "211",
      "geometry": {
        "type": "Point",
        "coordinates": [
          -57.442919,
          4.179288
        ]
      },
      "properties": {
        "label": "Progesterone",
        "level": 2,
        "pos": "-167910.9585100744,-15562.270523619783",
        "src_id": "385",
        "weight": "0.0016557149881239264"
      }
    },
    {
      "type": "Feature",
      "id": "114",
      "geometry": {
        "type": "Point",
        "coordinates": [
          -58.615641,
          2.853741
        ]
      },
      "properties": {
        "label": "Menopause",
        "level": 2,
        "pos": "-171082.44013598296,-19092.533096094598",
        "src_id": "180770",
        "weight": "0.0017488500252292446"
      }
    },
    {
      "type": "Feature",
      "id": "589",
      "geometry": {
        "type": "Point",
        "coordinates": [
          -58.584695,
          4.155268
        ]
      },
      "properties": {
        "label": "Medroxyprogesterone acetate",
        "level": 3,
        "pos": "-170998.749759247,-15626.285723976976",
        "src_id": "590",
        "weight": "0.0002912647809399465"
      }
    },
    {
      "type": "Feature",
      "id": "1368",
      "geometry": {
        "type": "Point",
        "coordinates": [
          -58.223783,
          4.803559
        ]
      },
      "properties": {
        "label": "Chasteberry",
        "level": 4,
        "pos": "-170022.71330970182,-13897.728826531156",
        "src_id": "239745",
        "weight": "9.880621385187817e-05"
      }
    },
    {
      "type": "Feature",
      "id": "266",
      "geometry": {
        "type": "Point",
        "coordinates": [
          -59.401257,
          1.721673
        ]
      },
      "properties": {
        "label": "Hot flush",
        "level": 3,
        "pos": "-173207.0402899659,-22104.2070700746",
        "src_id": "178313",
        "weight": "0.0008685464325033432"
      }
    },
    {
      "type": "Feature",
      "id": "133",
      "geometry": {
        "type": "Point",
        "coordinates": [
          -59.676674,
          2.669302
        ]
      },
      "properties": {
        "label": "Puberty",
        "level": 2,
        "pos": "-173951.86657019044,-19583.3741593844",
        "src_id": "184462",
        "weight": "0.001268021697009351"
      }
    },
    {
      "type": "Feature",
      "id": "595",
      "geometry": {
        "type": "Point",
        "coordinates": [
          -56.615167,
          1.393197
        ]
      },
      "properties": {
        "label": "Erectile dysfunction",
        "level": 3,
        "pos": "-165672.41453474562,-22977.680730039567",
        "src_id": "176149",
        "weight": "0.0003361850397134691"
      }
    },
    {
      "type": "Feature",
      "id": "424",
      "geometry": {
        "type": "Point",
        "coordinates": [
          -55.496365,
          1.903482
        ]
      },
      "properties": {
        "label": "Blood prolactin",
        "level": 3,
        "pos": "-162646.74546696604,-21620.689451364902",
        "src_id": "172344",
        "weight": "0.0004455094324537178"
      }
    },
    {
      "type": "Feature",
      "id": "835",
      "geometry": {
        "type": "Point",
        "coordinates": [
          -57.212159,
          2.943593
        ]
      },
      "properties": {
        "label": "Loss of libido",
        "level": 3,
        "pos": "-167286.90415090325,-18853.38031550688",
        "src_id": "180131",
        "weight": "0.0001998236460420466"
      }
    },
    {
      "type": "Feature",
      "id": "1010",
      "geometry": {
        "type": "Point",
        "coordinates": [
          -55.900976,
          7.673502
        ]
      },
      "properties": {
        "label": "Anovulatory cycle",
        "level": 3,
        "pos": "-163740.97429777568,-6222.657332749916",
        "src_id": "170456",
        "weight": "0.000248420993301519"
      }
    },
    {
      "type": "Feature",
      "id": "593",
      "geometry": {
        "type": "Point",
        "coordinates": [
          -60.049884,
          0.864457
        ]
      },
      "properties": {
        "label": "Night sweats",
        "level": 3,
        "pos": "-174961.1721454544,-24383.444680087927",
        "src_id": "181827",
        "weight": "0.0002461630794483883"
      }
    },
    {
      "type": "Feature",
      "id": "23",
      "geometry": {
        "type": "Point",
        "coordinates": [
          20.96103,
          55.997934
        ]
      },
      "properties": {
        "label": "Amnesia",
        "level": 1,
        "pos": "44122.63632939445,153794.4454484241",
        "src_id": "170136",
        "weight": "0.0032202224800775715"
      }
    },
    {
      "type": "Feature",
      "id": "13",
      "geometry": {
        "type": "Point",
        "coordinates": [
          18.759127,
          55.695954
        ]
      },
      "properties": {
        "label": "Confusional state",
        "level": 1,
        "pos": "38167.869024989515,152364.6143343989",
        "src_id": "174071",
        "weight": "0.004795576148027779"
      }
    },
    {
      "type": "Feature",
      "id": "1083",
      "geometry": {
        "type": "Point",
        "coordinates": [
          22.384428,
          55.749622
        ]
      },
      "properties": {
        "label": "Donepezil",
        "level": 4,
        "pos": "47972.03595552226,152617.9087319842",
        "src_id": "829",
        "weight": "9.838281511283309e-05"
      }
    },
    {
      "type": "Feature",
      "id": "1279",
      "geometry": {
        "type": "Point",
        "coordinates": [
          22.559193,
          56.042626
        ]
      },
      "properties": {
        "label": "Senile dementia",
        "level": 4,
        "pos": "48444.666888581865,154007.01196549294",
        "src_id": "185727",
        "weight": "9.361200075032378e-05"
      }
    },
    {
      "type": "Feature",
      "id": "1484",
      "geometry": {
        "type": "Point",
        "coordinates": [
          22.386646,
          56.236935
        ]
      },
      "properties": {
        "label": "Anosmia",
        "level": 4,
        "pos": "47978.03531303443,154934.02882398528",
        "src_id": "170453",
        "weight": "9.181440567827138e-05"
      }
    },
    {
      "type": "Feature",
      "id": "1163",
      "geometry": {
        "type": "Point",
        "coordinates": [
          21.967962,
          55.527367
        ]
      },
      "properties": {
        "label": "Therapeutic procedure",
        "level": 4,
        "pos": "46845.75819255398,151571.17164917398",
        "src_id": "186884",
        "weight": "9.631386496268088e-05"
      }
    },
    {
      "type": "Feature",
      "id": "1161",
      "geometry": {
        "type": "Point",
        "coordinates": [
          21.842169,
          56.504247
        ]
      },
      "properties": {
        "label": "Transplant",
        "level": 4,
        "pos": "46505.574940901504,156217.06058592765",
        "src_id": "187334",
        "weight": "9.665072693646289e-05"
      }
    },
    {
      "type": "Feature",
      "id": "4",
      "geometry": {
        "type": "Point",
        "coordinates": [
          15.24861,
          53.6966
        ]
      },
      "properties": {
        "label": "Electroencephalogram",
        "level": 1,
        "pos": "28674.12225414599,143166.00352223974",
        "src_id": "175720",
        "weight": "0.0064984604445425965"
      }
    },
    {
      "type": "Feature",
      "id": "24",
      "geometry": {
        "type": "Point",
        "coordinates": [
          19.492357,
          56.968562
        ]
      },
      "properties": {
        "label": "Loss of consciousness",
        "level": 1,
        "pos": "40150.79838369677,158467.32071650744",
        "src_id": "180127",
        "weight": "0.0037613193014656224"
      }
    },
    {
      "type": "Feature",
      "id": "35",
      "geometry": {
        "type": "Point",
        "coordinates": [
          23.332078,
          57.108365
        ]
      },
      "properties": {
        "label": "Tremor",
        "level": 1,
        "pos": "50534.84229254835,159150.3534675351",
        "src_id": "187373",
        "weight": "0.0033443064368117574"
      }
    },
    {
      "type": "Feature",
      "id": "1166",
      "geometry": {
        "type": "Point",
        "coordinates": [
          18.069285,
          56.485472
        ]
      },
      "properties": {
        "label": "Slow speech",
        "level": 4,
        "pos": "36302.2778392591,156126.65315262106",
        "src_id": "186023",
        "weight": "9.487107158090454e-05"
      }
    },
    {
      "type": "Feature",
      "id": "1073",
      "geometry": {
        "type": "Point",
        "coordinates": [
          17.632271,
          56.116643
        ]
      },
      "properties": {
        "label": "Amblyopia",
        "level": 4,
        "pos": "35120.42548042358,154359.58217561108",
        "src_id": "170111",
        "weight": "9.971065875040349e-05"
      }
    },
    {
      "type": "Feature",
      "id": "1205",
      "geometry": {
        "type": "Point",
        "coordinates": [
          18.512755,
          56.430733
        ]
      },
      "properties": {
        "label": "Hypomania",
        "level": 4,
        "pos": "37501.5867414172,155863.3126846999",
        "src_id": "178609",
        "weight": "9.586631730981783e-05"
      }
    },
    {
      "type": "Feature",
      "id": "1538",
      "geometry": {
        "type": "Point",
        "coordinates": [
          19.430029,
          55.173591
        ]
      },
      "properties": {
        "label": "Piper",
        "level": 4,
        "pos": "39982.24287606309,149917.1424037143",
        "src_id": "240629",
        "weight": "8.755340209167165e-05"
      }
    },
    {
      "type": "Feature",
      "id": "1258",
      "geometry": {
        "type": "Point",
        "coordinates": [
          19.892675,
          55.4087
        ]
      },
      "properties": {
        "label": "Rheum",
        "level": 4,
        "pos": "41233.40840940362,151014.7128198487",
        "src_id": "240698",
        "weight": "9.325431682491884e-05"
      }
    },
    {
      "type": "Feature",
      "id": "49",
      "geometry": {
        "type": "Point",
        "coordinates": [
          19.456275,
          54.103747
        ]
      },
      "properties": {
        "label": "Computerised tomogram",
        "level": 1,
        "pos": "40053.21718921292,145002.87567991848",
        "src_id": "174039",
        "weight": "0.0029940053177553373"
      }
    },
    {
      "type": "Feature",
      "id": "1361",
      "geometry": {
        "type": "Point",
        "coordinates": [
          16.648982,
          53.413007
        ]
      },
      "properties": {
        "label": "Cyproheptadine",
        "level": 4,
        "pos": "32461.250864280955,141897.01946406535",
        "src_id": "423",
        "weight": "9.42235681391084e-05"
      }
    },
    {
      "type": "Feature",
      "id": "1247",
      "geometry": {
        "type": "Point",
        "coordinates": [
          16.190795,
          53.28575
        ]
      },
      "properties": {
        "label": "Lactic Acid",
        "level": 4,
        "pos": "31222.138050748206,141330.33621699762",
        "src_id": "4144",
        "weight": "9.572717418135105e-05"
      }
    },
    {
      "type": "Feature",
      "id": "1124",
      "geometry": {
        "type": "Point",
        "coordinates": [
          16.541393,
          54.229019
        ]
      },
      "properties": {
        "label": "Circadian rhythm sleep disorder",
        "level": 4,
        "pos": "32170.290892107645,145571.68002769517",
        "src_id": "173754",
        "weight": "9.855930920908159e-05"
      }
    },
    {
      "type": "Feature",
      "id": "1176",
      "geometry": {
        "type": "Point",
        "coordinates": [
          15.680813,
          54.764672
        ]
      },
      "properties": {
        "label": "Respiratory failure",
        "level": 4,
        "pos": "29842.958581812793,148023.4926971726",
        "src_id": "185134",
        "weight": "9.579689057052702e-05"
      }
    },
    {
      "type": "Feature",
      "id": "1351",
      "geometry": {
        "type": "Point",
        "coordinates": [
          16.609494,
          54.396619
        ]
      },
      "properties": {
        "label": "Chloral hydrate",
        "level": 4,
        "pos": "32354.459202533482,146335.37708719424",
        "src_id": "1497",
        "weight": "9.426305397819442e-05"
      }
    },
    {
      "type": "Feature",
      "id": "1337",
      "geometry": {
        "type": "Point",
        "coordinates": [
          14.65019,
          54.693039
        ]
      },
      "properties": {
        "label": "Blood gases",
        "level": 4,
        "pos": "27055.76781849809,147693.73974385156",
        "src_id": "172141",
        "weight": "9.414459646093637e-05"
      }
    },
    {
      "type": "Feature",
      "id": "1472",
      "geometry": {
        "type": "Point",
        "coordinates": [
          15.027612,
          54.899436
        ]
      },
      "properties": {
        "label": "Blood pyruvic acid",
        "level": 4,
        "pos": "28076.462396259107,148645.43727544873",
        "src_id": "172349",
        "weight": "9.161156765420942e-05"
      }
    },
    {
      "type": "Feature",
      "id": "1334",
      "geometry": {
        "type": "Point",
        "coordinates": [
          16.820874,
          54.144222
        ]
      },
      "properties": {
        "label": "Cardiac murmur",
        "level": 4,
        "pos": "32926.10646389387,145186.46824769053",
        "src_id": "173066",
        "weight": "9.456043011289042e-05"
      }
    },
    {
      "type": "Feature",
      "id": "1649",
      "geometry": {
        "type": "Point",
        "coordinates": [
          14.196529,
          54.337358
        ]
      },
      "properties": {
        "label": "Complicated migraine",
        "level": 4,
        "pos": "25828.900767072755,146064.98663323882",
        "src_id": "174014",
        "weight": "8.746555455017805e-05"
      }
    },
    {
      "type": "Feature",
      "id": "1324",
      "geometry": {
        "type": "Point",
        "coordinates": [
          16.786655,
          54.029412
        ]
      },
      "properties": {
        "label": "Disinhibition",
        "level": 4,
        "pos": "32833.57373515293,144666.1710664131",
        "src_id": "175271",
        "weight": "9.466891162190547e-05"
      }
    },
    {
      "type": "Feature",
      "id": "1454",
      "geometry": {
        "type": "Point",
        "coordinates": [
          15.482228,
          54.971618
        ]
      },
      "properties": {
        "label": "Drug screen",
        "level": 4,
        "pos": "29305.90983184607,148979.42418717654",
        "src_id": "175398",
        "weight": "9.169053933238145e-05"
      }
    },
    {
      "type": "Feature",
      "id": "1450",
      "geometry": {
        "type": "Point",
        "coordinates": [
          16.399956,
          54.632281
        ]
      },
      "properties": {
        "label": "Electrocution",
        "level": 4,
        "pos": "31787.79319266822,147414.50777844185",
        "src_id": "175718",
        "weight": "9.192745436689752e-05"
      }
    },
    {
      "type": "Feature",
      "id": "1307",
      "geometry": {
        "type": "Point",
        "coordinates": [
          16.429334,
          53.357397
        ]
      },
      "properties": {
        "label": "Hallucinations, mixed",
        "level": 4,
        "pos": "31867.244084051454,141649.18064032253",
        "src_id": "177741",
        "weight": "9.458993994373344e-05"
      }
    },
    {
      "type": "Feature",
      "id": "1432",
      "geometry": {
        "type": "Point",
        "coordinates": [
          16.90205,
          53.708864
        ]
      },
      "properties": {
        "label": "Hyporeflexia",
        "level": 4,
        "pos": "33145.640553686695,143221.07361886578",
        "src_id": "178644",
        "weight": "9.161156765420942e-05"
      }
    },
    {
      "type": "Feature",
      "id": "1296",
      "geometry": {
        "type": "Point",
        "coordinates": [
          16.739757,
          53.629029
        ]
      },
      "properties": {
        "label": "Intracranial pressure increased",
        "level": 4,
        "pos": "32706.741863433457,142862.87376193513",
        "src_id": "179337",
        "weight": "9.414459646093637e-05"
      }
    },
    {
      "type": "Feature",
      "id": "1396",
      "geometry": {
        "type": "Point",
        "coordinates": [
          14.687031,
          54.857875
        ]
      },
      "properties": {
        "label": "Rebound effect",
        "level": 4,
        "pos": "27155.395002014553,148453.41377748435",
        "src_id": "184820",
        "weight": "9.191747835865453e-05"
      }
    },
    {
      "type": "Feature",
      "id": "1389",
      "geometry": {
        "type": "Point",
        "coordinates": [
          16.087499,
          54.70793
        ]
      },
      "properties": {
        "label": "Shared psychotic disorder",
        "level": 4,
        "pos": "30942.79318149888,147762.24361920223",
        "src_id": "185821",
        "weight": "9.188796852781151e-05"
      }
    },
    {
      "type": "Feature",
      "id": "1265",
      "geometry": {
        "type": "Point",
        "coordinates": [
          15.900284,
          54.831483
        ]
      },
      "properties": {
        "label": "Vasodilation procedure",
        "level": 4,
        "pos": "30436.48676724176,148331.56987895296",
        "src_id": "188345",
        "weight": "9.429328452828437e-05"
      }
    },
    {
      "type": "Feature",
      "id": "1638",
      "geometry": {
        "type": "Point",
        "coordinates": [
          14.449826,
          54.516978
        ]
      },
      "properties": {
        "label": "Electrocardiogram ambulatory",
        "level": 4,
        "pos": "26513.908857057668,146885.7414032107",
        "src_id": "175657",
        "weight": "8.75740360591931e-05"
      }
    },
    {
      "type": "Feature",
      "id": "758",
      "geometry": {
        "type": "Point",
        "coordinates": [
          20.349517,
          57.693444
        ]
      },
      "properties": {
        "label": "Toxicity to various agents",
        "level": 4,
        "pos": "42468.88251320139,162037.1375916663",
        "src_id": "187230",
        "weight": "0.00011722217272949338"
      }
    },
    {
      "type": "Feature",
      "id": "987",
      "geometry": {
        "type": "Point",
        "coordinates": [
          20.639806,
          57.323266
        ]
      },
      "properties": {
        "label": "Immobile",
        "level": 4,
        "pos": "43253.93343455205,160205.33400745757",
        "src_id": "178756",
        "weight": "0.00010119284864083185"
      }
    },
    {
      "type": "Feature",
      "id": "1098",
      "geometry": {
        "type": "Point",
        "coordinates": [
          18.831728,
          57.617988
        ]
      },
      "properties": {
        "label": "Sick relative",
        "level": 4,
        "pos": "38364.20759838814,161662.24020155577",
        "src_id": "185859",
        "weight": "9.803842729409972e-05"
      }
    },
    {
      "type": "Feature",
      "id": "1234",
      "geometry": {
        "type": "Point",
        "coordinates": [
          19.941374,
          57.863477
        ]
      },
      "properties": {
        "label": "Altered state of consciousness",
        "level": 4,
        "pos": "41365.10573700504,162884.82452549684",
        "src_id": "170085",
        "weight": "9.626222549333801e-05"
      }
    },
    {
      "type": "Feature",
      "id": "981",
      "geometry": {
        "type": "Point",
        "coordinates": [
          19.447951,
          57.82351
        ]
      },
      "properties": {
        "label": "Local anaesthesia",
        "level": 4,
        "pos": "40030.70885938775,162685.21483498267",
        "src_id": "180103",
        "weight": "0.00010257312967256986"
      }
    },
    {
      "type": "Feature",
      "id": "34",
      "geometry": {
        "type": "Point",
        "coordinates": [
          23.115392,
          58.021561
        ]
      },
      "properties": {
        "label": "Fall",
        "level": 1,
        "pos": "49948.83512051478,163676.53212458215",
        "src_id": "176540",
        "weight": "0.003137051583845913"
      }
    },
    {
      "type": "Feature",
      "id": "42",
      "geometry": {
        "type": "Point",
        "coordinates": [
          24.671693,
          58.50598
        ]
      },
      "properties": {
        "label": "Crying",
        "level": 1,
        "pos": "54157.66362412975,166124.56826333946",
        "src_id": "174575",
        "weight": "0.0028911876367234235"
      }
    },
    {
      "type": "Feature",
      "id": "36",
      "geometry": {
        "type": "Point",
        "coordinates": [
          27.669311,
          57.939496
        ]
      },
      "properties": {
        "label": "Muscle twitching",
        "level": 1,
        "pos": "62264.34485314019,163265.10432417926",
        "src_id": "181276",
        "weight": "0.0030672693801141954"
      }
    },
    {
      "type": "Feature",
      "id": "122",
      "geometry": {
        "type": "Point",
        "coordinates": [
          25.116853,
          57.792456
        ]
      },
      "properties": {
        "label": "Tension",
        "level": 2,
        "pos": "55361.54243962829,162530.26973925394",
        "src_id": "186772",
        "weight": "0.0014315994570725608"
      }
    },
    {
      "type": "Feature",
      "id": "55",
      "geometry": {
        "type": "Point",
        "coordinates": [
          27.093015,
          56.951134
        ]
      },
      "properties": {
        "label": "Staring",
        "level": 1,
        "pos": "60705.819936903725,158382.348465567",
        "src_id": "186369",
        "weight": "0.0025377174498396266"
      }
    },
    {
      "type": "Feature",
      "id": "686",
      "geometry": {
        "type": "Point",
        "coordinates": [
          24.156646,
          56.333122
        ]
      },
      "properties": {
        "label": "Stress at work",
        "level": 4,
        "pos": "52764.78142728835,155394.6655433267",
        "src_id": "186465",
        "weight": "0.00013400714768531513"
      }
    },
    {
      "type": "Feature",
      "id": "1317",
      "geometry": {
        "type": "Point",
        "coordinates": [
          22.355223,
          57.684125
        ]
      },
      "properties": {
        "label": "Essential tremor",
        "level": 4,
        "pos": "47893.05720491235,161990.79967056215",
        "src_id": "176216",
        "weight": "9.632022030609742e-05"
      }
    },
    {
      "type": "Feature",
      "id": "706",
      "geometry": {
        "type": "Point",
        "coordinates": [
          -55.025354,
          0.570858
        ]
      },
      "properties": {
        "label": "Sexual dysfunction",
        "level": 3,
        "pos": "-161372.95687582888,-25163.93509434413",
        "src_id": "185812",
        "weight": "0.0004769485065636413"
      }
    },
    {
      "type": "Feature",
      "id": "108",
      "geometry": {
        "type": "Point",
        "coordinates": [
          5.271051,
          32.001226
        ]
      },
      "properties": {
        "label": "Clonic convulsion",
        "level": 2,
        "pos": "1691.0728963119882,63185.665582450805",
        "src_id": "173791",
        "weight": "0.0015282551059532649"
      }
    },
    {
      "type": "Feature",
      "id": "140",
      "geometry": {
        "type": "Point",
        "coordinates": [
          4.595816,
          32.643074
        ]
      },
      "properties": {
        "label": "Bite",
        "level": 2,
        "pos": "-135.02129486026334,65204.662068993726",
        "src_id": "171768",
        "weight": "0.0012281171151503523"
      }
    },
    {
      "type": "Feature",
      "id": "216",
      "geometry": {
        "type": "Point",
        "coordinates": [
          3.464548,
          35.040939
        ]
      },
      "properties": {
        "label": "Divorced",
        "level": 3,
        "pos": "-3194.394264860634,72879.83982375474",
        "src_id": "175315",
        "weight": "0.0008780806353478486"
      }
    },
    {
      "type": "Feature",
      "id": "73",
      "geometry": {
        "type": "Point",
        "coordinates": [
          4.497013,
          33.885445
        ]
      },
      "properties": {
        "label": "Nightmare",
        "level": 1,
        "pos": "-402.21518909414027,69154.38024209486",
        "src_id": "181828",
        "weight": "0.0021326262947806308"
      }
    },
    {
      "type": "Feature",
      "id": "1",
      "geometry": {
        "type": "Point",
        "coordinates": [
          11.844665,
          52.145328
        ]
      },
      "properties": {
        "label": "Convulsion",
        "level": 1,
        "pos": "19468.582374537833,136325.7242733596",
        "src_id": "174366",
        "weight": "0.024698720508738226"
      }
    },
    {
      "type": "Feature",
      "id": "2",
      "geometry": {
        "type": "Point",
        "coordinates": [
          10.482716,
          54.467387
        ]
      },
      "properties": {
        "label": "Epilepsy",
        "level": 1,
        "pos": "15785.358834570901,146658.77611813345",
        "src_id": "176107",
        "weight": "0.013073451190042117"
      }
    },
    {
      "type": "Feature",
      "id": "6",
      "geometry": {
        "type": "Point",
        "coordinates": [
          15.133918,
          52.658375
        ]
      },
      "properties": {
        "label": "Grand mal convulsion",
        "level": 1,
        "pos": "28363.95266891871,138561.0040891251",
        "src_id": "177516",
        "weight": "0.0053757387778945705"
      }
    },
    {
      "type": "Feature",
      "id": "9",
      "geometry": {
        "type": "Point",
        "coordinates": [
          15.24739,
          51.657939
        ]
      },
      "properties": {
        "label": "Surgery",
        "level": 1,
        "pos": "28670.82125154382,134225.95938824242",
        "src_id": "186589",
        "weight": "0.004497724510776403"
      }
    },
    {
      "type": "Feature",
      "id": "1742",
      "geometry": {
        "type": "Point",
        "coordinates": [
          12.36077,
          50.701425
        ]
      },
      "properties": {
        "label": "Pancrelipase",
        "level": 4,
        "pos": "20864.3207587623,130169.8364526719",
        "src_id": "80",
        "weight": "9.013563770316561e-05"
      }
    },
    {
      "type": "Feature",
      "id": "3",
      "geometry": {
        "type": "Point",
        "coordinates": [
          9.149376,
          49.863049
        ]
      },
      "properties": {
        "label": "Levetiracetam",
        "level": 1,
        "pos": "12179.511186097057,126682.19581270992",
        "src_id": "1186",
        "weight": "0.006278783505619934"
      }
    },
    {
      "type": "Feature",
      "id": "7",
      "geometry": {
        "type": "Point",
        "coordinates": [
          14.86573,
          50.065609
        ]
      },
      "properties": {
        "label": "Anxiety",
        "level": 1,
        "pos": "27638.672935538296,127519.23845504978",
        "src_id": "170661",
        "weight": "0.005281086369615552"
      }
    },
    {
      "type": "Feature",
      "id": "1741",
      "geometry": {
        "type": "Point",
        "coordinates": [
          12.586319,
          50.696495
        ]
      },
      "properties": {
        "label": "Glutamic Acid",
        "level": 4,
        "pos": "21474.293879354038,130149.15494556479",
        "src_id": "134",
        "weight": "9.013563770316561e-05"
      }
    },
    {
      "type": "Feature",
      "id": "1740",
      "geometry": {
        "type": "Point",
        "coordinates": [
          9.645664,
          51.980063
        ]
      },
      "properties": {
        "label": "Creatine",
        "level": 4,
        "pos": "13521.663202642045,135611.17000470308",
        "src_id": "140",
        "weight": "9.005666602499359e-05"
      }
    },
    {
      "type": "Feature",
      "id": "1739",
      "geometry": {
        "type": "Point",
        "coordinates": [
          13.890621,
          51.417686
        ]
      },
      "properties": {
        "label": "Phentermine",
        "level": 4,
        "pos": "25001.608774415094,133199.2107813231",
        "src_id": "182",
        "weight": "9.005666602499359e-05"
      }
    },
    {
      "type": "Feature",
      "id": "1738",
      "geometry": {
        "type": "Point",
        "coordinates": [
          13.145946,
          53.295766
        ]
      },
      "properties": {
        "label": "Erythromycin",
        "level": 4,
        "pos": "22987.72881349174,141374.87663305752",
        "src_id": "190",
        "weight": "9.005666602499359e-05"
      }
    },
    {
      "type": "Feature",
      "id": "1737",
      "geometry": {
        "type": "Point",
        "coordinates": [
          10.293607,
          53.047323
        ]
      },
      "properties": {
        "label": "Azithromycin",
        "level": 4,
        "pos": "15273.935387681762,140273.13745112412",
        "src_id": "198",
        "weight": "9.005666602499359e-05"
      }
    },
    {
      "type": "Feature",
      "id": "1735",
      "geometry": {
        "type": "Point",
        "coordinates": [
          13.387939,
          53.239643
        ]
      },
      "properties": {
        "label": "Pantoprazole",
        "level": 4,
        "pos": "23642.170512426397,141125.44481090558",
        "src_id": "204",
        "weight": "9.005666602499359e-05"
      }
    },
    {
      "type": "Feature",
      "id": "1734",
      "geometry": {
        "type": "Point",
        "coordinates": [
          13.358646,
          52.992186
        ]
      },
      "properties": {
        "label": "Temazepam",
        "level": 4,
        "pos": "23562.94700364409,140029.487333993",
        "src_id": "222",
        "weight": "9.017512354225163e-05"
      }
    },
    {
      "type": "Feature",
      "id": "1733",
      "geometry": {
        "type": "Point",
        "coordinates": [
          12.284305,
          53.365529
        ]
      },
      "properties": {
        "label": "Cabergoline",
        "level": 4,
        "pos": "20657.527948386956,141685.3964555508",
        "src_id": "239",
        "weight": "9.005666602499359e-05"
      }
    },
    {
      "type": "Feature",
      "id": "1732",
      "geometry": {
        "type": "Point",
        "coordinates": [
          10.163603,
          52.824181
        ]
      },
      "properties": {
        "label": "Methadone",
        "level": 4,
        "pos": "14922.35739384189,139288.9952606141",
        "src_id": "323",
        "weight": "9.005666602499359e-05"
      }
    },
    {
      "type": "Feature",
      "id": "1731",
      "geometry": {
        "type": "Point",
        "coordinates": [
          10.171387,
          53.050987
        ]
      },
      "properties": {
        "label": "Clozapine",
        "level": 4,
        "pos": "14943.40537815952,140289.3389416266",
        "src_id": "353",
        "weight": "9.005666602499359e-05"
      }
    },
    {
      "type": "Feature",
      "id": "1730",
      "geometry": {
        "type": "Point",
        "coordinates": [
          14.215506,
          52.128756
        ]
      },
      "properties": {
        "label": "Amlodipine",
        "level": 4,
        "pos": "25880.21631168153,136253.9482428013",
        "src_id": "371",
        "weight": "9.005666602499359e-05"
      }
    },
    {
      "type": "Feature",
      "id": "1729",
      "geometry": {
        "type": "Point",
        "coordinates": [
          12.858804,
          53.363791
        ]
      },
      "properties": {
        "label": "Phenylpropanolamine",
        "level": 4,
        "pos": "22211.185003087125,141677.65662469008",
        "src_id": "386",
        "weight": "9.013563770316561e-05"
      }
    },
    {
      "type": "Feature",
      "id": "1726",
      "geometry": {
        "type": "Point",
        "coordinates": [
          9.651984,
          51.66638
        ]
      },
      "properties": {
        "label": "Atropine",
        "level": 4,
        "pos": "13538.751933387399,134262.12930591378",
        "src_id": "559",
        "weight": "9.005666602499359e-05"
      }
    },
    {
      "type": "Feature",
      "id": "1725",
      "geometry": {
        "type": "Point",
        "coordinates": [
          14.11031,
          51.629484
        ]
      },
      "properties": {
        "label": "Fluticasone propionate",
        "level": 4,
        "pos": "25595.731443814482,134104.06920333358",
        "src_id": "575",
        "weight": "9.005666602499359e-05"
      }
    },
    {
      "type": "Feature",
      "id": "1526",
      "geometry": {
        "type": "Point",
        "coordinates": [
          9.310289,
          52.089906
        ]
      },
      "properties": {
        "label": "Mycophenolate mofetil",
        "level": 4,
        "pos": "12614.682596061806,136085.8040258865",
        "src_id": "674",
        "weight": "0.00012724254438135517"
      }
    },
    {
      "type": "Feature",
      "id": "1724",
      "geometry": {
        "type": "Point",
        "coordinates": [
          13.120324,
          50.860043
        ]
      },
      "properties": {
        "label": "Procaine",
        "level": 4,
        "pos": "22918.43936746264,130836.6832462423",
        "src_id": "707",
        "weight": "9.005666602499359e-05"
      }
    },
    {
      "type": "Feature",
      "id": "1524",
      "geometry": {
        "type": "Point",
        "coordinates": [
          13.921815,
          52.79386
        ]
      },
      "properties": {
        "label": "Lisinopril",
        "level": 4,
        "pos": "25085.965570036802,139155.6561425785",
        "src_id": "708",
        "weight": "9.278712402715061e-05"
      }
    },
    {
      "type": "Feature",
      "id": "1723",
      "geometry": {
        "type": "Point",
        "coordinates": [
          13.021925,
          50.731997
        ]
      },
      "properties": {
        "label": "Nitroglycerin",
        "level": 4,
        "pos": "22652.33002339664,130298.19473248608",
        "src_id": "713",
        "weight": "9.005666602499359e-05"
      }
    },
    {
      "type": "Feature",
      "id": "1722",
      "geometry": {
        "type": "Point",
        "coordinates": [
          10.820694,
          50.717953
        ]
      },
      "properties": {
        "label": "Propofol",
        "level": 4,
        "pos": "16699.381916996703,130239.2211760479",
        "src_id": "804",
        "weight": "9.005666602499359e-05"
      }
    },
    {
      "type": "Feature",
      "id": "1517",
      "geometry": {
        "type": "Point",
        "coordinates": [
          14.411758,
          51.718278
        ]
      },
      "properties": {
        "label": "Naloxone",
        "level": 3,
        "pos": "26410.959986549813,134484.68407417185",
        "src_id": "1167",
        "weight": "0.0002525636413172231"
      }
    },
    {
      "type": "Feature",
      "id": "1718",
      "geometry": {
        "type": "Point",
        "coordinates": [
          10.291784,
          50.921812
        ]
      },
      "properties": {
        "label": "Selegiline",
        "level": 4,
        "pos": "15269.011585047316,131096.97468905686",
        "src_id": "1022",
        "weight": "9.005666602499359e-05"
      }
    },
    {
      "type": "Feature",
      "id": "1716",
      "geometry": {
        "type": "Point",
        "coordinates": [
          10.38997,
          50.895504
        ]
      },
      "properties": {
        "label": "Orlistat",
        "level": 4,
        "pos": "15534.53756768707,130986.06643406767",
        "src_id": "1067",
        "weight": "9.013563770316561e-05"
      }
    },
    {
      "type": "Feature",
      "id": "1714",
      "geometry": {
        "type": "Point",
        "coordinates": [
          9.930592,
          51.071032
        ]
      },
      "properties": {
        "label": "Diphenylpyraline",
        "level": 4,
        "pos": "14292.210180759901,131727.2107303865",
        "src_id": "1130",
        "weight": "9.005666602499359e-05"
      }
    },
    {
      "type": "Feature",
      "id": "1713",
      "geometry": {
        "type": "Point",
        "coordinates": [
          11.466474,
          53.243997
        ]
      },
      "properties": {
        "label": "Clarithromycin",
        "level": 4,
        "pos": "18445.8088841065,141144.7764290699",
        "src_id": "1195",
        "weight": "9.005666602499359e-05"
      }
    },
    {
      "type": "Feature",
      "id": "1711",
      "geometry": {
        "type": "Point",
        "coordinates": [
          12.269237,
          50.62305
        ]
      },
      "properties": {
        "label": "Methamphetamine",
        "level": 4,
        "pos": "20616.779645722276,129841.1765576892",
        "src_id": "1511",
        "weight": "9.005666602499359e-05"
      }
    },
    {
      "type": "Feature",
      "id": "1710",
      "geometry": {
        "type": "Point",
        "coordinates": [
          10.014863,
          52.872572
        ]
      },
      "properties": {
        "label": "gamma-Aminobutyric acid",
        "level": 4,
        "pos": "14520.107631832094,139501.99153245086",
        "src_id": "2399",
        "weight": "9.005666602499359e-05"
      }
    },
    {
      "type": "Feature",
      "id": "1708",
      "geometry": {
        "type": "Point",
        "coordinates": [
          11.750262,
          50.682953
        ]
      },
      "properties": {
        "label": "Butyric Acid",
        "level": 4,
        "pos": "19213.284646853423,130092.32661194232",
        "src_id": "3363",
        "weight": "9.005666602499359e-05"
      }
    },
    {
      "type": "Feature",
      "id": "1707",
      "geometry": {
        "type": "Point",
        "coordinates": [
          10.863691,
          50.648571
        ]
      },
      "properties": {
        "label": "Urea",
        "level": 4,
        "pos": "16815.65887804901,129948.13995915334",
        "src_id": "3677",
        "weight": "9.005666602499359e-05"
      }
    },
    {
      "type": "Feature",
      "id": "1705",
      "geometry": {
        "type": "Point",
        "coordinates": [
          13.084586,
          50.947225
        ]
      },
      "properties": {
        "label": "Nitrous oxide",
        "level": 4,
        "pos": "22821.791795985126,131204.15577013112",
        "src_id": "5750",
        "weight": "9.005666602499359e-05"
      }
    },
    {
      "type": "Feature",
      "id": "1704",
      "geometry": {
        "type": "Point",
        "coordinates": [
          13.238259,
          50.849124
        ]
      },
      "properties": {
        "label": "Tyramine",
        "level": 4,
        "pos": "23237.382236635145,130790.69549235234",
        "src_id": "7811",
        "weight": "9.005666602499359e-05"
      }
    },
    {
      "type": "Feature",
      "id": "1703",
      "geometry": {
        "type": "Point",
        "coordinates": [
          12.88887,
          50.68097
        ]
      },
      "properties": {
        "label": "Ubidecarenone",
        "level": 4,
        "pos": "22292.50483396868,130084.0073077836",
        "src_id": "8210",
        "weight": "9.013563770316561e-05"
      }
    },
    {
      "type": "Feature",
      "id": "1702",
      "geometry": {
        "type": "Point",
        "coordinates": [
          9.441798,
          51.74797
        ]
      },
      "properties": {
        "label": "Tianeptine",
        "level": 4,
        "pos": "12970.329123925474,134612.11940306763",
        "src_id": "8229",
        "weight": "9.005666602499359e-05"
      }
    },
    {
      "type": "Feature",
      "id": "1701",
      "geometry": {
        "type": "Point",
        "coordinates": [
          13.698991,
          51.018626
        ]
      },
      "properties": {
        "label": "Candida albicans",
        "level": 4,
        "pos": "24483.372430186246,131505.64168248017",
        "src_id": "8508",
        "weight": "9.013563770316561e-05"
      }
    },
    {
      "type": "Feature",
      "id": "1700",
      "geometry": {
        "type": "Point",
        "coordinates": [
          9.401475,
          52.06864
        ]
      },
      "properties": {
        "label": "Almond",
        "level": 4,
        "pos": "12861.284081968655,135993.82414081765",
        "src_id": "8574",
        "weight": "9.013563770316561e-05"
      }
    },
    {
      "type": "Feature",
      "id": "1699",
      "geometry": {
        "type": "Point",
        "coordinates": [
          10.651198,
          50.761609
        ]
      },
      "properties": {
        "label": "Lettuce",
        "level": 4,
        "pos": "16240.996300039815,130422.5869984281",
        "src_id": "8609",
        "weight": "9.013563770316561e-05"
      }
    },
    {
      "type": "Feature",
      "id": "1698",
      "geometry": {
        "type": "Point",
        "coordinates": [
          14.007007,
          51.558138
        ]
      },
      "properties": {
        "label": "Pineapple",
        "level": 4,
        "pos": "25316.355210516627,133798.78755727748",
        "src_id": "8628",
        "weight": "9.005666602499359e-05"
      }
    },
    {
      "type": "Feature",
      "id": "1697",
      "geometry": {
        "type": "Point",
        "coordinates": [
          11.560507,
          50.597257
        ]
      },
      "properties": {
        "label": "Sesame seed",
        "level": 4,
        "pos": "18700.105838150503,129733.13551807698",
        "src_id": "8635",
        "weight": "9.013563770316561e-05"
      }
    },
    {
      "type": "Feature",
      "id": "1696",
      "geometry": {
        "type": "Point",
        "coordinates": [
          14.042575,
          52.792165
        ]
      },
      "properties": {
        "label": "Blackberry",
        "level": 4,
        "pos": "25412.554719970627,139148.20750240033",
        "src_id": "8678",
        "weight": "9.025409522042365e-05"
      }
    },
    {
      "type": "Feature",
      "id": "1694",
      "geometry": {
        "type": "Point",
        "coordinates": [
          13.571412,
          53.043105
        ]
      },
      "properties": {
        "label": "Eggplant",
        "level": 4,
        "pos": "24138.35239233101,140254.4861060211",
        "src_id": "8694",
        "weight": "9.005666602499359e-05"
      }
    },
    {
      "type": "Feature",
      "id": "1693",
      "geometry": {
        "type": "Point",
        "coordinates": [
          12.207492,
          53.291298
        ]
      },
      "properties": {
        "label": "Urtica dioica pollen",
        "level": 4,
        "pos": "20449.79955111818,141355.0051738484",
        "src_id": "8802",
        "weight": "9.005666602499359e-05"
      }
    },
    {
      "type": "Feature",
      "id": "1494",
      "geometry": {
        "type": "Point",
        "coordinates": [
          9.713015,
          51.485061
        ]
      },
      "properties": {
        "label": "Acheta domesticus",
        "level": 4,
        "pos": "13703.800380599074,133486.60013950957",
        "src_id": "8882",
        "weight": "9.286609570532264e-05"
      }
    },
    {
      "type": "Feature",
      "id": "1691",
      "geometry": {
        "type": "Point",
        "coordinates": [
          9.779126,
          52.226746
        ]
      },
      "properties": {
        "label": "Venison",
        "level": 4,
        "pos": "13882.586988819605,136678.7247839533",
        "src_id": "8931",
        "weight": "9.005666602499359e-05"
      }
    },
    {
      "type": "Feature",
      "id": "1491",
      "geometry": {
        "type": "Point",
        "coordinates": [
          12.856518,
          53.285874
        ]
      },
      "properties": {
        "label": "Chlorine",
        "level": 4,
        "pos": "22205.008494629838,141330.8924737412",
        "src_id": "9054",
        "weight": "9.33794116134408e-05"
      }
    },
    {
      "type": "Feature",
      "id": "1690",
      "geometry": {
        "type": "Point",
        "coordinates": [
          11.970532,
          53.405952
        ]
      },
      "properties": {
        "label": "Silicon dioxide",
        "level": 4,
        "pos": "19808.96530215085,141865.56066981264",
        "src_id": "9077",
        "weight": "9.005666602499359e-05"
      }
    },
    {
      "type": "Feature",
      "id": "1688",
      "geometry": {
        "type": "Point",
        "coordinates": [
          13.944315,
          52.923945
        ]
      },
      "properties": {
        "label": "Creatinine",
        "level": 4,
        "pos": "25146.82103714081,139728.3681413835",
        "src_id": "9515",
        "weight": "9.005666602499359e-05"
      }
    },
    {
      "type": "Feature",
      "id": "1687",
      "geometry": {
        "type": "Point",
        "coordinates": [
          14.185699,
          52.299877
        ]
      },
      "properties": {
        "label": "Gadolinium",
        "level": 4,
        "pos": "25799.605003761862,136996.3391192866",
        "src_id": "9755",
        "weight": "9.005666602499359e-05"
      }
    },
    {
      "type": "Feature",
      "id": "1686",
      "geometry": {
        "type": "Point",
        "coordinates": [
          12.289019,
          53.225214
        ]
      },
      "properties": {
        "label": "Theanine",
        "level": 4,
        "pos": "20670.277063453286,141061.36229134732",
        "src_id": "10098",
        "weight": "9.005666602499359e-05"
      }
    },
    {
      "type": "Feature",
      "id": "1685",
      "geometry": {
        "type": "Point",
        "coordinates": [
          13.81136,
          52.984203
        ]
      },
      "properties": {
        "label": "Ozone",
        "level": 4,
        "pos": "24787.26036094371,139994.24449898012",
        "src_id": "10159",
        "weight": "9.017512354225163e-05"
      }
    },
    {
      "type": "Feature",
      "id": "1684",
      "geometry": {
        "type": "Point",
        "coordinates": [
          10.84474,
          53.155296
        ]
      },
      "properties": {
        "label": "Passiflora incarnata flower",
        "level": 4,
        "pos": "16764.40790814524,140751.16539257593",
        "src_id": "11006",
        "weight": "9.017512354225163e-05"
      }
    },
    {
      "type": "Feature",
      "id": "1683",
      "geometry": {
        "type": "Point",
        "coordinates": [
          13.902505,
          51.268448
        ]
      },
      "properties": {
        "label": "Accident at work",
        "level": 4,
        "pos": "25033.75175363563,132564.1388400741",
        "src_id": "169614",
        "weight": "9.013563770316561e-05"
      }
    },
    {
      "type": "Feature",
      "id": "1682",
      "geometry": {
        "type": "Point",
        "coordinates": [
          14.31273,
          52.263866
        ]
      },
      "properties": {
        "label": "Accidental death",
        "level": 4,
        "pos": "26143.152560771847,136839.87143448717",
        "src_id": "169615",
        "weight": "9.005666602499359e-05"
      }
    },
    {
      "type": "Feature",
      "id": "1681",
      "geometry": {
        "type": "Point",
        "coordinates": [
          12.113038,
          53.299611
        ]
      },
      "properties": {
        "label": "Accidental overdose",
        "level": 4,
        "pos": "20194.36212132725,141391.9817590329",
        "src_id": "169618",
        "weight": "9.005666602499359e-05"
      }
    },
    {
      "type": "Feature",
      "id": "1680",
      "geometry": {
        "type": "Point",
        "coordinates": [
          11.136775,
          50.573082
        ]
      },
      "properties": {
        "label": "Adverse drug reaction",
        "level": 4,
        "pos": "17554.184092916872,129631.93257908284",
        "src_id": "169884",
        "weight": "9.005666602499359e-05"
      }
    },
    {
      "type": "Feature",
      "id": "1678",
      "geometry": {
        "type": "Point",
        "coordinates": [
          14.036769,
          52.031923
        ]
      },
      "properties": {
        "label": "Airway complication of anaesthesia",
        "level": 4,
        "pos": "25396.850779477594,135835.11310280696",
        "src_id": "169923",
        "weight": "9.005666602499359e-05"
      }
    },
    {
      "type": "Feature",
      "id": "1677",
      "geometry": {
        "type": "Point",
        "coordinates": [
          9.913031,
          51.296219
        ]
      },
      "properties": {
        "label": "Allergy to animal",
        "level": 4,
        "pos": "14244.717466414977,132682.1630847354",
        "src_id": "170012",
        "weight": "9.013563770316561e-05"
      }
    },
    {
      "type": "Feature",
      "id": "1675",
      "geometry": {
        "type": "Point",
        "coordinates": [
          10.606168,
          53.162117
        ]
      },
      "properties": {
        "label": "Anoxia",
        "level": 4,
        "pos": "16119.222028506701,140781.4063800585",
        "src_id": "170458",
        "weight": "9.005666602499359e-05"
      }
    },
    {
      "type": "Feature",
      "id": "1674",
      "geometry": {
        "type": "Point",
        "coordinates": [
          9.569976,
          52.522078
        ]
      },
      "properties": {
        "label": "Apparent death",
        "level": 4,
        "pos": "13316.971705185444,137964.6330347619",
        "src_id": "170770",
        "weight": "9.025409522042365e-05"
      }
    },
    {
      "type": "Feature",
      "id": "1673",
      "geometry": {
        "type": "Point",
        "coordinates": [
          10.908918,
          53.269284
        ]
      },
      "properties": {
        "label": "Aspiration",
        "level": 4,
        "pos": "16937.966753349712,141257.14425308883",
        "src_id": "171004",
        "weight": "9.033306689859568e-05"
      }
    },
    {
      "type": "Feature",
      "id": "1672",
      "geometry": {
        "type": "Point",
        "coordinates": [
          9.738725,
          52.534522
        ]
      },
      "properties": {
        "label": "Atrial fibrillation",
        "level": 4,
        "pos": "13773.328069433433,138018.99970939633",
        "src_id": "171069",
        "weight": "9.017512354225163e-05"
      }
    },
    {
      "type": "Feature",
      "id": "1671",
      "geometry": {
        "type": "Point",
        "coordinates": [
          10.666226,
          50.898041
        ]
      },
      "properties": {
        "label": "Autonomic neuropathy",
        "level": 4,
        "pos": "16281.63742373204,130996.75795106092",
        "src_id": "171160",
        "weight": "9.013563770316561e-05"
      }
    },
    {
      "type": "Feature",
      "id": "1670",
      "geometry": {
        "type": "Point",
        "coordinates": [
          13.936872,
          51.333091
        ]
      },
      "properties": {
        "label": "Ballismus",
        "level": 4,
        "pos": "25126.6882697989,132838.97356909362",
        "src_id": "171248",
        "weight": "9.005666602499359e-05"
      }
    },
    {
      "type": "Feature",
      "id": "1669",
      "geometry": {
        "type": "Point",
        "coordinates": [
          10.127639,
          51.139153
        ]
      },
      "properties": {
        "label": "Benign familial neonatal convulsions",
        "level": 4,
        "pos": "14825.098611190959,132015.59837544398",
        "src_id": "171356",
        "weight": "9.005666602499359e-05"
      }
    },
    {
      "type": "Feature",
      "id": "1668",
      "geometry": {
        "type": "Point",
        "coordinates": [
          13.18506,
          53.137636
        ]
      },
      "properties": {
        "label": "Biopsy liver",
        "level": 4,
        "pos": "23093.506190741366,140672.89861545162",
        "src_id": "171638",
        "weight": "9.013563770316561e-05"
      }
    },
    {
      "type": "Feature",
      "id": "1667",
      "geometry": {
        "type": "Point",
        "coordinates": [
          13.027397,
          53.325692
        ]
      },
      "properties": {
        "label": "Biopsy skin",
        "level": 4,
        "pos": "22667.131184345333,141508.01612699236",
        "src_id": "171706",
        "weight": "9.005666602499359e-05"
      }
    },
    {
      "type": "Feature",
      "id": "1662",
      "geometry": {
        "type": "Point",
        "coordinates": [
          10.09243,
          51.023633
        ]
      },
      "properties": {
        "label": "Blood magnesium",
        "level": 4,
        "pos": "14729.878949977854,131526.80304752296",
        "src_id": "172259",
        "weight": "9.005666602499359e-05"
      }
    },
    {
      "type": "Feature",
      "id": "1661",
      "geometry": {
        "type": "Point",
        "coordinates": [
          13.736031,
          52.922993
        ]
      },
      "properties": {
        "label": "Bone densitometry",
        "level": 4,
        "pos": "24583.53743309897,139724.165603384",
        "src_id": "172466",
        "weight": "9.005666602499359e-05"
      }
    },
    {
      "type": "Feature",
      "id": "1660",
      "geometry": {
        "type": "Point",
        "coordinates": [
          10.07498,
          52.642837
        ]
      },
      "properties": {
        "label": "Bone marrow transplant",
        "level": 4,
        "pos": "14682.69189031549,138492.92360727797",
        "src_id": "172516",
        "weight": "9.005666602499359e-05"
      }
    },
    {
      "type": "Feature",
      "id": "1659",
      "geometry": {
        "type": "Point",
        "coordinates": [
          12.859821,
          53.140362
        ]
      },
      "properties": {
        "label": "Breast mass",
        "level": 4,
        "pos": "22213.936979894614,140684.979871331",
        "src_id": "172684",
        "weight": "9.005666602499359e-05"
      }
    },
    {
      "type": "Feature",
      "id": "1656",
      "geometry": {
        "type": "Point",
        "coordinates": [
          9.649725,
          52.717391
        ]
      },
      "properties": {
        "label": "Caffeine consumption",
        "level": 4,
        "pos": "13532.638159330336,138819.79706274607",
        "src_id": "172877",
        "weight": "9.005666602499359e-05"
      }
    },
    {
      "type": "Feature",
      "id": "1655",
      "geometry": {
        "type": "Point",
        "coordinates": [
          10.762633,
          53.192594
        ]
      },
      "properties": {
        "label": "Cardiac ablation",
        "level": 4,
        "pos": "16542.356627912388,140916.58166916444",
        "src_id": "173015",
        "weight": "9.005666602499359e-05"
      }
    },
    {
      "type": "Feature",
      "id": "1654",
      "geometry": {
        "type": "Point",
        "coordinates": [
          14.233222,
          52.363741
        ]
      },
      "properties": {
        "label": "Cerebral haemorrhage",
        "level": 4,
        "pos": "25928.129408083885,137274.1405238964",
        "src_id": "173375",
        "weight": "9.005666602499359e-05"
      }
    },
    {
      "type": "Feature",
      "id": "1650",
      "geometry": {
        "type": "Point",
        "coordinates": [
          9.597343,
          52.22659
        ]
      },
      "properties": {
        "label": "Complex regional pain syndrome",
        "level": 4,
        "pos": "13390.97998170775,136678.04413895874",
        "src_id": "174012",
        "weight": "9.013563770316561e-05"
      }
    },
    {
      "type": "Feature",
      "id": "1648",
      "geometry": {
        "type": "Point",
        "coordinates": [
          11.091263,
          50.64421
        ]
      },
      "properties": {
        "label": "Compression fracture",
        "level": 4,
        "pos": "17431.09919277842,129929.8592294343",
        "src_id": "174029",
        "weight": "9.005666602499359e-05"
      }
    },
    {
      "type": "Feature",
      "id": "1458",
      "geometry": {
        "type": "Point",
        "coordinates": [
          14.255811,
          52.584297
        ]
      },
      "properties": {
        "label": "Compulsions",
        "level": 4,
        "pos": "25989.218323614637,138236.6351624634",
        "src_id": "174031",
        "weight": "9.293581209449861e-05"
      }
    },
    {
      "type": "Feature",
      "id": "1645",
      "geometry": {
        "type": "Point",
        "coordinates": [
          14.146492,
          51.382993
        ]
      },
      "properties": {
        "label": "Drug hypersensitivity",
        "level": 4,
        "pos": "25693.577028132375,133051.38955232452",
        "src_id": "175372",
        "weight": "9.013563770316561e-05"
      }
    },
    {
      "type": "Feature",
      "id": "1644",
      "geometry": {
        "type": "Point",
        "coordinates": [
          14.281059,
          51.828554
        ]
      },
      "properties": {
        "label": "Dry throat",
        "level": 4,
        "pos": "26057.500873287263,134958.40650040036",
        "src_id": "175423",
        "weight": "9.013563770316561e-05"
      }
    },
    {
      "type": "Feature",
      "id": "1643",
      "geometry": {
        "type": "Point",
        "coordinates": [
          12.747373,
          50.669002
        ]
      },
      "properties": {
        "label": "Dysaesthesia",
        "level": 4,
        "pos": "21909.839534725365,130033.80676799167",
        "src_id": "175467",
        "weight": "9.005666602499359e-05"
      }
    },
    {
      "type": "Feature",
      "id": "1642",
      "geometry": {
        "type": "Point",
        "coordinates": [
          9.807617,
          52.831828
        ]
      },
      "properties": {
        "label": "Dyscalculia",
        "level": 4,
        "pos": "13959.641101851152,139322.63523843407",
        "src_id": "175470",
        "weight": "9.017512354225163e-05"
      }
    },
    {
      "type": "Feature",
      "id": "1641",
      "geometry": {
        "type": "Point",
        "coordinates": [
          13.379065,
          50.867198
        ]
      },
      "properties": {
        "label": "Dysthymic disorder",
        "level": 4,
        "pos": "23618.17236649062,130866.81003753757",
        "src_id": "175510",
        "weight": "9.013563770316561e-05"
      }
    },
    {
      "type": "Feature",
      "id": "1637",
      "geometry": {
        "type": "Point",
        "coordinates": [
          11.263714,
          50.733904
        ]
      },
      "properties": {
        "label": "Electrocardiogram normal",
        "level": 4,
        "pos": "17897.468459897416,130306.20342567483",
        "src_id": "175663",
        "weight": "9.005666602499359e-05"
      }
    },
    {
      "type": "Feature",
      "id": "1633",
      "geometry": {
        "type": "Point",
        "coordinates": [
          13.995887,
          52.697985
        ]
      },
      "properties": {
        "label": "Eye irritation",
        "level": 4,
        "pos": "25286.292399668182,138734.6642688504",
        "src_id": "176416",
        "weight": "9.005666602499359e-05"
      }
    },
    {
      "type": "Feature",
      "id": "1630",
      "geometry": {
        "type": "Point",
        "coordinates": [
          10.776248,
          50.808096
        ]
      },
      "properties": {
        "label": "Formication",
        "level": 4,
        "pos": "16579.17725603927,130618.0353210425",
        "src_id": "176868",
        "weight": "9.013563770316561e-05"
      }
    },
    {
      "type": "Feature",
      "id": "1629",
      "geometry": {
        "type": "Point",
        "coordinates": [
          9.813629,
          51.438498
        ]
      },
      "properties": {
        "label": "Gastric ulcer",
        "level": 4,
        "pos": "13975.899747250422,133287.9446154877",
        "src_id": "177111",
        "weight": "9.005666602499359e-05"
      }
    },
    {
      "type": "Feature",
      "id": "1628",
      "geometry": {
        "type": "Point",
        "coordinates": [
          11.920058,
          50.687367
        ]
      },
      "properties": {
        "label": "Gastroenteritis",
        "level": 4,
        "pos": "19672.47087724697,130110.85477277973",
        "src_id": "177145",
        "weight": "9.013563770316561e-05"
      }
    },
    {
      "type": "Feature",
      "id": "1626",
      "geometry": {
        "type": "Point",
        "coordinates": [
          10.548953,
          50.97933
        ]
      },
      "properties": {
        "label": "Genetic counselling",
        "level": 4,
        "pos": "15964.49376782244,131339.65714739074",
        "src_id": "177279",
        "weight": "9.005666602499359e-05"
      }
    },
    {
      "type": "Feature",
      "id": "1624",
      "geometry": {
        "type": "Point",
        "coordinates": [
          11.348709,
          53.322429
        ]
      },
      "properties": {
        "label": "Gliosis",
        "level": 4,
        "pos": "18127.334622893464,141493.50130776956",
        "src_id": "177390",
        "weight": "9.005666602499359e-05"
      }
    },
    {
      "type": "Feature",
      "id": "1622",
      "geometry": {
        "type": "Point",
        "coordinates": [
          13.711777,
          53.104028
        ]
      },
      "properties": {
        "label": "Haemorrhagic stroke",
        "level": 4,
        "pos": "24517.951527409346,140524.03741810087",
        "src_id": "177707",
        "weight": "9.005666602499359e-05"
      }
    },
    {
      "type": "Feature",
      "id": "1620",
      "geometry": {
        "type": "Point",
        "coordinates": [
          14.106068,
          52.041742
        ]
      },
      "properties": {
        "label": "Heart alternation",
        "level": 4,
        "pos": "25584.262638662243,135877.54319483362",
        "src_id": "177794",
        "weight": "9.005666602499359e-05"
      }
    },
    {
      "type": "Feature",
      "id": "1437",
      "geometry": {
        "type": "Point",
        "coordinates": [
          12.285865,
          50.428553
        ]
      },
      "properties": {
        "label": "Hernia",
        "level": 4,
        "pos": "20661.752829219495,129027.92624225767",
        "src_id": "178084",
        "weight": "9.278712402715061e-05"
      }
    },
    {
      "type": "Feature",
      "id": "1618",
      "geometry": {
        "type": "Point",
        "coordinates": [
          11.760372,
          53.361084
        ]
      },
      "properties": {
        "label": "Hip dysplasia",
        "level": 4,
        "pos": "19240.6163187497,141665.60205599468",
        "src_id": "178155",
        "weight": "9.005666602499359e-05"
      }
    },
    {
      "type": "Feature",
      "id": "1436",
      "geometry": {
        "type": "Point",
        "coordinates": [
          11.167736,
          53.107513
        ]
      },
      "properties": {
        "label": "Hyperbaric oxygen therapy",
        "level": 4,
        "pos": "17637.906119149062,140539.46871023654",
        "src_id": "178422",
        "weight": "9.379524526539485e-05"
      }
    },
    {
      "type": "Feature",
      "id": "1617",
      "geometry": {
        "type": "Point",
        "coordinates": [
          9.573733,
          52.117838
        ]
      },
      "properties": {
        "label": "Hypoparathyroidism",
        "level": 4,
        "pos": "13327.131044189258,136206.6762635693",
        "src_id": "178615",
        "weight": "9.005666602499359e-05"
      }
    },
    {
      "type": "Feature",
      "id": "1614",
      "geometry": {
        "type": "Point",
        "coordinates": [
          14.087975,
          51.75366
        ]
      },
      "properties": {
        "label": "Iron deficiency",
        "level": 4,
        "pos": "25535.32670231808,134636.55054874744",
        "src_id": "179432",
        "weight": "9.005666602499359e-05"
      }
    },
    {
      "type": "Feature",
      "id": "1613",
      "geometry": {
        "type": "Point",
        "coordinates": [
          12.512956,
          50.534689
        ]
      },
      "properties": {
        "label": "Ischaemic stroke",
        "level": 4,
        "pos": "21275.890963899154,129471.2965279189",
        "src_id": "179451",
        "weight": "9.005666602499359e-05"
      }
    },
    {
      "type": "Feature",
      "id": "1612",
      "geometry": {
        "type": "Point",
        "coordinates": [
          9.473961,
          52.386165
        ]
      },
      "properties": {
        "label": "Laser therapy",
        "level": 4,
        "pos": "13057.30702464514,137371.77573269798",
        "src_id": "179805",
        "weight": "9.013563770316561e-05"
      }
    },
    {
      "type": "Feature",
      "id": "1611",
      "geometry": {
        "type": "Point",
        "coordinates": [
          10.320331,
          52.810087
        ]
      },
      "properties": {
        "label": "Lice infestation",
        "level": 4,
        "pos": "15346.205649370073,139227.0060976947",
        "src_id": "179944",
        "weight": "9.025409522042365e-05"
      }
    },
    {
      "type": "Feature",
      "id": "1610",
      "geometry": {
        "type": "Point",
        "coordinates": [
          13.856535,
          51.228059
        ]
      },
      "properties": {
        "label": "Limb injury",
        "level": 4,
        "pos": "24909.42952200038,132392.62042516348",
        "src_id": "179982",
        "weight": "9.005666602499359e-05"
      }
    },
    {
      "type": "Feature",
      "id": "1609",
      "geometry": {
        "type": "Point",
        "coordinates": [
          14.288854,
          51.896403
        ]
      },
      "properties": {
        "label": "Lipids",
        "level": 4,
        "pos": "26078.578888016884,135250.4585739409",
        "src_id": "180038",
        "weight": "9.013563770316561e-05"
      }
    },
    {
      "type": "Feature",
      "id": "1608",
      "geometry": {
        "type": "Point",
        "coordinates": [
          9.784273,
          51.182967
        ]
      },
      "properties": {
        "label": "Lissencephaly",
        "level": 4,
        "pos": "13896.514398601848,132201.3075697125",
        "src_id": "180069",
        "weight": "9.013563770316561e-05"
      }
    },
    {
      "type": "Feature",
      "id": "1607",
      "geometry": {
        "type": "Point",
        "coordinates": [
          12.678718,
          53.279992
        ]
      },
      "properties": {
        "label": "Magnetic therapy",
        "level": 4,
        "pos": "21724.1714693851,141304.74058124397",
        "src_id": "180371",
        "weight": "9.005666602499359e-05"
      }
    },
    {
      "type": "Feature",
      "id": "1606",
      "geometry": {
        "type": "Point",
        "coordinates": [
          9.918105,
          51.228209
        ]
      },
      "properties": {
        "label": "Mammogram",
        "level": 4,
        "pos": "14258.439847917538,132393.256451837",
        "src_id": "180491",
        "weight": "9.017512354225163e-05"
      }
    },
    {
      "type": "Feature",
      "id": "1605",
      "geometry": {
        "type": "Point",
        "coordinates": [
          13.876429,
          52.590233
        ]
      },
      "properties": {
        "label": "Menarche",
        "level": 4,
        "pos": "24963.230600685747,138262.6094344611",
        "src_id": "180697",
        "weight": "9.005666602499359e-05"
      }
    },
    {
      "type": "Feature",
      "id": "1603",
      "geometry": {
        "type": "Point",
        "coordinates": [
          9.803653,
          52.508516
        ]
      },
      "properties": {
        "label": "Monoplegia",
        "level": 4,
        "pos": "13948.917925462634,137905.3868572436",
        "src_id": "181113",
        "weight": "9.005666602499359e-05"
      }
    },
    {
      "type": "Feature",
      "id": "1601",
      "geometry": {
        "type": "Point",
        "coordinates": [
          11.695244,
          50.619883
        ]
      },
      "properties": {
        "label": "Muscle contractions involuntary",
        "level": 4,
        "pos": "19064.48758376768,129827.91056071485",
        "src_id": "181239",
        "weight": "9.005666602499359e-05"
      }
    },
    {
      "type": "Feature",
      "id": "1600",
      "geometry": {
        "type": "Point",
        "coordinates": [
          13.61814,
          51.212345
        ]
      },
      "properties": {
        "label": "Musculoskeletal chest pain",
        "level": 4,
        "pos": "24264.71906126078,132325.92551569946",
        "src_id": "181281",
        "weight": "9.005666602499359e-05"
      }
    },
    {
      "type": "Feature",
      "id": "1599",
      "geometry": {
        "type": "Point",
        "coordinates": [
          10.295345,
          51.024637
        ]
      },
      "properties": {
        "label": "Neck injury",
        "level": 4,
        "pos": "15278.63798741062,131531.04460874273",
        "src_id": "181551",
        "weight": "9.005666602499359e-05"
      }
    },
    {
      "type": "Feature",
      "id": "1598",
      "geometry": {
        "type": "Point",
        "coordinates": [
          13.429927,
          50.918245
        ]
      },
      "properties": {
        "label": "Nerve compression",
        "level": 4,
        "pos": "23755.71848341023,131081.9264219674",
        "src_id": "181678",
        "weight": "9.013563770316561e-05"
      }
    },
    {
      "type": "Feature",
      "id": "1597",
      "geometry": {
        "type": "Point",
        "coordinates": [
          10.48005,
          52.966642
        ]
      },
      "properties": {
        "label": "Neurofibromatosis",
        "level": 4,
        "pos": "15778.153050313831,139916.7203773828",
        "src_id": "181728",
        "weight": "9.005666602499359e-05"
      }
    },
    {
      "type": "Feature",
      "id": "1596",
      "geometry": {
        "type": "Point",
        "coordinates": [
          12.067449,
          50.529019
        ]
      },
      "properties": {
        "label": "Neuromyopathy",
        "level": 4,
        "pos": "20071.068134623798,129447.59074755273",
        "src_id": "181758",
        "weight": "9.017512354225163e-05"
      }
    },
    {
      "type": "Feature",
      "id": "1595",
      "geometry": {
        "type": "Point",
        "coordinates": [
          9.414421,
          51.641871
        ]
      },
      "properties": {
        "label": "Neurotoxicity",
        "level": 4,
        "pos": "12896.292687535548,134157.11604417083",
        "src_id": "181782",
        "weight": "9.005666602499359e-05"
      }
    },
    {
      "type": "Feature",
      "id": "1594",
      "geometry": {
        "type": "Point",
        "coordinates": [
          10.825546,
          52.993542
        ]
      },
      "properties": {
        "label": "No adverse event",
        "level": 4,
        "pos": "16712.496931747723,140035.48093244815",
        "src_id": "181851",
        "weight": "9.005666602499359e-05"
      }
    },
    {
      "type": "Feature",
      "id": "1593",
      "geometry": {
        "type": "Point",
        "coordinates": [
          9.842682,
          51.618145
        ]
      },
      "properties": {
        "label": "Occipital neuralgia",
        "level": 4,
        "pos": "14054.46571572409,134055.51734242684",
        "src_id": "182001",
        "weight": "9.013563770316561e-05"
      }
    },
    {
      "type": "Feature",
      "id": "1592",
      "geometry": {
        "type": "Point",
        "coordinates": [
          9.454511,
          51.932427
        ]
      },
      "properties": {
        "label": "Oedema mouth",
        "level": 4,
        "pos": "13004.708788513602,135405.6960716136",
        "src_id": "182064",
        "weight": "9.005666602499359e-05"
      }
    },
    {
      "type": "Feature",
      "id": "1591",
      "geometry": {
        "type": "Point",
        "coordinates": [
          13.473356,
          53.095018
        ]
      },
      "properties": {
        "label": "Off label use",
        "level": 4,
        "pos": "23873.1743054245,140484.1521856635",
        "src_id": "182190",
        "weight": "9.013563770316561e-05"
      }
    },
    {
      "type": "Feature",
      "id": "1589",
      "geometry": {
        "type": "Point",
        "coordinates": [
          14.404041,
          52.185966
        ]
      },
      "properties": {
        "label": "Opisthotonus",
        "level": 4,
        "pos": "26390.086272361583,136501.83445894634",
        "src_id": "182255",
        "weight": "9.005666602499359e-05"
      }
    },
    {
      "type": "Feature",
      "id": "1588",
      "geometry": {
        "type": "Point",
        "coordinates": [
          11.928729,
          53.352431
        ]
      },
      "properties": {
        "label": "Oppositional defiant disorder",
        "level": 4,
        "pos": "19695.916030884724,141627.05882335888",
        "src_id": "182258",
        "weight": "9.005666602499359e-05"
      }
    },
    {
      "type": "Feature",
      "id": "1587",
      "geometry": {
        "type": "Point",
        "coordinates": [
          11.053225,
          53.136223
        ]
      },
      "properties": {
        "label": "Oral surgery",
        "level": 4,
        "pos": "17328.22737811417,140666.6380370417",
        "src_id": "182328",
        "weight": "9.013563770316561e-05"
      }
    },
    {
      "type": "Feature",
      "id": "1584",
      "geometry": {
        "type": "Point",
        "coordinates": [
          12.595804,
          53.316159
        ]
      },
      "properties": {
        "label": "Periodic limb movement disorder",
        "level": 4,
        "pos": "21499.943406997416,141465.6004810911",
        "src_id": "183150",
        "weight": "9.005666602499359e-05"
      }
    },
    {
      "type": "Feature",
      "id": "1583",
      "geometry": {
        "type": "Point",
        "coordinates": [
          11.912259,
          50.50596
        ]
      },
      "properties": {
        "label": "Phantom pain",
        "level": 4,
        "pos": "19651.37869374719,129351.19081592845",
        "src_id": "183343",
        "weight": "9.013563770316561e-05"
      }
    },
    {
      "type": "Feature",
      "id": "1582",
      "geometry": {
        "type": "Point",
        "coordinates": [
          9.607804,
          51.317543
        ]
      },
      "properties": {
        "label": "Phlebotomy",
        "level": 4,
        "pos": "13419.273030346685,132772.82925067528",
        "src_id": "183411",
        "weight": "9.005666602499359e-05"
      }
    },
    {
      "type": "Feature",
      "id": "1403",
      "geometry": {
        "type": "Point",
        "coordinates": [
          11.392775,
          50.520225
        ]
      },
      "properties": {
        "label": "Pituitary tumour benign",
        "level": 4,
        "pos": "18246.50420087979,129410.815037742",
        "src_id": "183515",
        "weight": "9.278712402715061e-05"
      }
    },
    {
      "type": "Feature",
      "id": "1579",
      "geometry": {
        "type": "Point",
        "coordinates": [
          13.719369,
          51.15126
        ]
      },
      "properties": {
        "label": "Platelet count decreased",
        "level": 4,
        "pos": "24538.480220265323,132066.89676820612",
        "src_id": "183595",
        "weight": "9.005666602499359e-05"
      }
    },
    {
      "type": "Feature",
      "id": "1578",
      "geometry": {
        "type": "Point",
        "coordinates": [
          9.515756,
          51.483295
        ]
      },
      "properties": {
        "label": "Polymyositis",
        "level": 4,
        "pos": "13170.344740557375,133479.06243628016",
        "src_id": "183780",
        "weight": "9.005666602499359e-05"
      }
    },
    {
      "type": "Feature",
      "id": "1575",
      "geometry": {
        "type": "Point",
        "coordinates": [
          9.999902,
          52.56874
        ]
      },
      "properties": {
        "label": "Psychopathic personality",
        "level": 4,
        "pos": "14479.652647921044,138168.5927717513",
        "src_id": "184446",
        "weight": "9.005666602499359e-05"
      }
    },
    {
      "type": "Feature",
      "id": "1574",
      "geometry": {
        "type": "Point",
        "coordinates": [
          13.76525,
          51.067744
        ]
      },
      "properties": {
        "label": "Pulmonary oedema",
        "level": 4,
        "pos": "24662.559835918695,131713.29637493283",
        "src_id": "184534",
        "weight": "9.017512354225163e-05"
      }
    },
    {
      "type": "Feature",
      "id": "1573",
      "geometry": {
        "type": "Point",
        "coordinates": [
          9.406626,
          51.853029
        ]
      },
      "properties": {
        "label": "Radiation exposure",
        "level": 4,
        "pos": "12875.207611961185,135063.7109369128",
        "src_id": "184698",
        "weight": "9.005666602499359e-05"
      }
    },
    {
      "type": "Feature",
      "id": "1572",
      "geometry": {
        "type": "Point",
        "coordinates": [
          10.073568,
          51.43089
        ]
      },
      "properties": {
        "label": "Relaxation therapy",
        "level": 4,
        "pos": "14678.871292399506,133255.49817964388",
        "src_id": "184965",
        "weight": "9.013563770316561e-05"
      }
    },
    {
      "type": "Feature",
      "id": "1571",
      "geometry": {
        "type": "Point",
        "coordinates": [
          11.063427,
          50.815453
        ]
      },
      "properties": {
        "label": "Respiratory distress",
        "level": 4,
        "pos": "17355.816580443672,130648.99417294643",
        "src_id": "185132",
        "weight": "9.005666602499359e-05"
      }
    },
    {
      "type": "Feature",
      "id": "1570",
      "geometry": {
        "type": "Point",
        "coordinates": [
          12.416136,
          53.289749
        ]
      },
      "properties": {
        "label": "Respiratory therapy",
        "level": 4,
        "pos": "21014.04826632528,141348.1219179548",
        "src_id": "185152",
        "weight": "9.005666602499359e-05"
      }
    },
    {
      "type": "Feature",
      "id": "1392",
      "geometry": {
        "type": "Point",
        "coordinates": [
          13.53496,
          51.007954
        ]
      },
      "properties": {
        "label": "Retrograde amnesia",
        "level": 4,
        "pos": "24039.770977718665,131460.5481080428",
        "src_id": "185284",
        "weight": "9.286609570532264e-05"
      }
    },
    {
      "type": "Feature",
      "id": "1569",
      "geometry": {
        "type": "Point",
        "coordinates": [
          12.611149,
          50.708165
        ]
      },
      "properties": {
        "label": "Reye's syndrome",
        "level": 4,
        "pos": "21541.442361201538,130198.1287512148",
        "src_id": "185319",
        "weight": "9.005666602499359e-05"
      }
    },
    {
      "type": "Feature",
      "id": "1568",
      "geometry": {
        "type": "Point",
        "coordinates": [
          12.073572,
          50.665921
        ]
      },
      "properties": {
        "label": "Rhabdomyolysis",
        "level": 4,
        "pos": "20087.6303211033,130020.89048143188",
        "src_id": "185322",
        "weight": "9.005666602499359e-05"
      }
    },
    {
      "type": "Feature",
      "id": "1567",
      "geometry": {
        "type": "Point",
        "coordinates": [
          11.639316,
          50.534009
        ]
      },
      "properties": {
        "label": "Rib fracture",
        "level": 4,
        "pos": "18913.23727763705,129468.45515224751",
        "src_id": "185375",
        "weight": "9.025409522042365e-05"
      }
    },
    {
      "type": "Feature",
      "id": "1566",
      "geometry": {
        "type": "Point",
        "coordinates": [
          11.174676,
          53.27795
        ]
      },
      "properties": {
        "label": "Severe mental retardation",
        "level": 4,
        "pos": "17656.67613496066,141295.6639802455",
        "src_id": "185804",
        "weight": "9.005666602499359e-05"
      }
    },
    {
      "type": "Feature",
      "id": "1564",
      "geometry": {
        "type": "Point",
        "coordinates": [
          12.630392,
          53.440827
        ]
      },
      "properties": {
        "label": "Sleep talking",
        "level": 4,
        "pos": "21593.48378607172,142021.13247697425",
        "src_id": "186014",
        "weight": "9.017512354225163e-05"
      }
    },
    {
      "type": "Feature",
      "id": "1563",
      "geometry": {
        "type": "Point",
        "coordinates": [
          9.358326,
          52.222004
        ]
      },
      "properties": {
        "label": "Social problem",
        "level": 4,
        "pos": "12744.585435431445,136658.1431764293",
        "src_id": "186091",
        "weight": "9.005666602499359e-05"
      }
    },
    {
      "type": "Feature",
      "id": "1562",
      "geometry": {
        "type": "Point",
        "coordinates": [
          14.190816,
          51.978283
        ]
      },
      "properties": {
        "label": "Spousal abuse",
        "level": 4,
        "pos": "25813.448809187983,135603.4931246747",
        "src_id": "186330",
        "weight": "9.005666602499359e-05"
      }
    },
    {
      "type": "Feature",
      "id": "1561",
      "geometry": {
        "type": "Point",
        "coordinates": [
          11.577117,
          53.319634
        ]
      },
      "properties": {
        "label": "Swollen tongue",
        "level": 4,
        "pos": "18745.028864026313,141481.05924377491",
        "src_id": "186617",
        "weight": "9.025409522042365e-05"
      }
    },
    {
      "type": "Feature",
      "id": "1560",
      "geometry": {
        "type": "Point",
        "coordinates": [
          13.968003,
          52.503156
        ]
      },
      "properties": {
        "label": "Tetany",
        "level": 4,
        "pos": "25210.879528319292,137881.97724896728",
        "src_id": "186855",
        "weight": "9.005666602499359e-05"
      }
    },
    {
      "type": "Feature",
      "id": "1559",
      "geometry": {
        "type": "Point",
        "coordinates": [
          11.818334,
          53.204534
        ]
      },
      "properties": {
        "label": "Thrombosis",
        "level": 4,
        "pos": "19397.36759666201,140969.55740105425",
        "src_id": "186970",
        "weight": "9.013563770316561e-05"
      }
    },
    {
      "type": "Feature",
      "id": "1558",
      "geometry": {
        "type": "Point",
        "coordinates": [
          13.947854,
          52.396526
        ]
      },
      "properties": {
        "label": "Thyroid cancer",
        "level": 4,
        "pos": "25156.39234626522,137416.9072922158",
        "src_id": "187010",
        "weight": "9.005666602499359e-05"
      }
    },
    {
      "type": "Feature",
      "id": "1557",
      "geometry": {
        "type": "Point",
        "coordinates": [
          9.8572,
          52.694485
        ]
      },
      "properties": {
        "label": "Thyroid disorder",
        "level": 4,
        "pos": "14093.725149430744,138719.30877216902",
        "src_id": "187020",
        "weight": "9.005666602499359e-05"
      }
    },
    {
      "type": "Feature",
      "id": "1556",
      "geometry": {
        "type": "Point",
        "coordinates": [
          10.535068,
          50.740413
        ]
      },
      "properties": {
        "label": "Tonic clonic movements",
        "level": 4,
        "pos": "15926.944948809625,130333.53733860122",
        "src_id": "187141",
        "weight": "9.005666602499359e-05"
      }
    },
    {
      "type": "Feature",
      "id": "1555",
      "geometry": {
        "type": "Point",
        "coordinates": [
          12.818987,
          50.780575
        ]
      },
      "properties": {
        "label": "Transfusion",
        "level": 4,
        "pos": "22103.510754730836,130502.31359602704",
        "src_id": "187305",
        "weight": "9.005666602499359e-05"
      }
    },
    {
      "type": "Feature",
      "id": "1554",
      "geometry": {
        "type": "Point",
        "coordinates": [
          13.836745,
          51.612578
        ]
      },
      "properties": {
        "label": "Truancy",
        "level": 4,
        "pos": "24855.91128049846,134031.68799162155",
        "src_id": "187464",
        "weight": "9.005666602499359e-05"
      }
    },
    {
      "type": "Feature",
      "id": "1550",
      "geometry": {
        "type": "Point",
        "coordinates": [
          10.513418,
          53.138915
        ]
      },
      "properties": {
        "label": "Vasculitis",
        "level": 4,
        "pos": "15868.39236864234,140678.57307781212",
        "src_id": "188335",
        "weight": "9.017512354225163e-05"
      }
    },